vcc_sched/network/output/VCC_Combined_Passes_20191216_20200106.csv

Pass #,GS Name,SC Name,SC NORAD ID,Start Time (UTCG),Stop Time (UTCG),Duration (sec),Max El (deg)
0,UVAGS,VCC-C,44430,2019-12-16 18:24:24.040,2019-12-16 18:33:25.554,541.514,11.604
1,WFF,VCC-C,44430,2019-12-16 18:24:57.165,2019-12-16 18:34:08.958,551.793,12.794
2,ODUGS,VCC-C,44430,2019-12-16 18:25:03.836,2019-12-16 18:33:53.556,529.72,10.606
3,VTGS,VCC-A,44428,2019-12-16 19:01:05.831,2019-12-16 19:10:27.764,561.933,13.97
4,UVAGS,VCC-A,44428,2019-12-16 19:01:10.916,2019-12-16 19:10:58.192,587.276,17.324
5,WFF,VCC-A,44428,2019-12-16 19:01:41.958,2019-12-16 19:11:39.773,597.815,19.877
6,ODUGS,VCC-A,44428,2019-12-16 19:01:47.355,2019-12-16 19:11:30.314,582.959,16.589
7,VTGS,VCC-B,44431,2019-12-16 19:03:48.504,2019-12-16 19:13:14.157,565.653,14.436
8,UVAGS,VCC-B,44431,2019-12-16 19:03:53.638,2019-12-16 19:13:44.099,590.461,17.92
9,WFF,VCC-B,44431,2019-12-16 19:04:24.615,2019-12-16 19:14:25.478,600.863,20.632
10,ODUGS,VCC-B,44431,2019-12-16 19:04:29.872,2019-12-16 19:14:16.429,586.557,17.211
11,VTGS,VCC-C,44430,2019-12-16 20:00:32.432,2019-12-16 20:11:00.555,628.123,35.593
12,UVAGS,VCC-C,44430,2019-12-16 20:00:39.728,2019-12-16 20:11:18.796,639.068,48.103
13,WFF,VCC-C,44430,2019-12-16 20:01:10.649,2019-12-16 20:11:52.264,641.615,63.02
14,ODUGS,VCC-C,44430,2019-12-16 20:01:13.271,2019-12-16 20:11:52.760,639.489,49.386
15,VTGS,VCC-A,44428,2019-12-16 20:37:19.519,2019-12-16 20:48:02.989,643.47,84.76
16,UVAGS,VCC-A,44428,2019-12-16 20:37:29.277,2019-12-16 20:48:13.332,644.055,69.356
17,WFF,VCC-A,44428,2019-12-16 20:38:02.442,2019-12-16 20:48:39.755,637.313,50.714
18,ODUGS,VCC-A,44428,2019-12-16 20:38:02.905,2019-12-16 20:48:46.005,643.1,64.51
19,VTGS,VCC-B,44431,2019-12-16 20:40:02.506,2019-12-16 20:50:45.944,643.438,89.659
20,UVAGS,VCC-B,44431,2019-12-16 20:40:12.490,2019-12-16 20:50:55.675,643.185,64.499
21,WFF,VCC-B,44431,2019-12-16 20:40:45.939,2019-12-16 20:51:21.541,635.602,47.152
22,ODUGS,VCC-B,44431,2019-12-16 20:40:46.180,2019-12-16 20:51:28.196,642.016,59.79
23,VTGS,VCC-C,44430,2019-12-16 21:37:09.958,2019-12-16 21:46:55.354,585.396,19.609
24,UVAGS,VCC-C,44430,2019-12-16 21:37:27.697,2019-12-16 21:46:49.359,561.662,15.024
25,ODUGS,VCC-C,44430,2019-12-16 21:38:05.721,2019-12-16 21:47:15.488,549.767,13.532
26,WFF,VCC-C,44430,2019-12-16 21:38:11.666,2019-12-16 21:46:57.228,525.562,11.312
27,ODUGS,VCC-A,44428,2019-12-17 11:41:03.197,2019-12-17 11:49:53.922,530.725,11.632
28,WFF,VCC-A,44428,2019-12-17 11:41:23.587,2019-12-17 11:50:10.560,526.973,11.459
29,ODUGS,VCC-B,44431,2019-12-17 11:43:40.723,2019-12-17 11:52:39.995,539.272,12.448
30,WFF,VCC-B,44431,2019-12-17 11:44:01.122,2019-12-17 11:52:56.632,535.51,12.252
31,VTGS,VCC-C,44430,2019-12-17 12:38:37.484,2019-12-17 12:48:54.403,616.919,32.133
32,UVAGS,VCC-C,44430,2019-12-17 12:39:00.123,2019-12-17 12:49:24.241,624.118,35.562
33,ODUGS,VCC-C,44430,2019-12-17 12:39:01.001,2019-12-17 12:49:37.405,636.404,53.585
34,WFF,VCC-C,44430,2019-12-17 12:39:20.135,2019-12-17 12:49:53.930,633.795,50.692
35,VTGS,VCC-A,44428,2019-12-17 13:15:37.304,2019-12-17 13:26:18.643,641.339,86.699
36,UVAGS,VCC-A,44428,2019-12-17 13:16:02.856,2019-12-17 13:26:47.181,644.325,86.879
37,ODUGS,VCC-A,44428,2019-12-17 13:16:14.376,2019-12-17 13:26:56.222,641.846,57.271
38,WFF,VCC-A,44428,2019-12-17 13:16:32.031,2019-12-17 13:27:13.496,641.465,62.063
39,VTGS,VCC-B,44431,2019-12-17 13:18:20.182,2019-12-17 13:29:01.675,641.493,87.647
40,UVAGS,VCC-B,44431,2019-12-17 13:18:45.881,2019-12-17 13:29:30.179,644.298,81.527
41,ODUGS,VCC-B,44431,2019-12-17 13:18:58.136,2019-12-17 13:29:38.981,640.845,53.514
42,WFF,VCC-B,44431,2019-12-17 13:19:15.653,2019-12-17 13:29:56.334,640.681,58.063
43,VTGS,VCC-C,44430,2019-12-17 14:15:09.660,2019-12-17 14:25:18.198,608.538,24.383
44,UVAGS,VCC-C,44430,2019-12-17 14:15:36.709,2019-12-17 14:25:47.522,610.813,24.132
45,ODUGS,VCC-C,44430,2019-12-17 14:16:04.401,2019-12-17 14:25:52.435,588.034,17.964
46,WFF,VCC-C,44430,2019-12-17 14:16:17.513,2019-12-17 14:26:11.946,594.433,19.671
47,VTGS,VCC-A,44428,2019-12-17 14:53:06.887,2019-12-17 15:02:33.004,566.117,14.626
48,UVAGS,VCC-A,44428,2019-12-17 14:53:32.595,2019-12-17 15:03:04.367,571.772,14.976
49,ODUGS,VCC-A,44428,2019-12-17 14:54:09.099,2019-12-17 15:03:08.204,539.105,11.358
50,WFF,VCC-A,44428,2019-12-17 14:54:18.066,2019-12-17 15:03:29.827,551.761,12.737
51,VTGS,VCC-B,44431,2019-12-17 14:55:53.224,2019-12-17 15:05:15.704,562.48,14.153
52,UVAGS,VCC-B,44431,2019-12-17 14:56:18.755,2019-12-17 15:05:47.261,568.506,14.53
53,ODUGS,VCC-B,44431,2019-12-17 14:56:55.858,2019-12-17 15:05:51.065,535.207,11.02
54,WFF,VCC-B,44431,2019-12-17 14:57:04.472,2019-12-17 15:06:12.870,548.398,12.388
55,VTGS,VCC-A,44428,2019-12-17 18:09:00.921,2019-12-17 18:17:42.725,521.804,10.145
56,UVAGS,VCC-A,44428,2019-12-17 18:09:05.930,2019-12-17 18:18:17.981,552.051,12.517
57,WFF,VCC-A,44428,2019-12-17 18:09:38.457,2019-12-17 18:19:01.135,562.678,13.901
58,ODUGS,VCC-A,44428,2019-12-17 18:09:44.969,2019-12-17 18:18:47.017,542.048,11.564
59,VTGS,VCC-B,44431,2019-12-17 18:11:44.004,2019-12-17 18:20:29.510,525.506,10.425
60,UVAGS,VCC-B,44431,2019-12-17 18:11:48.985,2019-12-17 18:21:04.363,555.378,12.864
61,WFF,VCC-B,44431,2019-12-17 18:12:21.321,2019-12-17 18:21:47.441,566.12,14.329
62,ODUGS,VCC-B,44431,2019-12-17 18:12:27.754,2019-12-17 18:21:33.748,545.994,11.929
63,VTGS,VCC-C,44430,2019-12-17 19:07:55.038,2019-12-17 19:17:55.325,600.287,21.323
64,UVAGS,VCC-C,44430,2019-12-17 19:08:00.957,2019-12-17 19:18:19.652,618.695,27.124
65,WFF,VCC-C,44430,2019-12-17 19:08:31.212,2019-12-17 19:18:57.522,626.31,32.818
66,ODUGS,VCC-C,44430,2019-12-17 19:08:35.431,2019-12-17 19:18:53.435,618.004,26.85
67,VTGS,VCC-A,44428,2019-12-17 19:45:15.513,2019-12-17 19:55:50.052,634.539,41.548
68,UVAGS,VCC-A,44428,2019-12-17 19:45:23.228,2019-12-17 19:56:06.762,643.534,57.151
69,WFF,VCC-A,44428,2019-12-17 19:45:54.371,2019-12-17 19:56:38.901,644.53,75.593
70,ODUGS,VCC-A,44428,2019-12-17 19:45:56.694,2019-12-17 19:56:40.611,643.917,59.274
71,VTGS,VCC-B,44431,2019-12-17 19:47:58.166,2019-12-17 19:58:34.297,636.131,44.112
72,UVAGS,VCC-B,44431,2019-12-17 19:48:06.044,2019-12-17 19:58:50.435,644.391,61.041
73,WFF,VCC-B,44431,2019-12-17 19:48:37.317,2019-12-17 19:59:22.086,644.769,80.765
74,ODUGS,VCC-B,44431,2019-12-17 19:48:39.487,2019-12-17 19:59:24.221,644.734,63.538
75,VTGS,VCC-C,44430,2019-12-17 20:44:14.430,2019-12-17 20:54:42.197,627.767,40.49
76,UVAGS,VCC-C,44430,2019-12-17 20:44:27.433,2019-12-17 20:54:44.820,617.387,29.854
77,ODUGS,VCC-C,44430,2019-12-17 20:45:02.439,2019-12-17 20:55:14.942,612.503,27.344
78,WFF,VCC-C,44430,2019-12-17 20:45:04.372,2019-12-17 20:55:03.014,598.642,22.74
79,VTGS,VCC-A,44428,2019-12-17 21:22:01.775,2019-12-17 21:31:32.882,571.107,16.644
80,UVAGS,VCC-A,44428,2019-12-17 21:22:21.088,2019-12-17 21:31:24.383,543.295,12.714
81,ODUGS,VCC-A,44428,2019-12-17 21:23:00.267,2019-12-17 21:31:49.187,528.92,11.349
82,VTGS,VCC-B,44431,2019-12-17 21:24:47.011,2019-12-17 21:34:11.562,564.551,15.631
83,UVAGS,VCC-B,44431,2019-12-17 21:25:06.991,2019-12-17 21:34:02.068,535.077,11.905
84,ODUGS,VCC-B,44431,2019-12-17 21:25:46.652,2019-12-17 21:34:26.306,519.654,10.582
85,VTGS,VCC-C,44430,2019-12-18 11:46:30.732,2019-12-18 11:55:54.029,563.297,15.861
86,ODUGS,VCC-C,44430,2019-12-18 11:46:40.341,2019-12-18 11:56:44.829,604.488,24.691
87,UVAGS,VCC-C,44430,2019-12-18 11:46:49.539,2019-12-18 11:56:26.491,576.952,17.656
88,WFF,VCC-C,44430,2019-12-18 11:47:00.160,2019-12-18 11:57:01.061,600.901,23.974
89,VTGS,VCC-A,44428,2019-12-18 12:23:41.415,2019-12-18 12:34:07.998,626.583,39.248
90,UVAGS,VCC-A,44428,2019-12-18 12:24:04.806,2019-12-18 12:34:37.430,632.624,43.463
91,ODUGS,VCC-A,44428,2019-12-18 12:24:08.018,2019-12-18 12:34:49.581,641.563,66.732
92,WFF,VCC-A,44428,2019-12-18 12:24:26.928,2019-12-18 12:35:06.260,639.332,62.757
93,VTGS,VCC-B,44431,2019-12-18 12:26:22.765,2019-12-18 12:36:51.667,628.902,42.154
94,UVAGS,VCC-B,44431,2019-12-18 12:26:46.395,2019-12-18 12:37:20.975,634.58,46.682
95,ODUGS,VCC-B,44431,2019-12-18 12:26:50.406,2019-12-18 12:37:32.795,642.389,71.918
96,WFF,VCC-B,44431,2019-12-18 12:27:09.200,2019-12-18 12:37:49.507,640.307,67.557
97,VTGS,VCC-C,44430,2019-12-18 13:22:07.341,2019-12-18 13:32:39.534,632.193,42.803
98,UVAGS,VCC-C,44430,2019-12-18 13:22:34.185,2019-12-18 13:33:08.050,633.865,40.952
99,ODUGS,VCC-C,44430,2019-12-18 13:22:54.206,2019-12-18 13:33:14.625,620.419,28.76
100,WFF,VCC-C,44430,2019-12-18 13:23:09.764,2019-12-18 13:33:32.732,622.968,31.261
101,VTGS,VCC-A,44428,2019-12-18 14:00:28.622,2019-12-18 14:10:30.606,601.984,21.711
102,UVAGS,VCC-A,44428,2019-12-18 14:00:55.555,2019-12-18 14:11:00.273,604.718,21.643
103,ODUGS,VCC-A,44428,2019-12-18 14:01:25.156,2019-12-18 14:11:04.892,579.736,16.239
104,WFF,VCC-A,44428,2019-12-18 14:01:37.537,2019-12-18 14:11:24.848,587.311,17.845
105,VTGS,VCC-B,44431,2019-12-18 14:03:14.225,2019-12-18 14:13:13.153,598.928,20.856
106,UVAGS,VCC-B,44431,2019-12-18 14:03:41.094,2019-12-18 14:13:42.946,601.852,20.841
107,ODUGS,VCC-B,44431,2019-12-18 14:04:11.356,2019-12-18 14:13:47.465,576.109,15.669
108,WFF,VCC-B,44431,2019-12-18 14:04:23.438,2019-12-18 14:14:07.558,584.12,17.245
109,VTGS,VCC-C,44430,2019-12-18 15:00:10.325,2019-12-18 15:08:51.312,520.987,10.211
110,UVAGS,VCC-C,44430,2019-12-18 15:00:33.244,2019-12-18 15:09:25.249,532.005,10.824
111,WFF,VCC-A,44428,2019-12-18 17:17:30.597,2019-12-18 17:26:17.187,526.59,10.408
112,WFF,VCC-B,44431,2019-12-18 17:20:13.902,2019-12-18 17:29:03.736,529.834,10.663
113,VTGS,VCC-C,44430,2019-12-18 18:15:16.231,2019-12-18 18:24:39.074,562.843,14.28
114,UVAGS,VCC-C,44430,2019-12-18 18:15:21.311,2019-12-18 18:25:09.095,587.784,17.736
115,WFF,VCC-C,44430,2019-12-18 18:15:51.974,2019-12-18 18:25:50.187,598.213,20.412
116,ODUGS,VCC-C,44430,2019-12-18 18:15:57.565,2019-12-18 18:25:41.372,583.807,17.025
117,VTGS,VCC-A,44428,2019-12-18 18:53:13.240,2019-12-18 19:03:23.712,610.472,24.165
118,UVAGS,VCC-A,44428,2019-12-18 18:53:19.493,2019-12-18 19:03:46.460,626.967,31.085
119,WFF,VCC-A,44428,2019-12-18 18:53:49.882,2019-12-18 19:04:23.323,633.441,38.302
120,ODUGS,VCC-A,44428,2019-12-18 18:53:53.651,2019-12-18 19:04:20.430,626.779,31.034
121,VTGS,VCC-B,44431,2019-12-18 18:55:55.774,2019-12-18 19:06:09.031,613.257,25.244
122,UVAGS,VCC-B,44431,2019-12-18 18:56:02.137,2019-12-18 19:06:31.236,629.099,32.626
123,WFF,VCC-B,44431,2019-12-18 18:56:32.532,2019-12-18 19:07:07.686,635.154,40.491
124,ODUGS,VCC-B,44431,2019-12-18 18:56:36.195,2019-12-18 19:07:05.245,629.05,32.672
125,VTGS,VCC-C,44430,2019-12-18 19:51:27.422,2019-12-18 20:02:08.692,641.27,89.57
126,UVAGS,VCC-C,44430,2019-12-18 19:51:37.373,2019-12-18 20:02:18.499,641.126,65.013
127,WFF,VCC-C,44430,2019-12-18 19:52:10.459,2019-12-18 20:02:44.137,633.678,47.48
128,ODUGS,VCC-C,44430,2019-12-18 19:52:11.042,2019-12-18 20:02:51.015,639.973,60.267
129,VTGS,VCC-A,44428,2019-12-18 20:29:38.800,2019-12-18 20:40:00.280,621.48,33.17
130,UVAGS,VCC-A,44428,2019-12-18 20:29:52.822,2019-12-18 20:40:00.840,608.018,24.91
131,ODUGS,VCC-A,44428,2019-12-18 20:30:28.428,2019-12-18 20:40:30.117,601.689,22.771
132,WFF,VCC-A,44428,2019-12-18 20:30:31.245,2019-12-18 20:40:16.764,585.519,19.085
133,VTGS,VCC-B,44431,2019-12-18 20:32:22.744,2019-12-18 20:42:41.078,618.334,31.024
134,UVAGS,VCC-B,44431,2019-12-18 20:32:37.154,2019-12-18 20:42:40.899,603.745,23.415
135,ODUGS,VCC-B,44431,2019-12-18 20:33:12.990,2019-12-18 20:43:09.857,596.867,21.383
136,WFF,VCC-B,44431,2019-12-18 20:33:16.102,2019-12-18 20:42:55.926,579.824,17.948
137,ODUGS,VCC-C,44430,2019-12-19 10:54:42.136,2019-12-19 11:03:37.206,535.07,12.14
138,WFF,VCC-C,44430,2019-12-19 10:55:02.296,2019-12-19 11:03:53.489,531.193,11.944
139,VTGS,VCC-A,44428,2019-12-19 11:32:03.578,2019-12-19 11:41:47.328,583.75,19.319
140,ODUGS,VCC-A,44428,2019-12-19 11:32:17.497,2019-12-19 11:42:35.495,617.998,30.287
141,UVAGS,VCC-A,44428,2019-12-19 11:32:23.654,2019-12-19 11:42:18.866,595.212,21.412
142,WFF,VCC-A,44428,2019-12-19 11:32:37.322,2019-12-19 11:42:51.976,614.654,29.246
143,VTGS,VCC-B,44431,2019-12-19 11:34:42.999,2019-12-19 11:44:32.070,589.071,20.56
144,ODUGS,VCC-B,44431,2019-12-19 11:34:58.228,2019-12-19 11:45:19.485,621.257,32.391
145,UVAGS,VCC-B,44431,2019-12-19 11:35:03.446,2019-12-19 11:45:03.350,599.904,22.769
146,WFF,VCC-B,44431,2019-12-19 11:35:17.924,2019-12-19 11:45:35.920,617.996,31.21
147,VTGS,VCC-C,44430,2019-12-19 12:29:17.367,2019-12-19 12:39:57.181,639.814,89.356
148,UVAGS,VCC-C,44430,2019-12-19 12:29:43.016,2019-12-19 12:40:25.671,642.655,83.112
149,ODUGS,VCC-C,44430,2019-12-19 12:29:55.054,2019-12-19 12:40:34.537,639.483,54.504
150,WFF,VCC-C,44430,2019-12-19 12:30:12.380,2019-12-19 12:40:51.585,639.205,59.141
151,VTGS,VCC-A,44428,2019-12-19 13:07:59.338,2019-12-19 13:18:27.871,628.533,35.992
152,UVAGS,VCC-A,44428,2019-12-19 13:08:26.354,2019-12-19 13:18:56.553,630.199,34.811
153,ODUGS,VCC-A,44428,2019-12-19 13:08:48.527,2019-12-19 13:19:02.620,614.093,25.004
154,WFF,VCC-A,44428,2019-12-19 13:09:03.667,2019-12-19 13:19:21.282,617.615,27.2
155,VTGS,VCC-B,44431,2019-12-19 13:10:43.935,2019-12-19 13:21:10.472,626.537,34.114
156,UVAGS,VCC-B,44431,2019-12-19 13:11:10.990,2019-12-19 13:21:39.216,628.226,33.102
157,ODUGS,VCC-B,44431,2019-12-19 13:11:33.865,2019-12-19 13:21:45.124,611.259,23.92
158,WFF,VCC-B,44431,2019-12-19 13:11:48.722,2019-12-19 13:22:03.842,615.12,26.035
159,VTGS,VCC-C,44430,2019-12-19 14:06:46.813,2019-12-19 14:16:08.464,561.651,14.218
160,UVAGS,VCC-C,44430,2019-12-19 14:07:12.386,2019-12-19 14:16:39.939,567.553,14.585
161,ODUGS,VCC-C,44430,2019-12-19 14:07:49.354,2019-12-19 14:16:43.687,534.333,11.051
162,WFF,VCC-C,44430,2019-12-19 14:07:57.803,2019-12-19 14:17:05.176,547.373,12.417
163,UVAGS,VCC-A,44428,2019-12-19 14:46:34.114,2019-12-19 14:55:18.661,524.547,10.149
164,VTGS,VCC-C,44430,2019-12-19 17:22:33.450,2019-12-19 17:31:15.187,521.737,10.241
165,UVAGS,VCC-C,44430,2019-12-19 17:22:38.381,2019-12-19 17:31:50.217,551.836,12.648
166,WFF,VCC-C,44430,2019-12-19 17:23:10.493,2019-12-19 17:32:33.043,562.55,14.076
167,ODUGS,VCC-C,44430,2019-12-19 17:23:17.254,2019-12-19 17:32:19.441,542.187,11.709
168,VTGS,VCC-A,44428,2019-12-19 18:01:10.461,2019-12-19 18:10:46.327,575.866,15.949
169,UVAGS,VCC-A,44428,2019-12-19 18:01:15.745,2019-12-19 18:11:14.775,599.03,19.881
170,WFF,VCC-A,44428,2019-12-19 18:01:46.450,2019-12-19 18:11:55.327,608.877,23.14
171,ODUGS,VCC-A,44428,2019-12-19 18:01:51.422,2019-12-19 18:11:47.646,596.224,19.256
172,VTGS,VCC-B,44431,2019-12-19 18:03:53.067,2019-12-19 18:13:32.480,579.413,16.518
173,UVAGS,VCC-B,44431,2019-12-19 18:03:58.420,2019-12-19 18:14:00.420,602.0,20.625
174,WFF,VCC-B,44431,2019-12-19 18:04:28.986,2019-12-19 18:14:40.616,611.63,24.105
175,ODUGS,VCC-B,44431,2019-12-19 18:04:33.920,2019-12-19 18:14:33.451,599.531,20.032
176,VTGS,VCC-C,44430,2019-12-19 18:58:44.918,2019-12-19 19:09:18.298,633.38,42.976
177,UVAGS,VCC-C,44430,2019-12-19 18:58:52.725,2019-12-19 19:09:34.646,641.921,59.428
178,WFF,VCC-C,44430,2019-12-19 18:59:23.659,2019-12-19 19:10:06.197,642.538,78.767
179,ODUGS,VCC-C,44430,2019-12-19 18:59:26.158,2019-12-19 19:10:08.439,642.281,61.793
180,VTGS,VCC-A,44428,2019-12-19 19:37:25.630,2019-12-19 19:48:07.169,641.539,73.054
181,UVAGS,VCC-A,44428,2019-12-19 19:37:36.336,2019-12-19 19:48:15.026,638.69,51.687
182,ODUGS,VCC-A,44428,2019-12-19 19:38:10.269,2019-12-19 19:48:47.009,636.74,47.601
183,WFF,VCC-A,44428,2019-12-19 19:38:10.559,2019-12-19 19:48:39.000,628.441,38.124
184,VTGS,VCC-B,44431,2019-12-19 19:40:08.823,2019-12-19 19:50:49.594,640.771,67.869
185,UVAGS,VCC-B,44431,2019-12-19 19:40:19.784,2019-12-19 19:50:56.821,637.037,48.064
186,ODUGS,VCC-B,44431,2019-12-19 19:40:53.816,2019-12-19 19:51:28.605,634.789,44.211
187,WFF,VCC-B,44431,2019-12-19 19:40:54.234,2019-12-19 19:51:20.054,625.82,35.607
188,VTGS,VCC-C,44430,2019-12-19 20:35:30.192,2019-12-19 20:44:54.921,564.729,15.904
189,UVAGS,VCC-C,44430,2019-12-19 20:35:49.959,2019-12-19 20:44:45.761,535.802,12.115
190,ODUGS,VCC-C,44430,2019-12-19 20:36:29.447,2019-12-19 20:45:10.171,520.724,10.781
191,ODUGS,VCC-A,44428,2019-12-20 10:40:46.927,2019-12-20 10:50:09.268,562.341,15.152
192,UVAGS,VCC-A,44428,2019-12-20 10:41:05.068,2019-12-20 10:49:45.281,520.213,10.752
193,WFF,VCC-A,44428,2019-12-20 10:41:07.408,2019-12-20 10:50:25.941,558.533,14.867
194,ODUGS,VCC-B,44431,2019-12-20 10:43:25.497,2019-12-20 10:52:54.585,569.088,16.147
195,VTGS,VCC-B,44431,2019-12-20 10:43:27.044,2019-12-20 10:51:56.144,509.1,10.131
196,UVAGS,VCC-B,44431,2019-12-20 10:43:42.337,2019-12-20 10:52:31.477,529.14,11.511
197,WFF,VCC-B,44431,2019-12-20 10:43:45.797,2019-12-20 10:53:11.104,565.307,15.826
198,VTGS,VCC-C,44430,2019-12-20 11:36:42.288,2019-12-20 11:47:08.319,626.031,40.43
199,UVAGS,VCC-C,44430,2019-12-20 11:37:05.778,2019-12-20 11:47:37.678,631.9,44.785
200,ODUGS,VCC-C,44430,2019-12-20 11:37:09.356,2019-12-20 11:47:49.676,640.32,69.003
201,WFF,VCC-C,44430,2019-12-20 11:37:27.889,2019-12-20 11:48:06.001,638.112,64.822
202,VTGS,VCC-A,44428,2019-12-20 12:15:41.510,2019-12-20 12:26:22.535,641.025,71.663
203,UVAGS,VCC-A,44428,2019-12-20 12:16:07.628,2019-12-20 12:26:50.959,643.331,66.774
204,ODUGS,VCC-A,44428,2019-12-20 12:16:22.077,2019-12-20 12:26:59.075,636.998,44.106
205,WFF,VCC-A,44428,2019-12-20 12:16:39.365,2019-12-20 12:27:16.856,637.491,47.918
206,VTGS,VCC-B,44431,2019-12-20 12:18:24.892,2019-12-20 12:29:05.394,640.502,66.853
207,UVAGS,VCC-B,44431,2019-12-20 12:18:51.126,2019-12-20 12:29:33.815,642.689,62.44
208,ODUGS,VCC-B,44431,2019-12-20 12:19:06.308,2019-12-20 12:29:41.716,635.408,41.506
209,WFF,VCC-B,44431,2019-12-20 12:19:23.290,2019-12-20 12:29:59.436,636.146,45.099
210,VTGS,VCC-C,44430,2019-12-20 13:13:28.834,2019-12-20 13:23:27.626,598.792,21.224
211,UVAGS,VCC-C,44430,2019-12-20 13:13:55.734,2019-12-20 13:23:57.329,601.595,21.18
212,ODUGS,VCC-C,44430,2019-12-20 13:14:25.656,2019-12-20 13:24:01.857,576.201,15.895
213,WFF,VCC-C,44430,2019-12-20 13:14:37.554,2019-12-20 13:24:21.508,583.954,17.482
214,VTGS,VCC-A,44428,2019-12-20 13:53:24.447,2019-12-20 14:02:35.699,551.252,12.857
215,UVAGS,VCC-A,44428,2019-12-20 13:53:49.382,2019-12-20 14:03:07.852,558.47,13.308
216,ODUGS,VCC-A,44428,2019-12-20 13:54:28.241,2019-12-20 14:03:11.609,523.368,10.087
217,WFF,VCC-A,44428,2019-12-20 13:54:35.995,2019-12-20 14:03:34.130,538.135,11.424
218,VTGS,VCC-B,44431,2019-12-20 13:56:10.987,2019-12-20 14:05:18.491,547.504,12.466
219,UVAGS,VCC-B,44431,2019-12-20 13:56:35.702,2019-12-20 14:05:50.864,555.162,12.94
220,WFF,VCC-B,44431,2019-12-20 13:57:22.345,2019-12-20 14:06:17.173,534.828,11.136
221,WFF,VCC-C,44430,2019-12-20 16:30:24.234,2019-12-20 16:39:09.711,525.477,10.427
222,VTGS,VCC-A,44428,2019-12-20 17:09:04.831,2019-12-20 17:18:00.855,536.024,11.318
223,UVAGS,VCC-A,44428,2019-12-20 17:09:09.767,2019-12-20 17:18:34.446,564.679,13.979
224,WFF,VCC-A,44428,2019-12-20 17:09:41.844,2019-12-20 17:19:17.429,575.585,15.704
225,ODUGS,VCC-A,44428,2019-12-20 17:09:47.758,2019-12-20 17:19:04.793,557.035,13.1
226,VTGS,VCC-B,44431,2019-12-20 17:11:47.739,2019-12-20 17:20:47.522,539.783,11.654
227,UVAGS,VCC-B,44431,2019-12-20 17:11:52.672,2019-12-20 17:21:20.669,567.997,14.399
228,WFF,VCC-B,44431,2019-12-20 17:12:24.434,2019-12-20 17:22:03.350,578.916,16.224
229,ODUGS,VCC-B,44431,2019-12-20 17:12:30.423,2019-12-20 17:21:51.319,560.896,13.54
230,VTGS,VCC-C,44430,2019-12-20 18:06:04.117,2019-12-20 18:16:13.495,609.378,24.451
231,UVAGS,VCC-C,44430,2019-12-20 18:06:10.388,2019-12-20 18:16:36.039,625.651,31.533
232,WFF,VCC-C,44430,2019-12-20 18:06:40.377,2019-12-20 18:17:12.342,631.965,38.981
233,ODUGS,VCC-C,44430,2019-12-20 18:06:44.495,2019-12-20 18:17:10.002,625.507,31.517
234,VTGS,VCC-A,44428,2019-12-20 18:45:17.948,2019-12-20 18:55:57.316,639.368,53.267
235,UVAGS,VCC-A,44428,2019-12-20 18:45:26.341,2019-12-20 18:56:11.727,645.386,74.511
236,WFF,VCC-A,44428,2019-12-20 18:45:58.314,2019-12-20 18:56:42.136,643.822,82.983
237,ODUGS,VCC-A,44428,2019-12-20 18:45:59.757,2019-12-20 18:56:45.263,645.506,78.212
238,VTGS,VCC-B,44431,2019-12-20 18:48:00.697,2019-12-20 18:58:41.091,640.394,56.95
239,UVAGS,VCC-B,44431,2019-12-20 18:48:09.272,2019-12-20 18:58:54.913,645.641,79.598
240,WFF,VCC-B,44431,2019-12-20 18:48:41.245,2019-12-20 18:59:24.626,643.381,77.549
241,ODUGS,VCC-B,44431,2019-12-20 18:48:42.697,2019-12-20 18:59:28.355,645.658,83.671
242,VTGS,VCC-C,44430,2019-12-20 19:42:27.512,2019-12-20 19:52:45.616,618.104,32.18
243,UVAGS,VCC-C,44430,2019-12-20 19:42:41.697,2019-12-20 19:52:45.873,604.176,24.194
244,ODUGS,VCC-C,44430,2019-12-20 19:43:17.383,2019-12-20 19:53:15.003,597.62,22.104
245,WFF,VCC-C,44430,2019-12-20 19:43:19.939,2019-12-20 19:53:01.035,581.096,18.531
246,VTGS,VCC-A,44428,2019-12-20 20:22:15.286,2019-12-20 20:31:16.905,541.619,12.864
247,VTGS,VCC-B,44431,2019-12-20 20:25:01.241,2019-12-20 20:33:54.545,533.304,12.035
248,VTGS,VCC-C,44430,2019-12-21 10:44:25.635,2019-12-21 10:54:08.888,583.253,19.498
249,ODUGS,VCC-C,44430,2019-12-21 10:44:39.813,2019-12-21 10:54:56.900,617.087,30.627
250,UVAGS,VCC-C,44430,2019-12-21 10:44:45.784,2019-12-21 10:54:40.358,594.574,21.611
251,WFF,VCC-C,44430,2019-12-21 10:44:59.129,2019-12-21 10:55:12.823,613.694,29.548
252,VTGS,VCC-A,44428,2019-12-21 11:23:37.456,2019-12-21 11:34:12.111,634.655,52.56
253,UVAGS,VCC-A,44428,2019-12-21 11:24:01.758,2019-12-21 11:34:41.093,639.335,58.103
254,ODUGS,VCC-A,44428,2019-12-21 11:24:08.108,2019-12-21 11:34:51.979,643.871,88.575
255,WFF,VCC-A,44428,2019-12-21 11:24:27.055,2019-12-21 11:35:09.284,642.229,83.308
256,VTGS,VCC-B,44431,2019-12-21 11:26:19.390,2019-12-21 11:36:55.476,636.086,56.684
257,UVAGS,VCC-B,44431,2019-12-21 11:26:43.899,2019-12-21 11:37:24.369,640.47,62.558
258,ODUGS,VCC-B,44431,2019-12-21 11:26:51.017,2019-12-21 11:37:34.963,643.946,85.752
259,WFF,VCC-B,44431,2019-12-21 11:27:09.596,2019-12-21 11:37:52.063,642.467,88.761
260,VTGS,VCC-C,44430,2019-12-21 12:20:19.852,2019-12-21 12:30:46.243,626.391,35.466
261,UVAGS,VCC-C,44430,2019-12-21 12:20:46.870,2019-12-21 12:31:14.918,628.048,34.323
262,ODUGS,VCC-C,44430,2019-12-21 12:21:09.210,2019-12-21 12:31:20.924,611.714,24.666
263,WFF,VCC-C,44430,2019-12-21 12:21:23.769,2019-12-21 12:31:39.048,615.279,26.841
264,VTGS,VCC-A,44428,2019-12-21 13:00:41.121,2019-12-21 13:10:30.458,589.337,18.584
265,UVAGS,VCC-A,44428,2019-12-21 13:01:07.749,2019-12-21 13:11:00.660,592.911,18.706
266,ODUGS,VCC-A,44428,2019-12-21 13:01:39.980,2019-12-21 13:11:04.891,564.911,14.126
267,WFF,VCC-A,44428,2019-12-21 13:01:51.661,2019-12-21 13:11:25.890,574.229,15.621
268,VTGS,VCC-B,44431,2019-12-21 13:03:27.020,2019-12-21 13:13:12.998,585.978,17.906
269,UVAGS,VCC-B,44431,2019-12-21 13:03:53.543,2019-12-21 13:13:43.353,589.81,18.067
270,ODUGS,VCC-B,44431,2019-12-21 13:04:26.419,2019-12-21 13:13:47.505,561.086,13.659
271,WFF,VCC-B,44431,2019-12-21 13:04:37.519,2019-12-21 13:14:08.401,570.882,15.132
272,UVAGS,VCC-C,44430,2019-12-21 13:58:52.455,2019-12-21 14:07:34.246,521.791,10.034
273,UVAGS,VCC-A,44428,2019-12-21 16:16:59.170,2019-12-21 16:25:48.952,529.782,10.536
274,WFF,VCC-A,44428,2019-12-21 16:17:33.735,2019-12-21 16:26:32.789,539.054,11.469
275,UVAGS,VCC-B,44431,2019-12-21 16:19:42.535,2019-12-21 16:28:35.395,532.86,10.784
276,WFF,VCC-B,44431,2019-12-21 16:20:16.566,2019-12-21 16:29:18.973,542.407,11.776
277,VTGS,VCC-C,44430,2019-12-21 17:13:22.620,2019-12-21 17:22:56.777,574.157,15.934
278,UVAGS,VCC-C,44430,2019-12-21 17:13:27.883,2019-12-21 17:23:25.167,597.284,19.881
279,WFF,VCC-C,44430,2019-12-21 17:13:57.963,2019-12-21 17:24:05.064,607.101,23.159
280,ODUGS,VCC-C,44430,2019-12-21 17:14:03.519,2019-12-21 17:23:58.036,594.517,19.262
281,VTGS,VCC-A,44428,2019-12-21 17:53:12.895,2019-12-21 18:03:33.211,620.316,28.896
282,UVAGS,VCC-A,44428,2019-12-21 17:53:19.620,2019-12-21 18:03:53.776,634.156,37.965
283,WFF,VCC-A,44428,2019-12-21 17:53:50.674,2019-12-21 18:04:29.535,638.861,48.201
284,ODUGS,VCC-A,44428,2019-12-21 17:53:53.425,2019-12-21 18:04:27.826,634.401,38.389
285,VTGS,VCC-B,44431,2019-12-21 17:55:55.427,2019-12-21 18:06:18.120,622.693,30.332
286,UVAGS,VCC-B,44431,2019-12-21 17:56:02.281,2019-12-21 18:06:38.131,635.85,40.1
287,WFF,VCC-B,44431,2019-12-21 17:56:33.113,2019-12-21 18:07:13.168,640.055,51.313
288,ODUGS,VCC-B,44431,2019-12-21 17:56:36.016,2019-12-21 18:07:12.184,636.168,40.689
289,VTGS,VCC-C,44430,2019-12-21 18:49:35.078,2019-12-21 19:00:14.382,639.304,72.208
290,UVAGS,VCC-C,44430,2019-12-21 18:49:45.822,2019-12-21 19:00:22.144,636.322,50.998
291,WFF,VCC-C,44430,2019-12-21 18:50:19.482,2019-12-21 19:00:45.393,625.911,37.601
292,ODUGS,VCC-C,44430,2019-12-21 18:50:19.756,2019-12-21 19:00:54.073,634.317,46.94
293,VTGS,VCC-A,44428,2019-12-21 19:29:44.485,2019-12-21 19:39:51.099,606.614,25.532
294,UVAGS,VCC-A,44428,2019-12-21 19:30:00.145,2019-12-21 19:39:48.619,588.474,19.477
295,ODUGS,VCC-A,44428,2019-12-21 19:30:36.765,2019-12-21 19:40:16.520,579.755,17.712
296,WFF,VCC-A,44428,2019-12-21 19:30:41.428,2019-12-21 19:40:01.425,559.997,14.892
297,VTGS,VCC-B,44431,2019-12-21 19:32:28.802,2019-12-21 19:42:31.151,602.349,23.963
298,UVAGS,VCC-B,44431,2019-12-21 19:32:44.918,2019-12-21 19:42:27.864,582.946,18.322
299,ODUGS,VCC-B,44431,2019-12-21 19:33:21.842,2019-12-21 19:42:55.380,573.538,16.632
300,WFF,VCC-B,44431,2019-12-21 19:33:26.589,2019-12-21 19:42:39.374,552.785,13.978
301,ODUGS,VCC-C,44430,2019-12-22 09:52:30.790,2019-12-22 10:01:51.239,560.449,15.057
302,UVAGS,VCC-C,44430,2019-12-22 09:52:49.005,2019-12-22 10:01:27.180,518.175,10.673
303,WFF,VCC-C,44430,2019-12-22 09:52:50.534,2019-12-22 10:02:07.082,556.548,14.766
304,VTGS,VCC-A,44428,2019-12-22 10:31:50.050,2019-12-22 10:41:53.289,603.239,24.795
305,ODUGS,VCC-A,44428,2019-12-22 10:32:08.979,2019-12-22 10:42:38.635,629.656,39.853
306,UVAGS,VCC-A,44428,2019-12-22 10:32:11.510,2019-12-22 10:42:23.869,612.359,27.423
307,WFF,VCC-A,44428,2019-12-22 10:32:29.202,2019-12-22 10:42:55.858,626.656,38.132
308,VTGS,VCC-B,44431,2019-12-22 10:34:30.212,2019-12-22 10:44:37.520,607.308,26.428
309,ODUGS,VCC-B,44431,2019-12-22 10:34:50.325,2019-12-22 10:45:22.244,631.919,42.838
310,UVAGS,VCC-B,44431,2019-12-22 10:34:51.989,2019-12-22 10:45:07.900,615.911,29.228
311,WFF,VCC-B,44431,2019-12-22 10:35:10.076,2019-12-22 10:45:39.089,629.013,40.874
312,VTGS,VCC-C,44430,2019-12-22 11:27:22.546,2019-12-22 11:38:01.895,639.349,71.751
313,UVAGS,VCC-C,44430,2019-12-22 11:27:48.648,2019-12-22 11:38:30.301,641.653,66.829
314,ODUGS,VCC-C,44430,2019-12-22 11:28:03.088,2019-12-22 11:38:38.413,635.325,44.067
315,WFF,VCC-C,44430,2019-12-22 11:28:19.587,2019-12-22 11:38:55.361,635.774,47.899
316,VTGS,VCC-A,44428,2019-12-22 12:08:05.728,2019-12-22 12:18:25.721,619.993,29.364
317,UVAGS,VCC-A,44428,2019-12-22 12:08:32.840,2019-12-22 12:18:54.673,621.833,28.749
318,ODUGS,VCC-A,44428,2019-12-22 12:08:57.782,2019-12-22 12:19:00.135,602.353,21.094
319,WFF,VCC-A,44428,2019-12-22 12:09:12.732,2019-12-22 12:19:19.945,607.213,23.001
320,VTGS,VCC-B,44431,2019-12-22 12:10:50.692,2019-12-22 12:21:08.222,617.53,27.996
321,UVAGS,VCC-B,44431,2019-12-22 12:11:17.804,2019-12-22 12:21:37.258,619.454,27.487
322,ODUGS,VCC-B,44431,2019-12-22 12:11:43.437,2019-12-22 12:21:42.578,599.141,20.255
323,WFF,VCC-B,44431,2019-12-22 12:11:57.729,2019-12-22 12:22:02.115,604.386,22.107
324,VTGS,VCC-C,44430,2019-12-22 13:05:02.757,2019-12-22 13:14:12.152,549.395,12.797
325,UVAGS,VCC-C,44430,2019-12-22 13:05:27.689,2019-12-22 13:14:44.282,556.593,13.245
326,ODUGS,VCC-C,44430,2019-12-22 13:06:06.569,2019-12-22 13:14:47.966,521.397,10.029
327,WFF,VCC-C,44430,2019-12-22 13:06:13.496,2019-12-22 13:15:09.655,536.159,11.363
328,VTGS,VCC-C,44430,2019-12-22 16:20:37.933,2019-12-22 16:29:31.282,533.349,11.207
329,UVAGS,VCC-C,44430,2019-12-22 16:20:42.815,2019-12-22 16:30:04.943,562.128,13.852
330,WFF,VCC-C,44430,2019-12-22 16:21:14.019,2019-12-22 16:30:47.036,573.017,15.56
331,ODUGS,VCC-C,44430,2019-12-22 16:21:20.834,2019-12-22 16:30:35.228,554.394,12.974
332,VTGS,VCC-A,44428,2019-12-22 17:01:08.149,2019-12-22 17:10:57.114,588.965,18.359
333,UVAGS,VCC-A,44428,2019-12-22 17:01:13.721,2019-12-22 17:11:23.525,609.804,23.071
334,WFF,VCC-A,44428,2019-12-22 17:01:44.960,2019-12-22 17:12:03.642,618.682,27.325
335,ODUGS,VCC-A,44428,2019-12-22 17:01:48.744,2019-12-22 17:11:56.947,608.203,22.589
336,VTGS,VCC-B,44431,2019-12-22 17:03:50.665,2019-12-22 17:13:42.931,592.266,19.062
337,UVAGS,VCC-B,44431,2019-12-22 17:03:56.320,2019-12-22 17:14:08.818,612.498,24.016
338,WFF,VCC-B,44431,2019-12-22 17:04:27.091,2019-12-22 17:14:48.166,621.075,28.586
339,ODUGS,VCC-B,44431,2019-12-22 17:04:31.191,2019-12-22 17:14:42.356,611.165,23.58
340,VTGS,VCC-C,44430,2019-12-22 17:56:48.185,2019-12-22 18:07:25.327,637.142,52.775
341,UVAGS,VCC-C,44430,2019-12-22 17:56:56.552,2019-12-22 18:07:39.795,643.243,73.948
342,WFF,VCC-C,44430,2019-12-22 17:57:27.613,2019-12-22 18:08:09.340,641.727,83.497
343,ODUGS,VCC-C,44430,2019-12-22 17:57:29.954,2019-12-22 18:08:13.319,643.365,77.622
344,VTGS,VCC-A,44428,2019-12-22 18:37:25.912,2019-12-22 18:48:02.559,636.647,54.255
345,UVAGS,VCC-A,44428,2019-12-22 18:37:37.681,2019-12-22 18:48:07.866,630.185,38.944
346,ODUGS,VCC-A,44428,2019-12-22 18:38:12.066,2019-12-22 18:48:39.001,626.935,35.744
347,WFF,VCC-A,44428,2019-12-22 18:38:13.964,2019-12-22 18:48:29.910,615.946,29.244
348,VTGS,VCC-B,44431,2019-12-22 18:40:09.295,2019-12-22 18:50:44.363,635.068,50.329
349,UVAGS,VCC-B,44431,2019-12-22 18:40:21.358,2019-12-22 18:50:49.006,627.648,36.372
350,ODUGS,VCC-B,44431,2019-12-22 18:40:55.885,2019-12-22 18:51:19.907,624.022,33.368
351,WFF,VCC-B,44431,2019-12-22 18:40:57.566,2019-12-22 18:51:09.885,612.319,27.431
352,VTGS,VCC-C,44430,2019-12-22 19:33:42.594,2019-12-22 19:42:42.711,540.117,12.864
353,VTGS,VCC-A,44428,2019-12-23 09:40:24.301,2019-12-23 09:49:20.477,536.176,12.442
354,ODUGS,VCC-A,44428,2019-12-23 09:40:28.030,2019-12-23 09:50:15.168,587.138,19.464
355,UVAGS,VCC-A,44428,2019-12-23 09:40:41.310,2019-12-23 09:49:54.379,553.069,13.975
356,WFF,VCC-A,44428,2019-12-23 09:40:49.249,2019-12-23 09:50:32.700,583.451,19.016
357,VTGS,VCC-B,44431,2019-12-23 09:43:02.052,2019-12-23 09:52:06.257,544.205,13.289
358,ODUGS,VCC-B,44431,2019-12-23 09:43:07.422,2019-12-23 09:52:59.831,592.409,20.722
359,UVAGS,VCC-B,44431,2019-12-23 09:43:19.574,2019-12-23 09:52:39.738,560.164,14.883
360,WFF,VCC-B,44431,2019-12-23 09:43:28.031,2019-12-23 09:53:16.779,588.748,20.215
361,VTGS,VCC-C,44430,2019-12-23 10:34:39.385,2019-12-23 10:45:11.930,632.545,51.366
362,UVAGS,VCC-C,44430,2019-12-23 10:35:03.621,2019-12-23 10:45:40.919,637.298,56.824
363,ODUGS,VCC-C,44430,2019-12-23 10:35:09.754,2019-12-23 10:45:51.885,642.131,86.993
364,WFF,VCC-C,44430,2019-12-23 10:35:27.611,2019-12-23 10:46:08.001,640.39,81.725
365,VTGS,VCC-A,44428,2019-12-23 11:15:40.971,2019-12-23 11:26:19.202,638.231,54.599
366,UVAGS,VCC-A,44428,2019-12-23 11:16:07.530,2019-12-23 11:26:47.633,640.103,51.498
367,ODUGS,VCC-A,44428,2019-12-23 11:16:24.837,2019-12-23 11:26:54.921,630.084,35.061
368,WFF,VCC-A,44428,2019-12-23 11:16:42.404,2019-12-23 11:27:13.960,631.556,38.081
369,VTGS,VCC-B,44431,2019-12-23 11:18:24.773,2019-12-23 11:29:01.867,637.094,51.109
370,UVAGS,VCC-B,44431,2019-12-23 11:18:51.413,2019-12-23 11:29:30.314,638.901,48.389
371,ODUGS,VCC-B,44431,2019-12-23 11:19:09.439,2019-12-23 11:29:37.415,627.976,33.228
372,WFF,VCC-B,44431,2019-12-23 11:19:26.234,2019-12-23 11:29:55.966,629.732,36.098
373,VTGS,VCC-C,44430,2019-12-23 12:11:39.267,2019-12-23 12:21:27.664,588.397,18.693
374,UVAGS,VCC-C,44430,2019-12-23 12:12:05.910,2019-12-23 12:21:57.805,591.895,18.802
375,ODUGS,VCC-C,44430,2019-12-23 12:12:37.986,2019-12-23 12:22:02.010,564.024,14.183
376,WFF,VCC-C,44430,2019-12-23 12:12:48.569,2019-12-23 12:22:21.779,573.21,15.681
377,VTGS,VCC-A,44428,2019-12-23 12:53:35.896,2019-12-23 13:02:32.248,536.352,11.409
378,UVAGS,VCC-A,44428,2019-12-23 12:53:59.898,2019-12-23 13:03:05.272,545.374,11.946
379,WFF,VCC-A,44428,2019-12-23 12:54:48.121,2019-12-23 13:03:33.220,525.099,10.351
380,VTGS,VCC-B,44431,2019-12-23 12:56:22.525,2019-12-23 13:05:15.115,532.59,11.083
381,UVAGS,VCC-B,44431,2019-12-23 12:56:46.262,2019-12-23 13:05:48.370,542.108,11.642
382,WFF,VCC-B,44431,2019-12-23 12:57:33.997,2019-12-23 13:06:15.937,521.94,10.114
383,UVAGS,VCC-C,44430,2019-12-23 15:27:52.645,2019-12-23 15:36:39.081,526.436,10.378
384,WFF,VCC-C,44430,2019-12-23 15:28:26.049,2019-12-23 15:37:21.631,535.582,11.286
385,VTGS,VCC-A,44428,2019-12-23 16:09:01.433,2019-12-23 16:18:11.728,550.295,12.718
386,UVAGS,VCC-A,44428,2019-12-23 16:09:06.400,2019-12-23 16:18:43.532,577.132,15.739
387,WFF,VCC-A,44428,2019-12-23 16:09:38.889,2019-12-23 16:19:26.848,587.959,17.895
388,ODUGS,VCC-A,44428,2019-12-23 16:09:43.462,2019-12-23 16:19:14.972,571.51,14.94
389,VTGS,VCC-B,44431,2019-12-23 16:11:44.141,2019-12-23 16:20:58.164,554.023,13.121
390,UVAGS,VCC-B,44431,2019-12-23 16:11:49.144,2019-12-23 16:21:29.502,580.358,16.249
391,WFF,VCC-B,44431,2019-12-23 16:12:20.886,2019-12-23 16:22:11.988,591.102,18.532
392,ODUGS,VCC-B,44431,2019-12-23 16:12:25.979,2019-12-23 16:22:01.186,575.207,15.472
393,VTGS,VCC-C,44430,2019-12-23 17:04:03.772,2019-12-23 17:14:21.110,617.338,28.296
394,UVAGS,VCC-C,44430,2019-12-23 17:04:10.428,2019-12-23 17:14:41.876,631.448,37.131
395,WFF,VCC-C,44430,2019-12-23 17:04:40.204,2019-12-23 17:15:16.491,636.287,47.033
396,ODUGS,VCC-C,44430,2019-12-23 17:04:44.249,2019-12-23 17:15:15.902,631.653,37.502
397,VTGS,VCC-A,44428,2019-12-23 17:45:14.175,2019-12-23 17:55:56.085,641.91,69.719
398,UVAGS,VCC-A,44428,2019-12-23 17:45:23.324,2019-12-23 17:56:08.160,644.836,84.495
399,ODUGS,VCC-A,44428,2019-12-23 17:45:56.814,2019-12-23 17:56:41.248,644.434,79.669
400,WFF,VCC-A,44428,2019-12-23 17:45:56.999,2019-12-23 17:56:37.411,640.412,62.661
401,VTGS,VCC-B,44431,2019-12-23 17:47:56.992,2019-12-23 17:58:39.311,642.319,74.709
402,UVAGS,VCC-B,44431,2019-12-23 17:48:06.346,2019-12-23 17:58:50.789,644.443,79.075
403,WFF,VCC-B,44431,2019-12-23 17:48:39.604,2019-12-23 17:59:18.827,639.223,58.187
404,ODUGS,VCC-B,44431,2019-12-23 17:48:39.874,2019-12-23 17:59:23.740,643.866,74.155
405,VTGS,VCC-C,44430,2019-12-23 18:40:32.027,2019-12-23 18:50:37.889,605.862,25.981
406,UVAGS,VCC-C,44430,2019-12-23 18:40:47.550,2019-12-23 18:50:35.659,588.109,19.784
407,ODUGS,VCC-C,44430,2019-12-23 18:41:24.069,2019-12-23 18:51:03.664,579.595,17.997
408,WFF,VCC-C,44430,2019-12-23 18:41:27.346,2019-12-23 18:50:47.498,560.152,15.13
409,ODUGS,VCC-B,44431,2019-12-24 08:51:48.430,2019-12-24 09:00:20.993,512.563,10.162
410,WFF,VCC-B,44431,2019-12-24 08:52:09.610,2019-12-24 09:00:38.445,508.835,10.027
411,VTGS,VCC-C,44430,2019-12-24 09:42:13.486,2019-12-24 09:52:12.764,599.278,23.892
412,ODUGS,VCC-C,44430,2019-12-24 09:42:31.759,2019-12-24 09:52:58.451,626.692,38.287
413,UVAGS,VCC-C,44430,2019-12-24 09:42:34.770,2019-12-24 09:52:43.442,608.672,26.432
414,WFF,VCC-C,44430,2019-12-24 09:42:50.500,2019-12-24 09:53:14.049,623.549,36.65
415,VTGS,VCC-A,44428,2019-12-24 10:23:29.163,2019-12-24 10:34:08.558,639.395,70.769
416,UVAGS,VCC-A,44428,2019-12-24 10:23:54.235,2019-12-24 10:34:37.229,642.994,77.317
417,ODUGS,VCC-A,44428,2019-12-24 10:24:03.595,2019-12-24 10:34:47.001,643.406,70.086
418,WFF,VCC-A,44428,2019-12-24 10:24:23.235,2019-12-24 10:35:05.675,642.44,75.42
419,VTGS,VCC-B,44431,2019-12-24 10:26:11.576,2019-12-24 10:36:51.612,640.036,76.099
420,UVAGS,VCC-B,44431,2019-12-24 10:26:36.826,2019-12-24 10:37:20.225,643.399,82.71
421,ODUGS,VCC-B,44431,2019-12-24 10:26:46.934,2019-12-24 10:37:29.738,642.804,65.328
422,WFF,VCC-B,44431,2019-12-24 10:27:05.655,2019-12-24 10:37:47.682,642.027,70.522
423,VTGS,VCC-C,44430,2019-12-24 11:18:23.889,2019-12-24 11:28:43.344,619.455,30.017
424,UVAGS,VCC-C,44430,2019-12-24 11:18:50.986,2019-12-24 11:29:12.232,621.246,29.341
425,ODUGS,VCC-C,44430,2019-12-24 11:19:15.584,2019-12-24 11:29:17.740,602.156,21.461
426,WFF,VCC-C,44430,2019-12-24 11:19:29.049,2019-12-24 11:29:35.863,606.814,23.402
427,VTGS,VCC-A,44428,2019-12-24 12:00:47.995,2019-12-24 12:10:23.835,575.84,16.114
428,UVAGS,VCC-A,44428,2019-12-24 12:01:14.163,2019-12-24 12:10:54.661,580.498,16.377
429,ODUGS,VCC-A,44428,2019-12-24 12:01:48.911,2019-12-24 12:10:58.606,549.695,12.406
430,WFF,VCC-A,44428,2019-12-24 12:02:00.521,2019-12-24 12:11:21.386,560.865,13.821
431,VTGS,VCC-B,44431,2019-12-24 12:03:34.093,2019-12-24 12:13:06.342,572.249,15.564
432,UVAGS,VCC-B,44431,2019-12-24 12:04:00.112,2019-12-24 12:13:37.343,577.231,15.859
433,ODUGS,VCC-B,44431,2019-12-24 12:04:35.480,2019-12-24 12:13:41.231,545.751,12.018
434,WFF,VCC-B,44431,2019-12-24 12:04:45.937,2019-12-24 12:14:03.378,557.441,13.419
435,UVAGS,VCC-A,44428,2019-12-24 15:16:55.347,2019-12-24 15:25:56.996,541.649,11.567
436,WFF,VCC-A,44428,2019-12-24 15:17:30.181,2019-12-24 15:26:42.047,551.866,12.744
437,ODUGS,VCC-A,44428,2019-12-24 15:17:35.212,2019-12-24 15:26:24.916,529.704,10.564
438,UVAGS,VCC-B,44431,2019-12-24 15:19:38.445,2019-12-24 15:28:43.300,544.855,11.867
439,WFF,VCC-B,44431,2019-12-24 15:20:12.215,2019-12-24 15:29:27.460,555.245,13.111
440,ODUGS,VCC-B,44431,2019-12-24 15:20:18.019,2019-12-24 15:29:11.612,533.593,10.881
441,VTGS,VCC-C,44430,2019-12-24 16:11:19.355,2019-12-24 16:21:04.160,584.805,17.86
442,UVAGS,VCC-C,44430,2019-12-24 16:11:24.847,2019-12-24 16:21:30.899,606.052,22.426
443,WFF,VCC-C,44430,2019-12-24 16:11:54.402,2019-12-24 16:22:09.454,615.052,26.487
444,ODUGS,VCC-C,44430,2019-12-24 16:11:59.949,2019-12-24 16:22:04.224,604.275,21.922
445,VTGS,VCC-A,44428,2019-12-24 16:53:06.028,2019-12-24 17:03:34.472,628.444,35.227
446,UVAGS,VCC-A,44428,2019-12-24 16:53:13.295,2019-12-24 17:03:52.841,639.546,47.516
447,WFF,VCC-A,44428,2019-12-24 16:53:45.865,2019-12-24 17:04:28.084,642.219,62.157
448,ODUGS,VCC-A,44428,2019-12-24 16:53:46.859,2019-12-24 17:04:26.826,639.967,48.741
449,VTGS,VCC-B,44431,2019-12-24 16:55:48.532,2019-12-24 17:06:18.888,630.356,37.202
450,UVAGS,VCC-B,44431,2019-12-24 16:55:55.948,2019-12-24 17:06:36.690,640.742,50.538
451,WFF,VCC-B,44431,2019-12-24 16:56:27.762,2019-12-24 17:07:10.614,642.852,66.484
452,ODUGS,VCC-B,44431,2019-12-24 16:56:29.467,2019-12-24 17:07:10.638,641.171,52.041
453,VTGS,VCC-C,44430,2019-12-24 17:47:33.798,2019-12-24 17:58:09.189,635.391,56.619
454,UVAGS,VCC-C,44430,2019-12-24 17:47:45.409,2019-12-24 17:58:14.878,629.469,40.434
455,ODUGS,VCC-C,44430,2019-12-24 17:48:19.703,2019-12-24 17:58:46.121,626.418,37.112
456,WFF,VCC-C,44430,2019-12-24 17:48:19.748,2019-12-24 17:58:35.587,615.839,30.27
457,VTGS,VCC-A,44428,2019-12-24 18:29:45.138,2019-12-24 18:39:32.483,587.345,19.908
458,UVAGS,VCC-A,44428,2019-12-24 18:30:02.753,2019-12-24 18:39:26.686,563.933,15.258
459,ODUGS,VCC-A,44428,2019-12-24 18:30:40.700,2019-12-24 18:39:52.935,552.235,13.754
460,WFF,VCC-A,44428,2019-12-24 18:30:48.234,2019-12-24 18:39:36.502,528.268,11.502
461,VTGS,VCC-B,44431,2019-12-24 18:32:29.853,2019-12-24 18:42:11.659,581.806,18.706
462,UVAGS,VCC-B,44431,2019-12-24 18:32:48.030,2019-12-24 18:42:04.959,556.929,14.329
463,ODUGS,VCC-B,44431,2019-12-24 18:33:26.370,2019-12-24 18:42:30.733,544.363,12.878
464,WFF,VCC-B,44431,2019-12-24 18:33:33.513,2019-12-24 18:42:12.732,519.219,10.742
465,VTGS,VCC-C,44430,2019-12-25 08:50:10.408,2019-12-25 08:58:58.221,527.813,11.749
466,ODUGS,VCC-C,44430,2019-12-25 08:50:12.775,2019-12-25 08:59:53.855,581.08,18.466
467,UVAGS,VCC-C,44430,2019-12-25 08:50:26.978,2019-12-25 08:59:32.465,545.487,13.234
468,WFF,VCC-C,44430,2019-12-25 08:50:32.035,2019-12-25 09:00:09.263,577.228,18.04
469,VTGS,VCC-A,44428,2019-12-25 09:31:32.867,2019-12-25 09:41:50.848,617.981,32.048
470,UVAGS,VCC-A,44428,2019-12-25 09:31:55.504,2019-12-25 09:42:20.695,625.191,35.46
471,ODUGS,VCC-A,44428,2019-12-25 09:31:56.324,2019-12-25 09:42:33.876,637.552,53.341
472,WFF,VCC-A,44428,2019-12-25 09:32:17.618,2019-12-25 09:42:52.594,634.976,50.528
473,VTGS,VCC-B,44431,2019-12-25 09:34:13.623,2019-12-25 09:44:34.598,620.975,34.288
474,UVAGS,VCC-B,44431,2019-12-25 09:34:36.529,2019-12-25 09:45:04.289,627.76,37.95
475,ODUGS,VCC-B,44431,2019-12-25 09:34:38.174,2019-12-25 09:45:17.105,638.931,57.566
476,WFF,VCC-B,44431,2019-12-25 09:34:58.355,2019-12-25 09:45:34.822,636.467,54.37
477,VTGS,VCC-C,44430,2019-12-25 10:25:19.496,2019-12-25 10:35:56.757,637.261,57.422
478,UVAGS,VCC-C,44430,2019-12-25 10:25:45.968,2019-12-25 10:36:25.157,639.189,53.993
479,ODUGS,VCC-C,44430,2019-12-25 10:26:02.733,2019-12-25 10:36:32.581,629.848,36.471
480,WFF,VCC-C,44430,2019-12-25 10:26:18.329,2019-12-25 10:36:49.416,631.087,39.647
481,VTGS,VCC-A,44428,2019-12-25 11:08:06.877,2019-12-25 11:18:16.794,609.917,24.528
482,UVAGS,VCC-A,44428,2019-12-25 11:08:33.948,2019-12-25 11:18:46.109,612.161,24.269
483,ODUGS,VCC-A,44428,2019-12-25 11:09:01.580,2019-12-25 11:18:51.048,589.468,18.07
484,WFF,VCC-A,44428,2019-12-25 11:09:16.973,2019-12-25 11:19:12.763,595.79,19.774
485,VTGS,VCC-B,44431,2019-12-25 11:10:52.112,2019-12-25 11:20:59.168,607.056,23.493
486,UVAGS,VCC-B,44431,2019-12-25 11:11:19.146,2019-12-25 11:21:28.593,609.447,23.305
487,ODUGS,VCC-B,44431,2019-12-25 11:11:47.455,2019-12-25 11:21:33.412,585.957,17.401
488,WFF,VCC-B,44431,2019-12-25 11:12:01.514,2019-12-25 11:21:54.214,592.7,19.069
489,VTGS,VCC-C,44430,2019-12-25 12:03:09.470,2019-12-25 12:12:06.708,537.238,11.601
490,UVAGS,VCC-C,44430,2019-12-25 12:03:33.656,2019-12-25 12:12:39.539,545.883,12.12
491,WFF,VCC-C,44430,2019-12-25 12:04:19.633,2019-12-25 12:13:05.094,525.461,10.477
492,VTGS,VCC-C,44430,2019-12-25 15:18:32.495,2019-12-25 15:27:37.394,544.899,12.311
493,UVAGS,VCC-C,44430,2019-12-25 15:18:37.394,2019-12-25 15:28:09.616,572.222,15.239
494,WFF,VCC-C,44430,2019-12-25 15:19:07.760,2019-12-25 15:28:50.795,583.035,17.279
495,ODUGS,VCC-C,44430,2019-12-25 15:19:14.642,2019-12-25 15:28:40.802,566.16,14.425
496,VTGS,VCC-A,44428,2019-12-25 16:00:59.010,2019-12-25 16:10:59.993,600.983,21.337
497,UVAGS,VCC-A,44428,2019-12-25 16:01:04.935,2019-12-25 16:11:24.333,619.398,27.132
498,WFF,VCC-A,44428,2019-12-25 16:01:37.561,2019-12-25 16:12:04.587,627.026,32.835
499,ODUGS,VCC-A,44428,2019-12-25 16:01:39.423,2019-12-25 16:11:58.122,618.699,26.856
500,VTGS,VCC-B,44431,2019-12-25 16:03:41.402,2019-12-25 16:13:45.385,603.983,22.223
501,UVAGS,VCC-B,44431,2019-12-25 16:03:47.434,2019-12-25 16:14:09.187,621.753,28.364
502,WFF,VCC-B,44431,2019-12-25 16:04:18.963,2019-12-25 16:14:47.962,628.999,34.53
503,ODUGS,VCC-B,44431,2019-12-25 16:04:21.801,2019-12-25 16:14:43.049,621.248,28.156
504,VTGS,VCC-C,44430,2019-12-25 16:54:42.270,2019-12-25 17:05:21.635,639.365,65.64
505,UVAGS,VCC-C,44430,2019-12-25 16:54:51.240,2019-12-25 17:05:34.215,642.975,89.041
506,WFF,VCC-C,44430,2019-12-25 16:55:22.490,2019-12-25 17:06:01.644,639.154,66.627
507,ODUGS,VCC-C,44430,2019-12-25 16:55:24.694,2019-12-25 17:06:07.379,642.685,84.397
508,VTGS,VCC-A,44428,2019-12-25 17:37:20.488,2019-12-25 17:47:49.074,628.586,40.608
509,UVAGS,VCC-A,44428,2019-12-25 17:37:33.479,2019-12-25 17:47:51.719,618.24,29.947
510,ODUGS,VCC-A,44428,2019-12-25 17:38:08.485,2019-12-25 17:48:21.858,613.373,27.432
511,WFF,VCC-A,44428,2019-12-25 17:38:12.833,2019-12-25 17:48:12.295,599.462,22.797
512,VTGS,VCC-B,44431,2019-12-25 17:40:04.055,2019-12-25 17:50:30.164,626.109,37.837
513,UVAGS,VCC-B,44431,2019-12-25 17:40:17.382,2019-12-25 17:50:32.108,614.726,28.086
514,ODUGS,VCC-B,44431,2019-12-25 17:40:52.575,2019-12-25 17:51:01.967,609.392,25.713
515,WFF,VCC-B,44431,2019-12-25 17:40:56.075,2019-12-25 17:50:50.779,594.704,21.437
516,VTGS,VCC-C,44430,2019-12-25 18:31:47.460,2019-12-25 18:40:18.464,511.004,10.303
517,VTGS,VCC-A,44428,2019-12-26 08:39:56.040,2019-12-26 08:49:21.568,565.528,16.038
518,ODUGS,VCC-A,44428,2019-12-26 08:40:05.867,2019-12-26 08:50:12.233,606.366,24.946
519,UVAGS,VCC-A,44428,2019-12-26 08:40:14.927,2019-12-26 08:49:53.986,579.059,17.845
520,WFF,VCC-A,44428,2019-12-26 08:40:28.489,2019-12-26 08:50:31.386,602.897,24.246
521,VTGS,VCC-B,44431,2019-12-26 08:42:34.663,2019-12-26 08:52:06.540,571.877,17.074
522,ODUGS,VCC-B,44431,2019-12-26 08:42:45.908,2019-12-26 08:52:56.314,610.406,26.602
523,UVAGS,VCC-B,44431,2019-12-26 08:42:53.969,2019-12-26 08:52:38.633,584.664,18.968
524,WFF,VCC-B,44431,2019-12-26 08:43:07.190,2019-12-26 08:53:14.157,606.967,25.799
525,VTGS,VCC-C,44430,2019-12-26 09:32:28.573,2019-12-26 09:43:05.357,636.784,65.467
526,UVAGS,VCC-C,44430,2019-12-26 09:32:53.451,2019-12-26 09:43:34.080,640.629,71.87
527,ODUGS,VCC-C,44430,2019-12-26 09:33:02.033,2019-12-26 09:43:44.125,642.092,75.234
528,WFF,VCC-C,44430,2019-12-26 09:33:19.130,2019-12-26 09:44:00.012,640.882,80.767
529,VTGS,VCC-A,44428,2019-12-26 10:15:35.511,2019-12-26 10:26:08.786,633.275,42.594
530,UVAGS,VCC-A,44428,2019-12-26 10:16:02.387,2019-12-26 10:26:37.311,634.924,40.771
531,ODUGS,VCC-A,44428,2019-12-26 10:16:22.483,2019-12-26 10:26:43.874,621.391,28.676
532,WFF,VCC-A,44428,2019-12-26 10:16:40.975,2019-12-26 10:27:04.921,623.946,31.142
533,VTGS,VCC-B,44431,2019-12-26 10:18:19.636,2019-12-26 10:28:51.236,631.6,40.155
534,UVAGS,VCC-B,44431,2019-12-26 10:18:46.566,2019-12-26 10:29:19.803,633.237,38.576
535,ODUGS,VCC-B,44431,2019-12-26 10:19:07.372,2019-12-26 10:29:26.189,618.817,27.335
536,WFF,VCC-B,44431,2019-12-26 10:19:24.331,2019-12-26 10:29:46.022,621.691,29.704
537,VTGS,VCC-C,44430,2019-12-26 11:09:40.800,2019-12-26 11:19:18.346,577.546,16.626
538,UVAGS,VCC-C,44430,2019-12-26 11:10:07.094,2019-12-26 11:19:48.980,581.886,16.854
539,ODUGS,VCC-C,44430,2019-12-26 11:10:41.229,2019-12-26 11:19:52.933,551.704,12.75
540,WFF,VCC-C,44430,2019-12-26 11:10:50.403,2019-12-26 11:20:12.790,562.387,14.182
541,VTGS,VCC-A,44428,2019-12-26 11:53:41.000,2019-12-26 12:02:22.767,521.767,10.217
542,UVAGS,VCC-A,44428,2019-12-26 11:54:03.898,2019-12-26 12:02:56.724,532.826,10.833
543,UVAGS,VCC-B,44431,2019-12-26 11:56:50.198,2019-12-26 12:05:39.879,529.681,10.581
544,UVAGS,VCC-C,44430,2019-12-26 14:25:45.582,2019-12-26 14:34:41.507,535.925,11.179
545,WFF,VCC-C,44430,2019-12-26 14:26:17.821,2019-12-26 14:35:23.661,545.84,12.273
546,ODUGS,VCC-C,44430,2019-12-26 14:26:25.777,2019-12-26 14:35:08.943,523.166,10.159
547,VTGS,VCC-A,44428,2019-12-26 15:08:50.854,2019-12-26 15:18:15.141,564.287,14.389
548,UVAGS,VCC-A,44428,2019-12-26 15:08:55.966,2019-12-26 15:18:45.079,589.113,17.87
549,WFF,VCC-A,44428,2019-12-26 15:09:29.707,2019-12-26 15:19:29.254,599.547,20.587
550,ODUGS,VCC-A,44428,2019-12-26 15:09:32.200,2019-12-26 15:19:17.396,585.196,17.162
551,VTGS,VCC-B,44431,2019-12-26 15:11:33.353,2019-12-26 15:21:01.245,567.892,14.875
552,UVAGS,VCC-B,44431,2019-12-26 15:11:38.507,2019-12-26 15:21:30.690,592.183,18.495
553,WFF,VCC-B,44431,2019-12-26 15:12:10.790,2019-12-26 15:22:13.213,602.423,21.379
554,ODUGS,VCC-B,44431,2019-12-26 15:12:14.548,2019-12-26 15:22:03.199,588.651,17.814
555,VTGS,VCC-C,44430,2019-12-26 16:01:54.030,2019-12-26 16:12:18.157,624.127,33.108
556,UVAGS,VCC-C,44430,2019-12-26 16:02:01.117,2019-12-26 16:12:37.136,636.019,44.362
557,WFF,VCC-C,44430,2019-12-26 16:02:30.722,2019-12-26 16:13:09.959,639.237,57.597
558,ODUGS,VCC-C,44430,2019-12-26 16:02:34.728,2019-12-26 16:13:11.136,636.408,45.319
559,VTGS,VCC-A,44428,2019-12-26 16:45:04.289,2019-12-26 16:55:46.291,642.002,89.455
560,UVAGS,VCC-A,44428,2019-12-26 16:45:14.281,2019-12-26 16:55:55.998,641.717,64.265
561,ODUGS,VCC-A,44428,2019-12-26 16:45:47.969,2019-12-26 16:56:28.502,640.533,59.551
562,WFF,VCC-A,44428,2019-12-26 16:45:50.557,2019-12-26 16:56:24.651,634.094,46.904
563,VTGS,VCC-B,44431,2019-12-26 16:47:47.154,2019-12-26 16:58:28.887,641.733,83.853
564,UVAGS,VCC-B,44431,2019-12-26 16:47:57.381,2019-12-26 16:58:37.974,640.593,59.696
565,ODUGS,VCC-B,44431,2019-12-26 16:48:31.136,2019-12-26 16:59:10.307,639.171,55.169
566,WFF,VCC-B,44431,2019-12-26 16:48:32.515,2019-12-26 16:59:04.614,632.099,43.667
567,VTGS,VCC-C,44430,2019-12-26 17:38:28.069,2019-12-26 17:48:18.950,590.881,21.209
568,UVAGS,VCC-C,44430,2019-12-26 17:38:45.122,2019-12-26 17:48:14.080,568.958,16.239
569,ODUGS,VCC-C,44430,2019-12-26 17:39:22.668,2019-12-26 17:48:40.793,558.125,14.675
570,WFF,VCC-C,44430,2019-12-26 17:39:26.796,2019-12-26 17:48:22.236,535.44,12.305
571,ODUGS,VCC-A,44428,2019-12-27 07:48:37.219,2019-12-27 07:57:36.461,539.242,12.45
572,WFF,VCC-A,44428,2019-12-27 07:49:00.892,2019-12-27 07:57:56.484,535.592,12.266
573,ODUGS,VCC-B,44431,2019-12-27 07:51:14.820,2019-12-27 08:00:22.075,547.255,13.302
574,WFF,VCC-B,44431,2019-12-27 07:51:36.913,2019-12-27 08:00:40.431,543.518,13.086
575,VTGS,VCC-C,44430,2019-12-27 08:39:53.937,2019-12-27 08:50:05.918,611.981,29.332
576,ODUGS,VCC-C,44430,2019-12-27 08:40:15.944,2019-12-27 08:50:49.653,633.709,48.318
577,UVAGS,VCC-C,44430,2019-12-27 08:40:16.199,2019-12-27 08:50:35.970,619.771,32.451
578,WFF,VCC-C,44430,2019-12-27 08:40:34.032,2019-12-27 08:51:04.913,630.881,45.844
579,VTGS,VCC-A,44428,2019-12-27 09:23:16.311,2019-12-27 09:33:57.521,641.21,87.641
580,UVAGS,VCC-A,44428,2019-12-27 09:23:42.027,2019-12-27 09:34:26.003,643.976,81.502
581,ODUGS,VCC-A,44428,2019-12-27 09:23:54.291,2019-12-27 09:34:34.791,640.5,53.476
582,WFF,VCC-A,44428,2019-12-27 09:24:15.292,2019-12-27 09:34:55.590,640.298,57.945
583,VTGS,VCC-B,44431,2019-12-27 09:25:59.108,2019-12-27 09:36:40.251,641.143,82.097
584,UVAGS,VCC-B,44431,2019-12-27 09:26:24.969,2019-12-27 09:37:08.704,643.735,76.322
585,ODUGS,VCC-B,44431,2019-12-27 09:26:37.967,2019-12-27 09:37:17.258,639.291,50.044
586,WFF,VCC-B,44431,2019-12-27 09:26:57.191,2019-12-27 09:37:36.508,639.317,54.302
587,VTGS,VCC-C,44430,2019-12-27 10:16:19.300,2019-12-27 10:26:30.885,611.585,25.856
588,UVAGS,VCC-C,44430,2019-12-27 10:16:46.393,2019-12-27 10:27:00.050,613.657,25.497
589,ODUGS,VCC-C,44430,2019-12-27 10:17:13.180,2019-12-27 10:27:05.111,591.931,18.892
590,WFF,VCC-C,44430,2019-12-27 10:17:25.450,2019-12-27 10:27:23.221,597.771,20.661
591,VTGS,VCC-A,44428,2019-12-27 11:00:49.047,2019-12-27 11:10:10.839,561.792,14.124
592,UVAGS,VCC-A,44428,2019-12-27 11:01:14.589,2019-12-27 11:10:42.373,567.784,14.499
593,ODUGS,VCC-A,44428,2019-12-27 11:01:51.724,2019-12-27 11:10:46.141,534.417,10.992
594,WFF,VCC-A,44428,2019-12-27 11:02:03.916,2019-12-27 11:11:11.451,547.535,12.35
595,VTGS,VCC-B,44431,2019-12-27 11:03:35.238,2019-12-27 11:12:53.285,558.047,13.671
596,UVAGS,VCC-B,44431,2019-12-27 11:04:00.590,2019-12-27 11:13:25.017,564.427,14.072
597,ODUGS,VCC-B,44431,2019-12-27 11:04:38.318,2019-12-27 11:13:28.765,530.447,10.667
598,WFF,VCC-B,44431,2019-12-27 11:04:48.475,2019-12-27 11:13:52.589,544.114,12.018
599,VTGS,VCC-A,44428,2019-12-27 14:16:39.151,2019-12-27 14:25:23.146,523.995,10.372
600,UVAGS,VCC-A,44428,2019-12-27 14:16:44.102,2019-12-27 14:25:58.020,553.918,12.804
601,WFF,VCC-A,44428,2019-12-27 14:17:20.057,2019-12-27 14:26:44.758,564.701,14.271
602,ODUGS,VCC-A,44428,2019-12-27 14:17:22.890,2019-12-27 14:26:27.369,544.479,11.87
603,VTGS,VCC-B,44431,2019-12-27 14:19:21.974,2019-12-27 14:28:09.613,527.639,10.661
604,UVAGS,VCC-B,44431,2019-12-27 14:19:26.904,2019-12-27 14:28:44.069,557.165,13.164
605,WFF,VCC-B,44431,2019-12-27 14:20:00.981,2019-12-27 14:29:28.994,568.013,14.711
606,ODUGS,VCC-B,44431,2019-12-27 14:20:05.423,2019-12-27 14:29:13.764,548.341,12.249
607,VTGS,VCC-C,44430,2019-12-27 15:09:06.482,2019-12-27 15:19:01.170,594.688,20.119
608,UVAGS,VCC-C,44430,2019-12-27 15:09:12.245,2019-12-27 15:19:26.237,613.992,25.484
609,WFF,VCC-C,44430,2019-12-27 15:09:41.318,2019-12-27 15:20:03.318,622.0,30.583
610,ODUGS,VCC-C,44430,2019-12-27 15:09:46.896,2019-12-27 15:19:59.892,612.996,25.128
611,VTGS,VCC-A,44428,2019-12-27 15:52:52.733,2019-12-27 16:03:27.438,634.705,43.973
612,UVAGS,VCC-A,44428,2019-12-27 15:53:00.601,2019-12-27 16:03:43.584,642.983,60.903
613,ODUGS,VCC-A,44428,2019-12-27 15:53:34.042,2019-12-27 16:04:17.356,643.314,63.399
614,WFF,VCC-A,44428,2019-12-27 15:53:35.541,2019-12-27 16:04:18.902,643.361,80.778
615,VTGS,VCC-B,44431,2019-12-27 15:55:35.180,2019-12-27 16:06:11.278,636.098,46.77
616,UVAGS,VCC-B,44431,2019-12-27 15:55:43.216,2019-12-27 16:06:26.849,643.633,65.11
617,WFF,VCC-B,44431,2019-12-27 15:56:16.577,2019-12-27 16:06:59.945,643.368,86.105
618,ODUGS,VCC-B,44431,2019-12-27 15:56:16.640,2019-12-27 16:07:00.548,643.908,68.003
619,VTGS,VCC-C,44430,2019-12-27 16:45:23.629,2019-12-27 16:55:53.101,629.472,44.632
620,UVAGS,VCC-C,44430,2019-12-27 16:45:36.188,2019-12-27 16:55:56.670,620.482,32.57
621,ODUGS,VCC-C,44430,2019-12-27 16:46:10.949,2019-12-27 16:56:27.143,616.194,29.849
622,WFF,VCC-C,44430,2019-12-27 16:46:11.335,2019-12-27 16:56:14.671,603.336,24.703
623,VTGS,VCC-A,44428,2019-12-27 17:29:41.090,2019-12-27 17:39:04.162,563.072,15.573
624,UVAGS,VCC-A,44428,2019-12-27 17:30:01.094,2019-12-27 17:38:54.646,533.552,11.854
625,ODUGS,VCC-A,44428,2019-12-27 17:30:40.760,2019-12-27 17:39:18.863,518.103,10.533
626,VTGS,VCC-B,44431,2019-12-27 17:32:26.258,2019-12-27 17:41:42.304,556.046,14.612
627,UVAGS,VCC-B,44431,2019-12-27 17:32:46.968,2019-12-27 17:41:31.744,524.776,11.079
628,VTGS,VCC-C,44430,2019-12-28 07:47:40.166,2019-12-28 07:56:53.279,553.113,14.476
629,ODUGS,VCC-C,44430,2019-12-28 07:47:47.665,2019-12-28 07:57:45.428,597.763,22.537
630,UVAGS,VCC-C,44430,2019-12-28 07:47:58.343,2019-12-28 07:57:26.219,567.876,16.16
631,WFF,VCC-C,44430,2019-12-28 07:48:06.364,2019-12-28 07:58:00.387,594.023,21.919
632,VTGS,VCC-A,44428,2019-12-28 08:31:11.660,2019-12-28 08:41:40.331,628.671,42.02
633,UVAGS,VCC-A,44428,2019-12-28 08:31:35.295,2019-12-28 08:42:09.626,634.331,46.533
634,ODUGS,VCC-A,44428,2019-12-28 08:31:39.275,2019-12-28 08:42:21.453,642.178,71.696
635,WFF,VCC-A,44428,2019-12-28 08:32:02.309,2019-12-28 08:42:42.410,640.101,67.467
636,VTGS,VCC-B,44431,2019-12-28 08:33:52.888,2019-12-28 08:44:23.618,630.73,45.18
637,UVAGS,VCC-B,44431,2019-12-28 08:34:16.756,2019-12-28 08:44:52.793,636.037,50.027
638,ODUGS,VCC-B,44431,2019-12-28 08:34:21.525,2019-12-28 08:45:04.297,642.772,77.121
639,WFF,VCC-B,44431,2019-12-28 08:34:42.503,2019-12-28 08:45:23.332,640.829,72.474
640,VTGS,VCC-C,44430,2019-12-28 09:23:08.080,2019-12-28 09:33:41.834,633.754,46.682
641,UVAGS,VCC-C,44430,2019-12-28 09:23:34.837,2019-12-28 09:34:10.287,635.45,44.421
642,ODUGS,VCC-C,44430,2019-12-28 09:23:53.852,2019-12-28 09:34:17.106,623.254,30.831
643,WFF,VCC-C,44430,2019-12-28 09:24:08.451,2019-12-28 09:34:33.806,625.355,33.519
644,VTGS,VCC-A,44428,2019-12-28 10:08:02.598,2019-12-28 10:18:01.195,598.597,20.866
645,UVAGS,VCC-A,44428,2019-12-28 10:08:29.485,2019-12-28 10:18:30.962,601.477,20.847
646,ODUGS,VCC-A,44428,2019-12-28 10:08:59.737,2019-12-28 10:18:35.460,575.723,15.669
647,WFF,VCC-A,44428,2019-12-28 10:09:16.210,2019-12-28 10:18:59.828,583.618,17.228
648,VTGS,VCC-B,44431,2019-12-28 10:10:48.012,2019-12-28 10:20:43.416,595.404,20.057
649,UVAGS,VCC-B,44431,2019-12-28 10:11:14.823,2019-12-28 10:21:13.311,598.488,20.088
650,ODUGS,VCC-B,44431,2019-12-28 10:11:45.740,2019-12-28 10:21:17.711,571.971,15.124
651,WFF,VCC-B,44431,2019-12-28 10:11:59.904,2019-12-28 10:21:40.245,580.341,16.662
652,VTGS,VCC-C,44430,2019-12-28 11:01:06.798,2019-12-28 11:09:52.172,525.374,10.59
653,UVAGS,VCC-C,44430,2019-12-28 11:01:30.137,2019-12-28 11:10:25.740,535.603,11.174
654,WFF,VCC-A,44428,2019-12-28 13:25:06.199,2019-12-28 13:33:54.531,528.332,10.605
655,UVAGS,VCC-B,44431,2019-12-28 13:27:10.189,2019-12-28 13:35:53.008,522.819,10.041
656,WFF,VCC-B,44431,2019-12-28 13:27:47.163,2019-12-28 13:36:38.645,531.482,10.865
657,VTGS,VCC-C,44430,2019-12-28 14:16:17.200,2019-12-28 14:25:33.413,556.213,13.573
658,UVAGS,VCC-C,44430,2019-12-28 14:16:22.194,2019-12-28 14:26:04.149,581.955,16.84
659,WFF,VCC-C,44430,2019-12-28 14:16:51.766,2019-12-28 14:26:44.246,592.48,19.282
660,ODUGS,VCC-C,44430,2019-12-28 14:16:58.749,2019-12-28 14:26:36.095,577.346,16.095
661,VTGS,VCC-A,44428,2019-12-28 15:00:43.146,2019-12-28 15:10:54.864,611.718,25.097
662,UVAGS,VCC-A,44428,2019-12-28 15:00:49.489,2019-12-28 15:11:17.105,627.616,32.441
663,ODUGS,VCC-A,44428,2019-12-28 15:01:23.554,2019-12-28 15:11:51.095,627.541,32.48
664,WFF,VCC-A,44428,2019-12-28 15:01:24.335,2019-12-28 15:11:58.064,633.729,40.314
665,VTGS,VCC-B,44431,2019-12-28 15:03:25.394,2019-12-28 15:13:39.738,614.344,26.24
666,UVAGS,VCC-B,44431,2019-12-28 15:03:31.857,2019-12-28 15:14:01.432,629.575,34.092
667,WFF,VCC-B,44431,2019-12-28 15:04:04.687,2019-12-28 15:14:39.907,635.22,42.657
668,ODUGS,VCC-B,44431,2019-12-28 15:04:05.826,2019-12-28 15:14:35.451,629.625,34.241
669,VTGS,VCC-C,44430,2019-12-28 15:52:27.200,2019-12-28 16:03:07.214,640.014,81.54
670,UVAGS,VCC-C,44430,2019-12-28 15:52:36.827,2019-12-28 16:03:17.898,641.071,72.116
671,WFF,VCC-C,44430,2019-12-28 15:53:08.327,2019-12-28 16:03:43.094,634.767,52.709
672,ODUGS,VCC-C,44430,2019-12-28 15:53:10.408,2019-12-28 16:03:50.630,640.222,67.186
673,VTGS,VCC-A,44428,2019-12-28 16:37:09.526,2019-12-28 16:47:26.603,617.077,31.046
674,UVAGS,VCC-A,44428,2019-12-28 16:37:23.926,2019-12-28 16:47:26.451,602.525,23.413
675,ODUGS,VCC-A,44428,2019-12-28 16:37:59.750,2019-12-28 16:47:55.410,595.66,21.379
676,WFF,VCC-A,44428,2019-12-28 16:38:07.422,2019-12-28 16:47:45.924,578.502,17.91
677,VTGS,VCC-B,44431,2019-12-28 16:39:53.265,2019-12-28 16:50:06.874,613.609,29.062
678,UVAGS,VCC-B,44431,2019-12-28 16:40:08.068,2019-12-28 16:50:05.974,597.906,22.012
679,ODUGS,VCC-B,44431,2019-12-28 16:40:44.135,2019-12-28 16:50:34.599,590.464,20.077
680,WFF,VCC-B,44431,2019-12-28 16:40:50.031,2019-12-28 16:50:22.499,572.468,16.848
681,ODUGS,VCC-C,44430,2019-12-29 06:55:43.162,2019-12-29 07:04:24.846,521.684,10.952
682,WFF,VCC-C,44430,2019-12-29 06:56:02.141,2019-12-29 07:04:39.845,517.704,10.781
683,VTGS,VCC-A,44428,2019-12-29 07:39:24.830,2019-12-29 07:49:13.461,588.631,20.451
684,ODUGS,VCC-A,44428,2019-12-29 07:39:39.964,2019-12-29 07:50:00.914,620.95,32.202
685,UVAGS,VCC-A,44428,2019-12-29 07:39:45.259,2019-12-29 07:49:44.742,599.483,22.648
686,WFF,VCC-A,44428,2019-12-29 07:40:04.666,2019-12-29 07:50:22.438,617.772,31.094
687,VTGS,VCC-B,44431,2019-12-29 07:42:04.112,2019-12-29 07:51:57.717,593.605,21.764
688,ODUGS,VCC-B,44431,2019-12-29 07:42:20.516,2019-12-29 07:52:44.442,623.926,34.47
689,UVAGS,VCC-B,44431,2019-12-29 07:42:24.892,2019-12-29 07:52:28.748,603.856,24.087
690,WFF,VCC-B,44431,2019-12-29 07:42:42.857,2019-12-29 07:53:03.632,620.775,33.179
691,VTGS,VCC-C,44430,2019-12-29 08:30:09.670,2019-12-29 08:40:48.721,639.051,82.221
692,UVAGS,VCC-C,44430,2019-12-29 08:30:35.098,2019-12-29 08:41:17.257,642.159,88.785
693,ODUGS,VCC-C,44430,2019-12-29 08:30:46.037,2019-12-29 08:41:26.477,640.44,60.347
694,WFF,VCC-C,44430,2019-12-29 08:31:02.291,2019-12-29 08:41:42.116,639.825,65.388
695,VTGS,VCC-A,44428,2019-12-29 09:15:24.963,2019-12-29 09:25:51.400,626.437,34.252
696,UVAGS,VCC-A,44428,2019-12-29 09:15:52.030,2019-12-29 09:26:20.117,628.087,33.224
697,ODUGS,VCC-A,44428,2019-12-29 09:16:14.856,2019-12-29 09:26:26.027,611.171,23.992
698,WFF,VCC-A,44428,2019-12-29 09:16:34.919,2019-12-29 09:26:49.832,614.913,26.078
699,VTGS,VCC-B,44431,2019-12-29 09:18:09.327,2019-12-29 09:28:33.600,624.273,32.51
700,UVAGS,VCC-B,44431,2019-12-29 09:18:36.417,2019-12-29 09:29:02.383,625.966,31.633
701,ODUGS,VCC-B,44431,2019-12-29 09:18:59.940,2019-12-29 09:29:08.137,608.197,22.972
702,WFF,VCC-B,44431,2019-12-29 09:19:17.401,2019-12-29 09:29:29.706,612.305,24.999
703,VTGS,VCC-C,44430,2019-12-29 10:07:33.308,2019-12-29 10:16:59.711,566.403,14.913
704,UVAGS,VCC-C,44430,2019-12-29 10:07:59.150,2019-12-29 10:17:30.887,571.737,15.238
705,ODUGS,VCC-C,44430,2019-12-29 10:08:35.237,2019-12-29 10:17:34.658,539.421,11.539
706,WFF,VCC-C,44430,2019-12-29 10:08:42.913,2019-12-29 10:17:54.579,551.666,12.924
707,UVAGS,VCC-C,44430,2019-12-29 13:23:28.492,2019-12-29 13:32:34.126,545.634,12.098
708,WFF,VCC-C,44430,2019-12-29 13:23:59.617,2019-12-29 13:33:15.687,556.07,13.403
709,ODUGS,VCC-C,44430,2019-12-29 13:24:07.792,2019-12-29 13:33:02.777,534.985,11.133
710,VTGS,VCC-A,44428,2019-12-29 14:08:33.235,2019-12-29 14:18:10.940,577.705,16.396
711,UVAGS,VCC-A,44428,2019-12-29 14:08:38.563,2019-12-29 14:18:38.940,600.377,20.477
712,ODUGS,VCC-A,44428,2019-12-29 14:09:14.088,2019-12-29 14:19:11.934,597.846,19.881
713,WFF,VCC-A,44428,2019-12-29 14:09:14.414,2019-12-29 14:19:24.513,610.099,23.954
