vcc_sched/network/output/VCC_Combined_Passes_20191201_20191217.csv

Pass #,GS Name,SC Name,SC NORAD ID,Start Time (UTCG),Stop Time (UTCG),Duration (sec),Max El (deg)
0,VTGS,VCC-C,44430,2019-12-01 18:38:07.242,2019-12-01 18:47:59.700,592.458,21.365
1,ODUGS,VCC-C,44430,2019-12-01 18:38:23.225,2019-12-01 18:48:46.681,623.456,33.771
2,UVAGS,VCC-C,44430,2019-12-01 18:38:27.889,2019-12-01 18:48:30.833,602.944,23.652
3,VTGS,VCC-A,44428,2019-12-01 19:05:43.371,2019-12-01 19:16:14.246,630.875,42.468
4,UVAGS,VCC-A,44428,2019-12-01 19:06:07.014,2019-12-01 19:16:43.571,636.557,47.019
5,ODUGS,VCC-A,44428,2019-12-01 19:06:11.071,2019-12-01 19:16:55.368,644.297,72.311
6,VTGS,VCC-B,44431,2019-12-01 19:08:23.564,2019-12-01 19:18:56.624,633.06,45.642
7,UVAGS,VCC-B,44431,2019-12-01 19:08:47.434,2019-12-01 19:19:25.837,638.403,50.519
8,ODUGS,VCC-B,44431,2019-12-01 19:08:52.273,2019-12-01 19:19:37.317,645.044,77.682
9,VTGS,VCC-C,44430,2019-12-01 20:14:09.870,2019-12-01 20:24:35.667,625.797,33.104
10,UVAGS,VCC-C,44430,2019-12-01 20:14:36.927,2019-12-01 20:25:04.463,627.536,32.184
11,ODUGS,VCC-C,44430,2019-12-01 20:15:00.207,2019-12-01 20:25:10.291,610.084,23.341
12,VTGS,VCC-A,44428,2019-12-01 20:42:35.800,2019-12-01 20:52:36.683,600.883,20.918
13,UVAGS,VCC-A,44428,2019-12-01 20:43:02.672,2019-12-01 20:53:06.505,603.833,20.907
14,ODUGS,VCC-A,44428,2019-12-01 20:43:32.934,2019-12-01 20:53:11.063,578.129,15.734
15,VTGS,VCC-B,44431,2019-12-01 20:45:20.145,2019-12-01 20:55:18.065,597.92,20.128
16,UVAGS,VCC-B,44431,2019-12-01 20:45:46.945,2019-12-01 20:55:48.020,601.075,20.166
17,ODUGS,VCC-B,44431,2019-12-01 20:46:17.856,2019-12-01 20:55:52.487,574.631,15.203
18,UVAGS,VCC-B,44431,2019-12-02 00:01:44.514,2019-12-02 00:10:31.602,527.088,10.198
19,VTGS,VCC-C,44430,2019-12-02 01:07:14.034,2019-12-02 01:16:55.780,581.746,16.869
20,UVAGS,VCC-C,44430,2019-12-02 01:07:19.444,2019-12-02 01:17:23.415,603.971,21.084
21,ODUGS,VCC-C,44430,2019-12-02 01:07:54.860,2019-12-02 01:17:56.512,601.652,20.508
22,VTGS,VCC-A,44428,2019-12-02 01:35:19.984,2019-12-02 01:45:35.311,615.327,25.438
23,UVAGS,VCC-A,44428,2019-12-02 01:35:26.385,2019-12-02 01:45:57.451,631.066,32.87
24,ODUGS,VCC-A,44428,2019-12-02 01:36:00.470,2019-12-02 01:46:31.454,630.984,32.922
25,VTGS,VCC-B,44431,2019-12-02 01:38:01.334,2019-12-02 01:48:19.363,618.029,26.594
26,UVAGS,VCC-B,44431,2019-12-02 01:38:07.854,2019-12-02 01:48:40.961,633.107,34.536
27,ODUGS,VCC-B,44431,2019-12-02 01:38:41.849,2019-12-02 01:49:14.992,633.143,34.698
28,VTGS,VCC-C,44430,2019-12-02 02:43:29.017,2019-12-02 02:54:09.296,640.279,65.087
29,UVAGS,VCC-C,44430,2019-12-02 02:43:40.127,2019-12-02 02:54:16.162,636.035,46.166
30,ODUGS,VCC-C,44430,2019-12-02 02:44:14.236,2019-12-02 02:54:47.806,633.57,42.439
31,VTGS,VCC-A,44428,2019-12-02 03:11:48.088,2019-12-02 03:22:07.685,619.597,30.965
32,UVAGS,VCC-A,44428,2019-12-02 03:12:02.522,2019-12-02 03:22:07.454,604.932,23.39
33,ODUGS,VCC-A,44428,2019-12-02 03:12:38.403,2019-12-02 03:22:36.379,597.976,21.359
34,VTGS,VCC-B,44431,2019-12-02 03:14:30.967,2019-12-02 03:24:47.190,616.223,29.018
35,UVAGS,VCC-B,44431,2019-12-02 03:14:45.792,2019-12-02 03:24:46.213,600.421,22.013
36,ODUGS,VCC-B,44431,2019-12-02 03:15:21.924,2019-12-02 03:25:14.803,592.879,20.078
37,ODUGS,VCC-C,44430,2019-12-02 17:46:30.585,2019-12-02 17:56:03.020,572.435,16.66
38,VTGS,VCC-C,44430,2019-12-02 17:46:31.235,2019-12-02 17:55:05.230,513.995,10.495
39,UVAGS,VCC-C,44430,2019-12-02 17:46:46.813,2019-12-02 17:55:40.318,533.505,11.898
40,VTGS,VCC-A,44428,2019-12-02 18:14:14.989,2019-12-02 18:24:06.515,591.526,20.824
41,ODUGS,VCC-A,44428,2019-12-02 18:14:30.403,2019-12-02 18:24:53.834,623.431,32.8
42,UVAGS,VCC-A,44428,2019-12-02 18:14:35.485,2019-12-02 18:24:37.778,602.293,23.056
43,VTGS,VCC-B,44431,2019-12-02 18:16:53.679,2019-12-02 18:26:50.249,596.57,22.161
44,ODUGS,VCC-B,44431,2019-12-02 18:17:10.351,2019-12-02 18:27:36.855,626.504,35.111
45,UVAGS,VCC-B,44431,2019-12-02 18:17:14.524,2019-12-02 18:27:21.267,606.743,24.522
46,VTGS,VCC-C,44430,2019-12-02 19:21:30.884,2019-12-02 19:32:11.457,640.573,64.697
47,UVAGS,VCC-C,44430,2019-12-02 19:21:57.160,2019-12-02 19:32:39.892,642.732,60.513
48,ODUGS,VCC-C,44430,2019-12-02 19:22:12.679,2019-12-02 19:32:47.698,635.019,40.378
49,VTGS,VCC-A,44428,2019-12-02 19:50:17.350,2019-12-02 20:00:45.579,628.229,34.01
50,UVAGS,VCC-A,44428,2019-12-02 19:50:44.406,2019-12-02 20:01:14.355,629.949,33.02
51,ODUGS,VCC-A,44428,2019-12-02 19:51:07.351,2019-12-02 20:01:20.275,612.924,23.899
52,VTGS,VCC-B,44431,2019-12-02 19:53:01.091,2019-12-02 20:03:27.341,626.25,32.32
53,UVAGS,VCC-B,44431,2019-12-02 19:53:28.169,2019-12-02 20:03:56.190,628.021,31.475
54,ODUGS,VCC-B,44431,2019-12-02 19:53:51.806,2019-12-02 20:04:01.961,610.155,22.908
55,VTGS,VCC-C,44430,2019-12-02 20:59:17.006,2019-12-02 21:08:23.360,546.354,12.312
56,UVAGS,VCC-C,44430,2019-12-02 20:59:41.609,2019-12-02 21:08:55.841,554.232,12.797
57,VTGS,VCC-C,44430,2019-12-03 00:14:49.498,2019-12-03 00:23:51.455,541.957,11.828
58,UVAGS,VCC-C,44430,2019-12-03 00:14:54.450,2019-12-03 00:24:24.384,569.934,14.613
59,ODUGS,VCC-C,44430,2019-12-03 00:15:32.101,2019-12-03 00:24:55.146,563.045,13.761
60,VTGS,VCC-A,44428,2019-12-03 00:43:28.817,2019-12-03 00:53:10.819,582.002,16.698
61,UVAGS,VCC-A,44428,2019-12-03 00:43:34.220,2019-12-03 00:53:38.653,604.433,20.843
62,ODUGS,VCC-A,44428,2019-12-03 00:44:09.721,2019-12-03 00:54:11.705,601.984,20.252
63,VTGS,VCC-B,44431,2019-12-03 00:46:10.590,2019-12-03 00:55:56.113,585.523,17.303
64,UVAGS,VCC-B,44431,2019-12-03 00:46:16.063,2019-12-03 00:56:23.435,607.372,21.639
65,ODUGS,VCC-B,44431,2019-12-03 00:46:51.400,2019-12-03 00:56:56.633,605.233,21.083
66,VTGS,VCC-C,44430,2019-12-03 01:51:01.245,2019-12-03 02:01:42.217,640.972,58.692
67,UVAGS,VCC-C,44430,2019-12-03 01:51:09.910,2019-12-03 02:01:55.772,645.862,81.915
68,ODUGS,VCC-C,44430,2019-12-03 01:51:43.354,2019-12-03 02:02:29.145,645.791,86.141
69,VTGS,VCC-A,44428,2019-12-03 02:19:45.734,2019-12-03 02:30:28.011,642.277,67.198
70,UVAGS,VCC-A,44428,2019-12-03 02:19:56.737,2019-12-03 02:30:35.142,638.405,47.666
71,ODUGS,VCC-A,44428,2019-12-03 02:20:30.815,2019-12-03 02:31:06.886,636.071,43.845
72,VTGS,VCC-B,44431,2019-12-03 02:22:28.207,2019-12-03 02:33:09.540,641.333,62.393
73,UVAGS,VCC-B,44431,2019-12-03 02:22:39.472,2019-12-03 02:33:16.037,636.565,44.408
74,ODUGS,VCC-B,44431,2019-12-03 02:23:13.662,2019-12-03 02:33:47.573,633.911,40.813
75,VTGS,VCC-C,44430,2019-12-03 03:28:02.057,2019-12-03 03:36:51.489,529.432,11.683
76,ODUGS,VCC-A,44428,2019-12-03 17:23:08.699,2019-12-03 17:32:40.817,572.118,16.434
77,VTGS,VCC-A,44428,2019-12-03 17:23:09.810,2019-12-03 17:31:42.693,512.883,10.341
78,UVAGS,VCC-A,44428,2019-12-03 17:23:25.240,2019-12-03 17:32:17.919,532.679,11.735
79,VTGS,VCC-B,44431,2019-12-03 17:25:46.300,2019-12-03 17:34:28.712,522.412,11.095
80,ODUGS,VCC-B,44431,2019-12-03 17:25:47.020,2019-12-03 17:35:25.520,578.5,17.502
81,UVAGS,VCC-B,44431,2019-12-03 17:26:02.327,2019-12-03 17:35:03.438,541.111,12.537
82,VTGS,VCC-C,44430,2019-12-03 18:29:05.257,2019-12-03 18:39:42.036,636.779,58.25
83,UVAGS,VCC-C,44430,2019-12-03 18:29:29.822,2019-12-03 18:40:10.912,641.09,64.234
84,ODUGS,VCC-C,44430,2019-12-03 18:29:37.209,2019-12-03 18:40:21.407,644.198,83.765
85,VTGS,VCC-A,44428,2019-12-03 18:58:09.824,2019-12-03 19:08:52.011,642.187,66.003
86,UVAGS,VCC-A,44428,2019-12-03 18:58:36.077,2019-12-03 19:09:20.455,644.378,61.704
87,ODUGS,VCC-A,44428,2019-12-03 18:58:51.394,2019-12-03 19:09:28.331,636.937,41.139
88,VTGS,VCC-B,44431,2019-12-03 19:00:52.838,2019-12-03 19:11:34.461,641.623,61.635
89,UVAGS,VCC-B,44431,2019-12-03 19:01:19.206,2019-12-03 19:12:02.902,643.696,57.795
90,ODUGS,VCC-B,44431,2019-12-03 19:01:35.232,2019-12-03 19:12:10.577,635.345,38.827
91,VTGS,VCC-C,44430,2019-12-03 20:06:12.799,2019-12-03 20:15:58.068,585.269,17.701
92,UVAGS,VCC-C,44430,2019-12-03 20:06:39.274,2019-12-03 20:16:28.486,589.212,17.877
93,ODUGS,VCC-C,44430,2019-12-03 20:07:12.356,2019-12-03 20:16:32.626,560.27,13.522
94,VTGS,VCC-A,44428,2019-12-03 20:35:57.179,2019-12-03 20:45:06.202,549.023,12.474
95,UVAGS,VCC-A,44428,2019-12-03 20:36:21.859,2019-12-03 20:45:38.632,556.773,12.954
96,VTGS,VCC-B,44431,2019-12-03 20:38:43.270,2019-12-03 20:47:48.721,545.451,12.11
97,UVAGS,VCC-B,44431,2019-12-03 20:39:07.713,2019-12-03 20:48:21.372,553.659,12.614
98,UVAGS,VCC-C,44430,2019-12-03 23:22:24.700,2019-12-03 23:31:19.144,534.444,10.887
99,VTGS,VCC-A,44428,2019-12-03 23:51:34.939,2019-12-04 00:00:37.843,542.904,11.813
100,UVAGS,VCC-A,44428,2019-12-03 23:51:39.930,2019-12-04 00:01:10.849,570.919,14.585
101,ODUGS,VCC-A,44428,2019-12-03 23:52:17.641,2019-12-04 00:01:41.569,563.928,13.727
102,VTGS,VCC-B,44431,2019-12-03 23:54:17.442,2019-12-04 00:03:24.180,546.738,12.172
103,UVAGS,VCC-B,44431,2019-12-03 23:54:22.448,2019-12-04 00:03:56.739,574.291,15.034
104,ODUGS,VCC-B,44431,2019-12-03 23:54:59.918,2019-12-04 00:04:27.741,567.823,14.196
105,VTGS,VCC-C,44430,2019-12-04 00:58:36.123,2019-12-04 01:08:59.859,623.736,30.837
106,UVAGS,VCC-C,44430,2019-12-04 00:58:43.027,2019-12-04 01:09:19.680,636.653,40.845
107,ODUGS,VCC-C,44430,2019-12-04 00:59:16.755,2019-12-04 01:09:53.713,636.958,41.49
108,VTGS,VCC-A,44428,2019-12-04 01:27:48.988,2019-12-04 01:38:31.367,642.379,57.924
109,UVAGS,VCC-A,44428,2019-12-04 01:27:57.617,2019-12-04 01:38:45.052,647.435,80.783
110,ODUGS,VCC-A,44428,2019-12-04 01:28:31.072,2019-12-04 01:39:18.462,647.39,84.928
111,VTGS,VCC-B,44431,2019-12-04 01:30:31.468,2019-12-04 01:41:14.744,643.276,61.989
112,UVAGS,VCC-B,44431,2019-12-04 01:30:40.286,2019-12-04 01:41:27.848,647.562,86.069
113,ODUGS,VCC-B,44431,2019-12-04 01:31:13.759,2019-12-04 01:42:01.143,647.384,89.293
114,VTGS,VCC-C,44430,2019-12-04 02:35:08.860,2019-12-04 02:45:09.860,601.0,23.498
115,UVAGS,VCC-C,44430,2019-12-04 02:35:25.127,2019-12-04 02:45:06.312,581.185,17.976
116,ODUGS,VCC-C,44430,2019-12-04 02:36:02.169,2019-12-04 02:45:33.677,571.508,16.306
117,VTGS,VCC-A,44428,2019-12-04 03:04:51.130,2019-12-04 03:13:44.214,533.084,11.919
118,VTGS,VCC-B,44431,2019-12-04 03:07:37.062,2019-12-04 03:16:21.315,524.253,11.137
119,VTGS,VCC-C,44430,2019-12-04 17:36:55.839,2019-12-04 17:47:04.126,608.287,26.832
120,ODUGS,VCC-C,44430,2019-12-04 17:37:16.205,2019-12-04 17:47:48.722,632.517,43.582
121,UVAGS,VCC-C,44430,2019-12-04 17:37:17.671,2019-12-04 17:47:34.476,616.805,29.676
122,VTGS,VCC-A,44428,2019-12-04 18:06:15.472,2019-12-04 18:16:53.586,638.114,57.988
123,UVAGS,VCC-A,44428,2019-12-04 18:06:40.029,2019-12-04 18:17:22.479,642.45,63.935
124,ODUGS,VCC-A,44428,2019-12-04 18:06:47.355,2019-12-04 18:17:33.000,645.645,84.239
125,VTGS,VCC-B,44431,2019-12-04 18:08:57.632,2019-12-04 18:19:37.055,639.423,62.539
126,UVAGS,VCC-B,44431,2019-12-04 18:09:22.380,2019-12-04 18:20:05.877,643.497,68.76
127,ODUGS,VCC-B,44431,2019-12-04 18:09:30.470,2019-12-04 18:20:16.114,645.644,78.776
128,VTGS,VCC-C,44430,2019-12-04 19:13:15.919,2019-12-04 19:23:33.199,617.28,27.722
129,UVAGS,VCC-C,44430,2019-12-04 19:13:43.016,2019-12-04 19:24:02.266,619.25,27.236
130,ODUGS,VCC-C,44430,2019-12-04 19:14:08.788,2019-12-04 19:24:07.568,598.78,20.092
131,VTGS,VCC-A,44428,2019-12-04 19:43:24.823,2019-12-04 19:53:11.927,587.104,17.823
132,UVAGS,VCC-A,44428,2019-12-04 19:43:51.316,2019-12-04 19:53:42.346,591.03,17.996
133,ODUGS,VCC-A,44428,2019-12-04 19:44:24.325,2019-12-04 19:53:46.533,562.208,13.621
134,VTGS,VCC-B,44431,2019-12-04 19:46:10.885,2019-12-04 19:55:54.725,583.84,17.197
135,UVAGS,VCC-B,44431,2019-12-04 19:46:37.263,2019-12-04 19:56:25.304,588.041,17.407
136,ODUGS,VCC-B,44431,2019-12-04 19:47:10.905,2019-12-04 19:56:29.423,558.518,13.186
137,UVAGS,VCC-A,44428,2019-12-04 22:59:41.212,2019-12-04 23:08:37.362,536.15,10.941
138,UVAGS,VCC-B,44431,2019-12-04 23:02:24.717,2019-12-04 23:11:24.103,539.386,11.21
139,ODUGS,VCC-B,44431,2019-12-04 23:03:05.050,2019-12-04 23:11:51.400,526.35,10.173
140,VTGS,VCC-C,44430,2019-12-05 00:06:11.210,2019-12-05 00:16:04.538,593.328,19.226
141,UVAGS,VCC-C,44430,2019-12-05 00:06:16.894,2019-12-05 00:16:30.309,613.415,24.233
142,ODUGS,VCC-C,44430,2019-12-05 00:06:51.746,2019-12-05 00:17:03.854,612.108,23.804
143,VTGS,VCC-A,44428,2019-12-05 00:35:54.954,2019-12-05 00:46:20.258,625.304,30.899
144,UVAGS,VCC-A,44428,2019-12-05 00:36:01.870,2019-12-05 00:46:40.090,638.22,40.893
145,ODUGS,VCC-A,44428,2019-12-05 00:36:35.613,2019-12-05 00:47:14.137,638.524,41.533
146,VTGS,VCC-B,44431,2019-12-05 00:38:37.765,2019-12-05 00:49:05.377,627.612,32.495
147,UVAGS,VCC-B,44431,2019-12-05 00:38:44.822,2019-12-05 00:49:24.647,639.825,43.285
148,ODUGS,VCC-B,44431,2019-12-05 00:39:18.500,2019-12-05 00:49:58.684,640.184,44.121
149,VTGS,VCC-C,44430,2019-12-05 01:42:28.764,2019-12-05 01:53:03.683,634.919,49.636
150,UVAGS,VCC-C,44430,2019-12-05 01:42:40.886,2019-12-05 01:53:08.192,627.306,35.92
151,ODUGS,VCC-C,44430,2019-12-05 01:43:15.456,2019-12-05 01:53:39.029,623.573,32.949
152,VTGS,VCC-A,44428,2019-12-05 02:12:29.809,2019-12-05 02:22:32.558,602.749,23.623
153,UVAGS,VCC-A,44428,2019-12-05 02:12:46.047,2019-12-05 02:22:29.049,583.002,18.081
154,ODUGS,VCC-A,44428,2019-12-05 02:13:23.086,2019-12-05 02:22:56.445,573.359,16.406
155,VTGS,VCC-B,44431,2019-12-05 02:15:14.586,2019-12-05 02:25:12.743,598.157,22.192
156,UVAGS,VCC-B,44431,2019-12-05 02:15:31.305,2019-12-05 02:25:08.400,577.095,17.011
157,ODUGS,VCC-B,44431,2019-12-05 02:16:08.677,2019-12-05 02:25:35.387,566.71,15.402
158,VTGS,VCC-C,44430,2019-12-05 16:45:07.431,2019-12-05 16:54:12.349,544.918,13.378
159,ODUGS,VCC-C,44430,2019-12-05 16:45:12.942,2019-12-05 16:55:05.831,592.889,20.858
160,UVAGS,VCC-C,44430,2019-12-05 16:45:24.984,2019-12-05 16:54:45.805,560.821,14.98
161,VTGS,VCC-A,44428,2019-12-05 17:14:36.998,2019-12-05 17:24:47.199,610.201,27.118
162,ODUGS,VCC-A,44428,2019-12-05 17:14:57.515,2019-12-05 17:25:31.729,634.214,44.045
163,UVAGS,VCC-A,44428,2019-12-05 17:14:58.874,2019-12-05 17:25:17.534,618.66,29.988
164,VTGS,VCC-B,44431,2019-12-05 17:17:18.086,2019-12-05 17:27:32.127,614.041,28.947
165,ODUGS,VCC-B,44431,2019-12-05 17:17:39.758,2019-12-05 17:28:16.071,636.313,47.438
166,UVAGS,VCC-B,44431,2019-12-05 17:17:40.259,2019-12-05 17:28:02.279,622.02,32.014
167,VTGS,VCC-C,44430,2019-12-05 18:20:29.253,2019-12-05 18:31:06.380,637.127,50.788
168,UVAGS,VCC-C,44430,2019-12-05 18:20:55.886,2019-12-05 18:31:34.837,638.951,48.107
169,ODUGS,VCC-C,44430,2019-12-05 18:21:13.973,2019-12-05 18:31:41.927,627.954,33.067
170,VTGS,VCC-A,44428,2019-12-05 18:50:59.783,2019-12-05 19:01:18.288,618.505,27.661
171,UVAGS,VCC-A,44428,2019-12-05 18:51:26.888,2019-12-05 19:01:47.381,620.493,27.186
172,ODUGS,VCC-A,44428,2019-12-05 18:51:52.729,2019-12-05 19:01:52.692,599.963,20.076
173,VTGS,VCC-B,44431,2019-12-05 18:53:45.615,2019-12-05 19:04:01.672,616.057,26.426
174,UVAGS,VCC-B,44431,2019-12-05 18:54:12.707,2019-12-05 19:04:30.862,618.155,26.043
175,ODUGS,VCC-B,44431,2019-12-05 18:54:39.234,2019-12-05 19:04:36.049,596.815,19.306
176,VTGS,VCC-C,44430,2019-12-05 19:58:25.706,2019-12-05 20:07:18.397,532.691,11.069
177,UVAGS,VCC-C,44430,2019-12-05 19:58:49.408,2019-12-05 20:07:51.683,542.275,11.631
178,VTGS,VCC-C,44430,2019-12-05 23:13:44.162,2019-12-05 23:22:58.964,554.802,13.171
179,UVAGS,VCC-C,44430,2019-12-05 23:13:49.179,2019-12-05 23:23:30.254,581.075,16.309
180,ODUGS,VCC-C,44430,2019-12-05 23:14:26.004,2019-12-05 23:24:01.947,575.943,15.532
181,VTGS,VCC-A,44428,2019-12-05 23:44:01.328,2019-12-05 23:53:56.881,595.553,19.431
182,UVAGS,VCC-A,44428,2019-12-05 23:44:07.050,2019-12-05 23:54:22.553,615.503,24.491
183,ODUGS,VCC-A,44428,2019-12-05 23:44:41.892,2019-12-05 23:54:56.131,614.239,24.07
184,VTGS,VCC-B,44431,2019-12-05 23:46:44.761,2019-12-05 23:56:43.626,598.865,20.202
185,UVAGS,VCC-B,44431,2019-12-05 23:46:50.579,2019-12-05 23:57:08.771,618.192,25.536
186,ODUGS,VCC-B,44431,2019-12-05 23:47:25.287,2019-12-05 23:57:42.444,617.157,25.167
187,VTGS,VCC-C,44430,2019-12-06 00:49:55.740,2019-12-06 01:00:38.360,642.62,75.046
188,UVAGS,VCC-C,44430,2019-12-06 00:50:05.111,2019-12-06 01:00:49.794,644.683,78.741
189,ODUGS,VCC-C,44430,2019-12-06 00:50:38.657,2019-12-06 01:01:22.718,644.061,73.821
190,VTGS,VCC-A,44428,2019-12-06 01:20:21.282,2019-12-06 01:30:57.504,636.222,49.116
191,UVAGS,VCC-A,44428,2019-12-06 01:20:33.451,2019-12-06 01:31:01.908,628.457,35.62
192,ODUGS,VCC-A,44428,2019-12-06 01:21:08.057,2019-12-06 01:31:32.718,624.661,32.676
193,VTGS,VCC-B,44431,2019-12-06 01:23:05.750,2019-12-06 01:33:40.165,634.415,45.626
194,UVAGS,VCC-B,44431,2019-12-06 01:23:18.230,2019-12-06 01:33:43.897,625.667,33.324
195,ODUGS,VCC-B,44431,2019-12-06 01:23:52.991,2019-12-06 01:34:14.455,621.464,30.556
196,ODUGS,VCC-C,44430,2019-12-06 15:53:33.734,2019-12-06 16:02:05.795,512.061,10.137
197,VTGS,VCC-A,44428,2019-12-06 16:23:18.907,2019-12-06 16:32:27.783,548.876,13.712
198,ODUGS,VCC-A,44428,2019-12-06 16:23:24.956,2019-12-06 16:33:20.908,595.952,21.345
199,UVAGS,VCC-A,44428,2019-12-06 16:23:36.631,2019-12-06 16:33:01.118,564.487,15.339
200,VTGS,VCC-B,44431,2019-12-06 16:25:58.440,2019-12-06 16:35:14.891,556.451,14.636
201,ODUGS,VCC-B,44431,2019-12-06 16:26:06.049,2019-12-06 16:36:06.996,600.947,22.749
202,UVAGS,VCC-B,44431,2019-12-06 16:26:16.642,2019-12-06 16:35:47.853,571.211,16.332
203,VTGS,VCC-C,44430,2019-12-06 17:27:55.208,2019-12-06 17:38:35.198,639.99,75.953
204,UVAGS,VCC-C,44430,2019-12-06 17:28:20.434,2019-12-06 17:39:03.825,643.391,82.568
205,ODUGS,VCC-C,44430,2019-12-06 17:28:30.513,2019-12-06 17:39:13.352,642.839,65.456
206,VTGS,VCC-A,44428,2019-12-06 17:58:44.794,2019-12-06 18:09:23.034,638.24,49.867
207,UVAGS,VCC-A,44428,2019-12-06 17:59:11.461,2019-12-06 18:09:51.516,640.055,47.298
208,ODUGS,VCC-A,44428,2019-12-06 17:59:29.765,2019-12-06 18:09:58.562,628.797,32.628
209,VTGS,VCC-B,44431,2019-12-06 18:01:30.253,2019-12-06 18:12:07.311,637.058,46.791
210,UVAGS,VCC-B,44431,2019-12-06 18:01:57.003,2019-12-06 18:12:35.817,638.814,44.551
211,ODUGS,VCC-B,44431,2019-12-06 18:02:16.023,2019-12-06 18:12:42.680,626.657,30.994
212,VTGS,VCC-C,44430,2019-12-06 19:05:16.017,2019-12-06 19:14:48.663,572.646,15.595
213,UVAGS,VCC-C,44430,2019-12-06 19:05:42.028,2019-12-06 19:15:19.670,577.642,15.89
214,ODUGS,VCC-C,44430,2019-12-06 19:06:17.353,2019-12-06 19:15:23.576,546.223,12.044
215,VTGS,VCC-A,44428,2019-12-06 19:36:44.249,2019-12-06 19:45:37.499,533.25,11.029
216,UVAGS,VCC-A,44428,2019-12-06 19:37:07.881,2019-12-06 19:46:10.865,542.984,11.599
217,VTGS,VCC-B,44431,2019-12-06 19:39:32.487,2019-12-06 19:48:22.153,529.666,10.727
218,UVAGS,VCC-B,44431,2019-12-06 19:39:55.833,2019-12-06 19:48:55.764,539.931,11.317
219,UVAGS,VCC-C,44430,2019-12-06 22:21:17.500,2019-12-06 22:30:22.725,545.225,11.869
220,ODUGS,VCC-C,44430,2019-12-06 22:21:57.097,2019-12-06 22:30:51.013,533.916,10.882
221,VTGS,VCC-A,44428,2019-12-06 22:52:05.889,2019-12-06 23:01:23.802,557.913,13.39
222,UVAGS,VCC-A,44428,2019-12-06 22:52:10.954,2019-12-06 23:01:54.901,583.947,16.576
223,ODUGS,VCC-A,44428,2019-12-06 22:52:47.708,2019-12-06 23:02:26.699,578.991,15.806
224,VTGS,VCC-B,44431,2019-12-06 22:54:50.262,2019-12-06 23:04:12.011,561.749,13.832
225,UVAGS,VCC-B,44431,2019-12-06 22:54:55.360,2019-12-06 23:04:42.630,587.27,17.137
226,ODUGS,VCC-B,44431,2019-12-06 22:55:31.903,2019-12-06 23:05:14.658,582.755,16.39
227,VTGS,VCC-C,44430,2019-12-06 23:57:26.289,2019-12-07 00:07:56.900,630.611,37.095
228,UVAGS,VCC-C,44430,2019-12-06 23:57:33.697,2019-12-07 00:08:14.724,641.027,50.359
229,ODUGS,VCC-C,44430,2019-12-06 23:58:07.233,2019-12-07 00:08:48.664,641.431,51.841
230,VTGS,VCC-A,44428,2019-12-07 00:28:19.844,2019-12-07 00:39:04.168,644.324,77.006
231,UVAGS,VCC-A,44428,2019-12-07 00:28:29.296,2019-12-07 00:39:15.382,646.086,76.839
232,ODUGS,VCC-A,44428,2019-12-07 00:29:02.869,2019-12-07 00:39:48.269,645.4,71.921
233,VTGS,VCC-B,44431,2019-12-07 00:31:04.495,2019-12-07 00:41:49.075,644.58,82.386
234,UVAGS,VCC-B,44431,2019-12-07 00:31:14.162,2019-12-07 00:41:59.680,645.518,71.607
235,ODUGS,VCC-B,44431,2019-12-07 00:31:47.785,2019-12-07 00:42:32.419,644.634,66.73
236,VTGS,VCC-C,44430,2019-12-07 01:34:06.108,2019-12-07 01:43:48.524,582.416,18.801
237,UVAGS,VCC-C,44430,2019-12-07 01:34:24.238,2019-12-07 01:43:41.888,557.65,14.404
238,ODUGS,VCC-C,44430,2019-12-07 01:35:02.568,2019-12-07 01:44:07.680,545.112,12.947
239,ODUGS,VCC-A,44428,2019-12-07 15:32:15.502,2019-12-07 15:40:54.123,518.621,10.567
240,ODUGS,VCC-B,44431,2019-12-07 15:34:54.744,2019-12-07 15:43:42.880,528.136,11.349
241,VTGS,VCC-C,44430,2019-12-07 16:35:36.407,2019-12-07 16:45:56.696,620.289,33.903
242,UVAGS,VCC-C,44430,2019-12-07 16:35:59.245,2019-12-07 16:46:26.429,627.184,37.526
243,ODUGS,VCC-C,44430,2019-12-07 16:36:00.758,2019-12-07 16:46:39.306,638.548,56.862
244,VTGS,VCC-A,44428,2019-12-07 17:06:42.138,2019-12-07 17:17:23.889,641.751,78.799
245,UVAGS,VCC-A,44428,2019-12-07 17:07:07.455,2019-12-07 17:17:52.509,645.054,85.372
246,ODUGS,VCC-A,44428,2019-12-07 17:07:17.914,2019-12-07 17:18:01.909,643.995,63.238
247,VTGS,VCC-B,44431,2019-12-07 17:09:27.094,2019-12-07 17:20:09.377,642.283,84.443
248,UVAGS,VCC-B,44431,2019-12-07 17:09:52.577,2019-12-07 17:20:37.947,645.37,89.086
249,ODUGS,VCC-B,44431,2019-12-07 17:10:03.791,2019-12-07 17:20:47.093,643.302,58.959
250,VTGS,VCC-C,44430,2019-12-07 18:12:12.559,2019-12-07 18:22:20.173,607.614,23.665
251,UVAGS,VCC-C,44430,2019-12-07 18:12:39.580,2019-12-07 18:22:49.594,610.014,23.467
252,ODUGS,VCC-C,44430,2019-12-07 18:13:07.764,2019-12-07 18:22:54.441,586.677,17.516
253,VTGS,VCC-A,44428,2019-12-07 18:44:06.973,2019-12-07 18:53:39.426,572.453,15.392
254,UVAGS,VCC-A,44428,2019-12-07 18:44:32.919,2019-12-07 18:54:10.541,577.622,15.703
255,ODUGS,VCC-A,44428,2019-12-07 18:45:08.533,2019-12-07 18:54:14.470,545.937,11.913
256,VTGS,VCC-B,44431,2019-12-07 18:46:55.608,2019-12-07 18:56:24.548,568.94,14.882
257,UVAGS,VCC-B,44431,2019-12-07 18:47:21.385,2019-12-07 18:56:55.846,574.461,15.222
258,ODUGS,VCC-B,44431,2019-12-07 18:47:57.614,2019-12-07 18:56:59.738,542.124,11.551
259,UVAGS,VCC-A,44428,2019-12-07 22:00:11.332,2019-12-07 22:09:20.155,548.823,12.108
260,ODUGS,VCC-A,44428,2019-12-07 22:00:50.766,2019-12-07 22:09:48.686,537.92,11.128
261,VTGS,VCC-B,44431,2019-12-07 22:02:51.863,2019-12-07 22:11:33.800,521.937,10.091
262,UVAGS,VCC-B,44431,2019-12-07 22:02:56.927,2019-12-07 22:12:09.182,552.255,12.441
263,ODUGS,VCC-B,44431,2019-12-07 22:03:36.081,2019-12-07 22:12:38.086,542.005,11.479
264,VTGS,VCC-C,44430,2019-12-07 23:04:57.809,2019-12-07 23:15:01.655,603.846,22.07
265,UVAGS,VCC-C,44430,2019-12-07 23:05:03.824,2019-12-07 23:15:25.553,621.729,28.143
266,ODUGS,VCC-C,44430,2019-12-07 23:05:38.223,2019-12-07 23:15:59.392,621.169,27.919
267,VTGS,VCC-A,44428,2019-12-07 23:36:22.156,2019-12-07 23:46:55.417,633.261,38.396
268,UVAGS,VCC-A,44428,2019-12-07 23:36:29.665,2019-12-07 23:47:12.926,643.261,52.284
269,ODUGS,VCC-A,44428,2019-12-07 23:37:03.188,2019-12-07 23:47:46.848,643.66,53.935
270,VTGS,VCC-B,44431,2019-12-07 23:39:07.332,2019-12-07 23:49:42.450,635.118,40.691
271,UVAGS,VCC-B,44431,2019-12-07 23:39:14.995,2019-12-07 23:49:59.378,644.383,55.785
272,ODUGS,VCC-B,44431,2019-12-07 23:39:48.491,2019-12-07 23:50:33.247,644.756,57.768
273,VTGS,VCC-C,44430,2019-12-08 00:41:18.844,2019-12-08 00:51:45.759,626.915,38.404
274,UVAGS,VCC-C,44430,2019-12-08 00:41:32.105,2019-12-08 00:51:47.845,615.74,28.473
275,ODUGS,VCC-C,44430,2019-12-08 00:42:07.270,2019-12-08 00:52:17.746,610.476,26.069
276,VTGS,VCC-A,44428,2019-12-08 01:13:05.476,2019-12-08 01:22:46.269,580.793,18.224
277,UVAGS,VCC-A,44428,2019-12-08 01:13:23.915,2019-12-08 01:22:39.132,555.217,13.962
278,ODUGS,VCC-A,44428,2019-12-08 01:14:02.472,2019-12-08 01:23:04.670,542.198,12.53
279,VTGS,VCC-B,44431,2019-12-08 01:15:53.150,2019-12-08 01:25:27.882,574.732,17.112
280,UVAGS,VCC-B,44431,2019-12-08 01:16:12.201,2019-12-08 01:25:19.785,547.584,13.089
281,ODUGS,VCC-B,44431,2019-12-08 01:16:51.204,2019-12-08 01:25:44.801,533.597,11.703
282,VTGS,VCC-C,44430,2019-12-08 15:43:36.783,2019-12-08 15:53:06.388,569.605,16.744
283,ODUGS,VCC-C,44430,2019-12-08 15:43:47.580,2019-12-08 15:53:56.447,608.867,26.081
284,UVAGS,VCC-C,44430,2019-12-08 15:43:55.942,2019-12-08 15:53:38.595,582.653,18.613
285,VTGS,VCC-A,44428,2019-12-08 16:14:54.254,2019-12-08 16:25:18.097,623.843,35.7
286,UVAGS,VCC-A,44428,2019-12-08 16:15:17.293,2019-12-08 16:25:47.729,630.436,39.515
287,ODUGS,VCC-A,44428,2019-12-08 16:15:19.390,2019-12-08 16:26:00.352,640.962,60.125
288,VTGS,VCC-B,44431,2019-12-08 16:17:38.535,2019-12-08 16:28:05.182,626.647,38.326
289,UVAGS,VCC-B,44431,2019-12-08 16:18:01.832,2019-12-08 16:28:34.678,632.846,42.433
290,ODUGS,VCC-B,44431,2019-12-08 16:18:04.754,2019-12-08 16:28:46.950,642.196,64.973
291,VTGS,VCC-C,44430,2019-12-08 17:19:18.494,2019-12-08 17:29:50.487,631.993,40.855
292,UVAGS,VCC-C,44430,2019-12-08 17:19:45.386,2019-12-08 17:30:19.057,633.671,39.208
293,ODUGS,VCC-C,44430,2019-12-08 17:20:05.970,2019-12-08 17:30:25.499,619.529,27.722
294,VTGS,VCC-A,44428,2019-12-08 17:51:35.772,2019-12-08 18:01:42.921,607.149,23.045
295,UVAGS,VCC-A,44428,2019-12-08 17:52:02.774,2019-12-08 18:02:12.437,609.663,22.894
296,ODUGS,VCC-A,44428,2019-12-08 17:52:31.421,2019-12-08 18:02:17.234,585.813,17.131
297,VTGS,VCC-B,44431,2019-12-08 17:54:24.550,2019-12-08 18:04:28.829,604.279,22.1
298,UVAGS,VCC-B,44431,2019-12-08 17:54:51.501,2019-12-08 18:04:58.468,606.967,22.012
299,ODUGS,VCC-B,44431,2019-12-08 17:55:20.831,2019-12-08 18:05:03.156,582.325,16.512
300,VTGS,VCC-C,44430,2019-12-08 18:57:24.030,2019-12-08 19:06:03.455,519.425,10.034
301,UVAGS,VCC-C,44430,2019-12-08 18:57:46.705,2019-12-08 19:06:37.594,530.889,10.666
302,VTGS,VCC-C,44430,2019-12-08 22:12:27.973,2019-12-08 22:21:55.168,567.195,14.733
303,UVAGS,VCC-C,44430,2019-12-08 22:12:33.117,2019-12-08 22:22:24.765,591.648,18.308
304,ODUGS,VCC-C,44430,2019-12-08 22:13:09.223,2019-12-08 22:22:57.207,587.984,17.617
305,VTGS,VCC-A,44428,2019-12-08 22:44:25.733,2019-12-08 22:54:33.505,607.772,22.869
306,UVAGS,VCC-A,44428,2019-12-08 22:44:31.853,2019-12-08 22:54:56.983,625.13,29.234
307,ODUGS,VCC-A,44428,2019-12-08 22:45:06.174,2019-12-08 22:55:30.883,624.709,29.067
308,VTGS,VCC-B,44431,2019-12-08 22:47:11.747,2019-12-08 22:57:22.553,610.806,23.878
309,UVAGS,VCC-B,44431,2019-12-08 22:47:17.974,2019-12-08 22:57:45.480,627.506,30.655
310,ODUGS,VCC-B,44431,2019-12-08 22:47:52.185,2019-12-08 22:58:19.433,627.248,30.571
311,VTGS,VCC-C,44430,2019-12-08 23:48:40.232,2019-12-08 23:59:22.421,642.189,85.75
312,UVAGS,VCC-C,44430,2019-12-08 23:48:50.381,2019-12-08 23:59:31.713,641.332,61.23
313,ODUGS,VCC-C,44430,2019-12-08 23:49:24.120,2019-12-09 00:00:04.092,639.972,56.635
314,VTGS,VCC-A,44428,2019-12-09 00:20:49.989,2019-12-09 00:31:16.497,626.508,36.506
315,UVAGS,VCC-A,44428,2019-12-09 00:21:03.509,2019-12-09 00:31:18.050,614.541,27.214
316,ODUGS,VCC-A,44428,2019-12-09 00:21:38.835,2019-12-09 00:31:47.745,608.91,24.907
317,VTGS,VCC-B,44431,2019-12-09 00:23:37.404,2019-12-09 00:34:01.104,623.7,34.051
318,UVAGS,VCC-B,44431,2019-12-09 00:23:51.288,2019-12-09 00:34:01.928,610.64,25.534
319,ODUGS,VCC-B,44431,2019-12-09 00:24:26.834,2019-12-09 00:34:31.312,604.478,23.35
320,ODUGS,VCC-C,44430,2019-12-09 14:51:55.951,2019-12-09 15:00:59.181,543.23,12.907
321,VTGS,VCC-A,44428,2019-12-09 15:23:24.735,2019-12-09 15:33:01.544,576.809,17.802
322,ODUGS,VCC-A,44428,2019-12-09 15:23:36.841,2019-12-09 15:33:50.803,613.962,27.764
323,UVAGS,VCC-A,44428,2019-12-09 15:23:44.282,2019-12-09 15:33:33.471,589.189,19.759
324,VTGS,VCC-B,44431,2019-12-09 15:26:07.972,2019-12-09 15:35:50.831,582.859,18.98
325,ODUGS,VCC-B,44431,2019-12-09 15:26:21.471,2019-12-09 15:36:39.259,617.788,29.704
326,UVAGS,VCC-B,44431,2019-12-09 15:26:27.924,2019-12-09 15:36:22.470,594.546,21.042
327,VTGS,VCC-C,44430,2019-12-09 16:26:36.357,2019-12-09 16:37:17.221,640.864,84.477
328,UVAGS,VCC-C,44430,2019-12-09 16:27:02.133,2019-12-09 16:37:45.701,643.568,78.54
329,ODUGS,VCC-C,44430,2019-12-09 16:27:14.803,2019-12-09 16:37:54.362,639.559,51.481
330,VTGS,VCC-A,44428,2019-12-09 16:59:13.672,2019-12-09 17:09:45.653,631.981,38.856
331,UVAGS,VCC-A,44428,2019-12-09 16:59:40.622,2019-12-09 17:10:14.279,633.657,37.415
332,ODUGS,VCC-A,44428,2019-12-09 17:00:01.843,2019-12-09 17:10:20.586,618.743,26.648
333,VTGS,VCC-B,44431,2019-12-09 17:02:02.440,2019-12-09 17:12:32.653,630.213,36.705
334,UVAGS,VCC-B,44431,2019-12-09 17:02:29.437,2019-12-09 17:13:01.338,631.901,35.467
335,ODUGS,VCC-B,44431,2019-12-09 17:02:51.371,2019-12-09 17:13:07.476,616.105,25.435
336,VTGS,VCC-C,44430,2019-12-09 18:04:09.295,2019-12-09 18:13:29.012,559.717,13.869
337,UVAGS,VCC-C,44430,2019-12-09 18:04:34.714,2019-12-09 18:14:00.671,565.957,14.261
338,ODUGS,VCC-C,44430,2019-12-09 18:05:12.162,2019-12-09 18:14:04.439,532.277,10.811
339,UVAGS,VCC-A,44428,2019-12-09 18:37:46.022,2019-12-09 18:46:35.908,529.886,10.502
340,UVAGS,VCC-B,44431,2019-12-09 18:40:36.907,2019-12-09 18:49:23.874,526.967,10.27
341,VTGS,VCC-C,44430,2019-12-09 21:19:54.275,2019-12-09 21:28:40.707,526.432,10.541
342,UVAGS,VCC-C,44430,2019-12-09 21:19:59.222,2019-12-09 21:29:15.351,556.129,13.013
343,ODUGS,VCC-C,44430,2019-12-09 21:20:37.859,2019-12-09 21:29:44.887,547.028,12.089
344,VTGS,VCC-A,44428,2019-12-09 21:52:28.373,2019-12-09 22:02:00.795,572.422,15.292
345,UVAGS,VCC-A,44428,2019-12-09 21:52:33.602,2019-12-09 22:02:29.896,596.294,19.017
346,ODUGS,VCC-A,44428,2019-12-09 21:53:09.534,2019-12-09 22:03:02.535,593.001,18.351
347,VTGS,VCC-B,44431,2019-12-09 21:55:15.513,2019-12-09 22:04:51.719,576.206,15.842
348,UVAGS,VCC-B,44431,2019-12-09 21:55:20.809,2019-12-09 22:05:20.308,599.499,19.729
349,ODUGS,VCC-B,44431,2019-12-09 21:55:56.553,2019-12-09 22:05:53.132,596.579,19.093
350,VTGS,VCC-C,44430,2019-12-09 22:56:06.190,2019-12-09 23:06:42.035,635.845,45.44
351,UVAGS,VCC-C,44430,2019-12-09 22:56:14.149,2019-12-09 23:06:57.874,643.725,63.097
352,ODUGS,VCC-C,44430,2019-12-09 22:56:47.584,2019-12-09 23:07:31.600,644.016,65.796
353,VTGS,VCC-A,44428,2019-12-09 23:28:43.398,2019-12-09 23:39:26.825,643.427,80.36
354,UVAGS,VCC-A,44428,2019-12-09 23:28:53.778,2019-12-09 23:39:35.521,641.743,57.1
355,ODUGS,VCC-A,44428,2019-12-09 23:29:27.603,2019-12-09 23:40:07.744,640.141,52.712
356,VTGS,VCC-B,44431,2019-12-09 23:31:31.136,2019-12-09 23:42:14.090,642.954,74.756
357,UVAGS,VCC-B,44431,2019-12-09 23:31:41.764,2019-12-09 23:42:22.148,640.384,52.965
358,ODUGS,VCC-B,44431,2019-12-09 23:32:15.682,2019-12-09 23:42:54.187,638.505,48.807
359,VTGS,VCC-C,44430,2019-12-10 00:32:54.473,2019-12-10 00:42:14.261,559.788,15.084
360,UVAGS,VCC-C,44430,2019-12-10 00:33:14.827,2019-12-10 00:42:04.215,529.388,11.461
361,ODUGS,VCC-C,44430,2019-12-10 00:33:54.774,2019-12-10 00:42:28.115,513.341,10.158
362,ODUGS,VCC-A,44428,2019-12-10 14:32:14.696,2019-12-10 14:41:28.245,553.549,13.952
363,ODUGS,VCC-B,44431,2019-12-10 14:34:58.094,2019-12-10 14:44:19.284,561.19,14.917
364,UVAGS,VCC-B,44431,2019-12-10 14:35:16.591,2019-12-10 14:43:55.065,518.474,10.575
365,VTGS,VCC-C,44430,2019-12-10 15:34:08.621,2019-12-10 15:44:37.645,629.024,43.29
366,UVAGS,VCC-C,44430,2019-12-10 15:34:32.327,2019-12-10 15:45:06.905,634.578,47.947
367,ODUGS,VCC-C,44430,2019-12-10 15:34:36.641,2019-12-10 15:45:18.601,641.96,73.958
368,VTGS,VCC-A,44428,2019-12-10 16:07:03.102,2019-12-10 16:17:45.375,642.273,78.444
369,UVAGS,VCC-A,44428,2019-12-10 16:07:29.040,2019-12-10 16:18:13.841,644.801,72.963
370,ODUGS,VCC-A,44428,2019-12-10 16:07:42.529,2019-12-10 16:18:22.254,639.725,47.967
371,VTGS,VCC-B,44431,2019-12-10 16:09:51.711,2019-12-10 16:20:33.788,642.077,73.097
372,UVAGS,VCC-B,44431,2019-12-10 16:10:17.785,2019-12-10 16:21:02.238,644.453,68.091
373,ODUGS,VCC-B,44431,2019-12-10 16:10:32.023,2019-12-10 16:21:10.422,638.399,44.952
374,VTGS,VCC-C,44430,2019-12-10 17:10:59.601,2019-12-10 17:20:56.659,597.058,20.511
375,UVAGS,VCC-C,44430,2019-12-10 17:11:26.436,2019-12-10 17:21:26.497,600.061,20.516
376,ODUGS,VCC-C,44430,2019-12-10 17:11:56.954,2019-12-10 17:21:30.958,574.004,15.431
377,VTGS,VCC-A,44428,2019-12-10 17:44:42.013,2019-12-10 17:53:59.303,557.29,13.444
378,UVAGS,VCC-A,44428,2019-12-10 17:45:07.226,2019-12-10 17:54:31.193,563.967,13.865
379,ODUGS,VCC-A,44428,2019-12-10 17:45:45.297,2019-12-10 17:54:35.003,529.706,10.519
380,VTGS,VCC-B,44431,2019-12-10 17:47:34.063,2019-12-10 17:56:47.652,553.589,13.02
381,UVAGS,VCC-B,44431,2019-12-10 17:47:59.064,2019-12-10 17:57:19.762,560.698,13.465
382,ODUGS,VCC-B,44431,2019-12-10 17:48:37.721,2019-12-10 17:57:23.564,525.843,10.215
383,VTGS,VCC-A,44428,2019-12-10 21:00:27.727,2019-12-10 21:09:20.321,532.594,10.954
384,UVAGS,VCC-A,44428,2019-12-10 21:00:32.700,2019-12-10 21:09:54.445,561.745,13.517
385,ODUGS,VCC-A,44428,2019-12-10 21:01:11.035,2019-12-10 21:10:24.397,553.362,12.612
386,VTGS,VCC-B,44431,2019-12-10 21:03:16.336,2019-12-10 21:12:12.903,536.567,11.285
387,UVAGS,VCC-B,44431,2019-12-10 21:03:21.304,2019-12-10 21:12:46.585,565.281,13.929
388,ODUGS,VCC-B,44431,2019-12-10 21:03:59.371,2019-12-10 21:13:16.864,557.493,13.043
389,VTGS,VCC-C,44430,2019-12-10 22:03:33.908,2019-12-10 22:13:47.068,613.16,25.555
390,UVAGS,VCC-C,44430,2019-12-10 22:03:40.301,2019-12-10 22:14:09.092,628.791,33.092
391,ODUGS,VCC-C,44430,2019-12-10 22:04:14.328,2019-12-10 22:14:43.090,628.762,33.172
392,VTGS,VCC-A,44428,2019-12-10 22:36:41.697,2019-12-10 22:47:20.724,639.027,49.028
393,UVAGS,VCC-A,44428,2019-12-10 22:36:49.865,2019-12-10 22:47:35.881,646.016,68.336
394,ODUGS,VCC-A,44428,2019-12-10 22:37:23.302,2019-12-10 22:48:09.533,646.231,71.506
395,VTGS,VCC-B,44431,2019-12-10 22:39:30.148,2019-12-10 22:50:10.501,640.353,52.419
396,UVAGS,VCC-B,44431,2019-12-10 22:39:38.499,2019-12-10 22:50:25.065,646.566,73.226
397,ODUGS,VCC-B,44431,2019-12-10 22:40:11.931,2019-12-10 22:50:58.626,646.695,76.817
398,VTGS,VCC-C,44430,2019-12-10 23:39:59.345,2019-12-10 23:50:15.477,616.132,30.3
399,UVAGS,VCC-C,44430,2019-12-10 23:40:13.892,2019-12-10 23:50:15.043,601.151,22.892
400,ODUGS,VCC-C,44430,2019-12-10 23:40:49.812,2019-12-10 23:50:43.867,594.055,20.894
401,VTGS,VCC-A,44428,2019-12-11 00:13:35.517,2019-12-11 00:22:48.459,552.942,14.054
402,UVAGS,VCC-A,44428,2019-12-11 00:13:56.698,2019-12-11 00:22:37.190,520.492,10.632
403,VTGS,VCC-B,44431,2019-12-11 00:16:27.130,2019-12-11 00:25:32.196,545.066,13.145
404,VTGS,VCC-C,44430,2019-12-11 14:41:58.635,2019-12-11 14:51:47.911,589.276,20.772
405,ODUGS,VCC-C,44430,2019-12-11 14:42:14.093,2019-12-11 14:52:35.189,621.096,32.778
406,UVAGS,VCC-C,44430,2019-12-11 14:42:19.136,2019-12-11 14:52:19.141,600.005,23.004
407,VTGS,VCC-A,44428,2019-12-11 15:15:06.357,2019-12-11 15:25:39.570,633.213,47.821
408,UVAGS,VCC-A,44428,2019-12-11 15:15:30.377,2019-12-11 15:26:08.693,638.316,52.925
409,ODUGS,VCC-A,44428,2019-12-11 15:15:35.730,2019-12-11 15:26:19.967,644.237,81.32
410,VTGS,VCC-B,44431,2019-12-11 15:17:54.655,2019-12-11 15:28:29.758,635.103,51.681
411,UVAGS,VCC-B,44431,2019-12-11 15:18:18.901,2019-12-11 15:28:58.780,639.879,57.139
412,ODUGS,VCC-B,44431,2019-12-11 15:18:25.064,2019-12-11 15:29:09.736,644.672,87.216
413,VTGS,VCC-C,44430,2019-12-11 16:17:58.440,2019-12-11 16:28:23.852,625.412,33.726
414,UVAGS,VCC-C,44430,2019-12-11 16:18:25.487,2019-12-11 16:28:52.608,627.121,32.744
415,ODUGS,VCC-C,44430,2019-12-11 16:18:48.500,2019-12-11 16:28:58.477,609.977,23.681
416,VTGS,VCC-A,44428,2019-12-11 16:52:05.102,2019-12-11 17:01:59.599,594.497,19.557
417,UVAGS,VCC-A,44428,2019-12-11 16:52:31.842,2019-12-11 17:02:29.632,597.79,19.625
418,ODUGS,VCC-A,44428,2019-12-11 16:53:03.209,2019-12-11 17:02:34.003,570.794,14.802
419,VTGS,VCC-B,44431,2019-12-11 16:54:57.697,2019-12-11 17:04:48.935,591.238,18.806
420,UVAGS,VCC-B,44431,2019-12-11 16:55:24.344,2019-12-11 17:05:19.119,594.775,18.919
421,ODUGS,VCC-B,44431,2019-12-11 16:55:56.387,2019-12-11 17:05:23.403,567.016,14.29
422,UVAGS,VCC-A,44428,2019-12-11 20:08:26.783,2019-12-11 20:17:14.179,527.396,10.287
423,UVAGS,VCC-B,44431,2019-12-11 20:11:17.112,2019-12-11 20:20:07.766,530.654,10.534
424,VTGS,VCC-C,44430,2019-12-11 21:11:01.001,2019-12-11 21:20:39.954,578.953,16.557
425,UVAGS,VCC-C,44430,2019-12-11 21:11:06.352,2019-12-11 21:21:07.824,601.472,20.685
426,ODUGS,VCC-C,44430,2019-12-11 21:11:41.825,2019-12-11 21:21:40.856,599.031,20.097
427,VTGS,VCC-A,44428,2019-12-11 21:44:42.162,2019-12-11 21:55:00.573,618.411,27.3
428,UVAGS,VCC-A,44428,2019-12-11 21:44:48.737,2019-12-11 21:55:21.832,633.095,35.591
429,ODUGS,VCC-A,44428,2019-12-11 21:45:22.658,2019-12-11 21:55:55.871,633.213,35.834
430,VTGS,VCC-B,44431,2019-12-11 21:47:31.650,2019-12-11 21:57:52.765,621.115,28.668
431,UVAGS,VCC-B,44431,2019-12-11 21:47:38.357,2019-12-11 21:58:13.448,635.091,37.595
432,ODUGS,VCC-B,44431,2019-12-11 21:48:12.196,2019-12-11 21:58:47.499,635.303,37.984
433,VTGS,VCC-C,44430,2019-12-11 22:47:14.764,2019-12-11 22:57:54.384,639.62,67.142
434,UVAGS,VCC-C,44430,2019-12-11 22:47:25.765,2019-12-11 22:58:01.518,635.753,47.526
435,ODUGS,VCC-C,44430,2019-12-11 22:47:59.811,2019-12-11 22:58:33.251,633.44,43.702
436,VTGS,VCC-A,44428,2019-12-11 23:21:12.059,2019-12-11 23:31:24.848,612.789,27.776
437,UVAGS,VCC-A,44428,2019-12-11 23:21:27.156,2019-12-11 23:31:23.377,596.221,21.113
438,ODUGS,VCC-A,44428,2019-12-11 23:22:03.440,2019-12-11 23:31:51.747,588.307,19.24
439,VTGS,VCC-B,44431,2019-12-11 23:24:03.374,2019-12-11 23:34:12.184,608.81,25.985
440,UVAGS,VCC-B,44431,2019-12-11 23:24:18.921,2019-12-11 23:34:09.899,590.978,19.818
441,ODUGS,VCC-B,44431,2019-12-11 23:24:55.486,2019-12-11 23:34:37.891,582.405,18.031
442,ODUGS,VCC-C,44430,2019-12-12 13:50:11.228,2019-12-12 13:59:39.472,568.244,16.117
443,VTGS,VCC-C,44430,2019-12-12 13:50:12.809,2019-12-12 13:58:41.007,508.198,10.105
444,UVAGS,VCC-C,44430,2019-12-12 13:50:28.083,2019-12-12 13:59:16.344,528.261,11.483
445,VTGS,VCC-A,44428,2019-12-12 14:23:26.441,2019-12-12 14:33:24.781,598.34,22.951
446,ODUGS,VCC-A,44428,2019-12-12 14:23:43.848,2019-12-12 14:34:10.964,627.116,36.533
447,UVAGS,VCC-A,44428,2019-12-12 14:23:47.488,2019-12-12 14:33:55.645,608.157,25.392
448,VTGS,VCC-B,44431,2019-12-12 14:26:14.142,2019-12-12 14:36:17.253,603.111,24.525
449,ODUGS,VCC-B,44431,2019-12-12 14:26:32.827,2019-12-12 14:37:02.744,629.917,39.342
450,UVAGS,VCC-B,44431,2019-12-12 14:26:35.535,2019-12-12 14:36:47.890,612.355,27.125
451,VTGS,VCC-C,44430,2019-12-12 15:25:08.501,2019-12-12 15:35:48.220,639.719,66.809
452,UVAGS,VCC-C,44430,2019-12-12 15:25:34.723,2019-12-12 15:36:16.637,641.914,62.389
453,ODUGS,VCC-C,44430,2019-12-12 15:25:49.905,2019-12-12 15:36:24.532,634.627,41.446
454,VTGS,VCC-A,44428,2019-12-12 15:59:36.272,2019-12-12 16:09:59.985,623.713,31.275
455,UVAGS,VCC-A,44428,2019-12-12 16:00:03.358,2019-12-12 16:10:28.857,625.499,30.511
456,ODUGS,VCC-A,44428,2019-12-12 16:00:27.427,2019-12-12 16:10:34.516,607.089,22.263
457,VTGS,VCC-B,44431,2019-12-12 16:02:29.205,2019-12-12 16:12:50.623,621.418,29.709
458,UVAGS,VCC-B,44431,2019-12-12 16:02:56.307,2019-12-12 16:13:19.576,623.269,29.072
459,ODUGS,VCC-B,44431,2019-12-12 16:03:21.099,2019-12-12 16:13:25.090,603.991,21.321
460,VTGS,VCC-C,44430,2019-12-12 17:02:52.450,2019-12-12 17:11:59.160,546.71,12.438
461,UVAGS,VCC-C,44430,2019-12-12 17:03:17.155,2019-12-12 17:12:31.529,554.374,12.911
462,VTGS,VCC-C,44430,2019-12-12 20:18:25.042,2019-12-12 20:27:23.696,538.654,11.604
463,UVAGS,VCC-C,44430,2019-12-12 20:18:29.954,2019-12-12 20:27:56.872,566.918,14.341
464,ODUGS,VCC-C,44430,2019-12-12 20:19:07.718,2019-12-12 20:28:27.484,559.766,13.481
465,VTGS,VCC-A,44428,2019-12-12 20:52:42.520,2019-12-12 21:02:28.639,586.119,17.603
466,UVAGS,VCC-A,44428,2019-12-12 20:52:48.010,2019-12-12 21:02:55.679,607.669,22.05
467,ODUGS,VCC-A,44428,2019-12-12 20:53:23.237,2019-12-12 21:03:28.955,605.718,21.518
468,VTGS,VCC-B,44431,2019-12-12 20:55:33.350,2019-12-12 21:05:23.115,589.765,18.299
469,UVAGS,VCC-B,44431,2019-12-12 20:55:38.927,2019-12-12 21:05:49.617,610.69,22.976
470,ODUGS,VCC-B,44431,2019-12-12 20:56:13.989,2019-12-12 21:06:23.021,609.032,22.486
471,VTGS,VCC-C,44430,2019-12-12 21:54:35.864,2019-12-12 22:05:15.240,639.376,56.67
472,UVAGS,VCC-C,44430,2019-12-12 21:54:44.430,2019-12-12 22:05:29.091,644.661,79.28
473,ODUGS,VCC-C,44430,2019-12-12 21:55:17.850,2019-12-12 22:06:02.517,644.667,83.357
474,VTGS,VCC-A,44428,2019-12-12 22:28:59.771,2019-12-12 22:39:39.271,639.5,59.654
475,UVAGS,VCC-A,44428,2019-12-12 22:29:11.189,2019-12-12 22:39:45.391,634.202,42.543
476,ODUGS,VCC-A,44428,2019-12-12 22:29:45.428,2019-12-12 22:40:16.805,631.377,39.078
477,VTGS,VCC-B,44431,2019-12-12 22:31:51.523,2019-12-12 22:42:29.723,638.2,55.118
478,UVAGS,VCC-B,44431,2019-12-12 22:32:03.239,2019-12-12 22:42:35.159,631.92,39.55
479,ODUGS,VCC-B,44431,2019-12-12 22:32:37.607,2019-12-12 22:43:06.339,628.732,36.307
480,VTGS,VCC-C,44430,2019-12-12 23:31:34.203,2019-12-12 23:40:26.831,532.628,12.042
481,VTGS,VCC-A,44428,2019-12-13 13:32:08.754,2019-12-13 13:40:55.026,526.272,11.481
482,ODUGS,VCC-A,44428,2019-12-13 13:32:10.412,2019-12-13 13:41:51.164,580.752,18.061
483,UVAGS,VCC-A,44428,2019-12-13 13:32:25.090,2019-12-13 13:41:29.481,544.391,12.948
484,VTGS,VCC-B,44431,2019-12-13 13:34:55.193,2019-12-13 13:43:50.681,535.488,12.334
485,ODUGS,VCC-B,44431,2019-12-13 13:34:58.660,2019-12-13 13:44:45.560,586.9,19.302
486,UVAGS,VCC-B,44431,2019-12-13 13:35:12.112,2019-12-13 13:44:24.665,552.553,13.861
487,VTGS,VCC-C,44430,2019-12-13 14:32:32.211,2019-12-13 14:43:07.172,634.961,55.813
488,UVAGS,VCC-C,44430,2019-12-13 14:32:56.667,2019-12-13 14:43:36.081,639.414,61.634
489,ODUGS,VCC-C,44430,2019-12-13 14:33:03.634,2019-12-13 14:43:46.729,643.095,86.817
490,VTGS,VCC-A,44428,2019-12-13 15:07:18.134,2019-12-13 15:17:58.209,640.075,59.316
491,UVAGS,VCC-A,44428,2019-12-13 15:07:44.562,2019-12-13 15:18:26.637,642.075,55.709
492,ODUGS,VCC-A,44428,2019-12-13 15:08:00.989,2019-12-13 15:18:34.187,633.198,37.559
493,VTGS,VCC-B,44431,2019-12-13 15:10:11.260,2019-12-13 15:20:50.463,639.203,55.233
494,UVAGS,VCC-B,44431,2019-12-13 15:10:37.792,2019-12-13 15:21:18.907,641.115,52.074
495,ODUGS,VCC-B,44431,2019-12-13 15:10:54.977,2019-12-13 15:21:26.242,631.265,35.425
496,VTGS,VCC-C,44430,2019-12-13 16:09:36.890,2019-12-13 16:19:22.706,585.816,17.998
497,UVAGS,VCC-C,44430,2019-12-13 16:10:03.423,2019-12-13 16:19:53.026,589.603,18.152
498,ODUGS,VCC-C,44430,2019-12-13 16:10:36.180,2019-12-13 16:19:57.171,560.991,13.715
499,VTGS,VCC-A,44428,2019-12-13 16:45:09.690,2019-12-13 16:54:11.658,541.968,11.863
500,UVAGS,VCC-A,44428,2019-12-13 16:45:33.994,2019-12-13 16:54:44.421,550.427,12.376
501,VTGS,VCC-B,44431,2019-12-13 16:48:06.009,2019-12-13 16:57:04.156,538.147,11.504
502,UVAGS,VCC-B,44431,2019-12-13 16:48:30.050,2019-12-13 16:57:37.156,547.106,12.04
503,UVAGS,VCC-C,44430,2019-12-13 19:25:48.632,2019-12-13 19:34:39.822,531.19,10.691
504,VTGS,VCC-A,44428,2019-12-13 20:00:40.503,2019-12-13 20:09:47.670,547.167,12.308
505,UVAGS,VCC-A,44428,2019-12-13 20:00:45.474,2019-12-13 20:10:20.017,574.543,15.214
506,ODUGS,VCC-A,44428,2019-12-13 20:01:22.813,2019-12-13 20:10:51.152,568.339,14.388
507,VTGS,VCC-B,44431,2019-12-13 20:03:32.999,2019-12-13 20:12:44.246,551.247,12.717
508,UVAGS,VCC-B,44431,2019-12-13 20:03:37.991,2019-12-13 20:13:16.099,578.108,15.729
509,ODUGS,VCC-B,44431,2019-12-13 20:04:15.089,2019-12-13 20:13:47.517,572.428,14.925
510,VTGS,VCC-C,44430,2019-12-13 21:01:59.541,2019-12-13 21:12:20.734,621.193,29.907
511,UVAGS,VCC-C,44430,2019-12-13 21:02:06.354,2019-12-13 21:12:40.880,634.526,39.489
512,ODUGS,VCC-C,44430,2019-12-13 21:02:40.105,2019-12-13 21:13:14.912,634.807,40.035
513,VTGS,VCC-A,44428,2019-12-13 21:36:53.679,2019-12-13 21:47:36.098,642.419,64.186
514,UVAGS,VCC-A,44428,2019-12-13 21:37:02.592,2019-12-13 21:47:48.895,646.303,88.837
515,ODUGS,VCC-A,44428,2019-12-13 21:37:36.058,2019-12-13 21:48:22.131,646.073,86.504
516,VTGS,VCC-B,44431,2019-12-13 21:39:46.320,2019-12-13 21:50:29.469,643.149,69.065
517,UVAGS,VCC-B,44431,2019-12-13 21:39:55.441,2019-12-13 21:50:41.632,646.191,85.318
518,ODUGS,VCC-B,44431,2019-12-13 21:40:28.940,2019-12-13 21:51:14.742,645.802,80.532
519,VTGS,VCC-C,44430,2019-12-13 22:38:30.360,2019-12-13 22:48:32.772,602.412,24.293
520,UVAGS,VCC-C,44430,2019-12-13 22:38:46.370,2019-12-13 22:48:29.677,583.307,18.558
521,ODUGS,VCC-C,44430,2019-12-13 22:39:23.220,2019-12-13 22:48:57.263,574.043,16.851
522,VTGS,VCC-A,44428,2019-12-13 23:14:00.493,2019-12-13 23:22:38.613,518.12,10.694
523,VTGS,VCC-C,44430,2019-12-14 13:40:12.530,2019-12-14 13:50:17.319,604.789,25.726
524,ODUGS,VCC-C,44430,2019-12-14 13:40:32.164,2019-12-14 13:51:02.287,630.123,41.592
525,UVAGS,VCC-C,44430,2019-12-14 13:40:34.172,2019-12-14 13:50:47.775,613.603,28.456
526,VTGS,VCC-A,44428,2019-12-14 14:15:12.983,2019-12-14 14:25:51.895,638.912,64.815
527,UVAGS,VCC-A,44428,2019-12-14 14:15:37.829,2019-12-14 14:26:20.665,642.836,71.162
528,ODUGS,VCC-A,44428,2019-12-14 14:15:46.289,2019-12-14 14:26:30.762,644.473,76.147
529,VTGS,VCC-B,44431,2019-12-14 14:18:06.143,2019-12-14 14:28:46.118,639.975,70.184
530,UVAGS,VCC-B,44431,2019-12-14 14:18:31.184,2019-12-14 14:29:14.815,643.631,76.712
531,ODUGS,VCC-B,44431,2019-12-14 14:18:40.449,2019-12-14 14:29:24.626,644.177,70.704
532,VTGS,VCC-C,44430,2019-12-14 15:16:28.925,2019-12-14 15:26:46.552,617.627,28.466
533,UVAGS,VCC-C,44430,2019-12-14 15:16:56.024,2019-12-14 15:27:15.550,619.526,27.918
534,ODUGS,VCC-C,44430,2019-12-14 15:17:21.388,2019-12-14 15:27:20.914,599.526,20.532
535,VTGS,VCC-A,44428,2019-12-14 15:52:27.558,2019-12-14 16:02:08.422,580.864,16.841
536,UVAGS,VCC-A,44428,2019-12-14 15:52:53.874,2019-12-14 16:02:39.065,585.191,17.066
537,ODUGS,VCC-A,44428,2019-12-14 15:53:27.854,2019-12-14 16:02:43.114,555.26,12.925
538,VTGS,VCC-B,44431,2019-12-14 15:55:24.834,2019-12-14 16:05:02.095,577.261,16.225
539,UVAGS,VCC-B,44431,2019-12-14 15:55:51.011,2019-12-14 16:05:32.919,581.908,16.486
540,ODUGS,VCC-B,44431,2019-12-14 15:56:25.656,2019-12-14 16:05:36.907,551.251,12.494
541,UVAGS,VCC-A,44428,2019-12-14 19:08:38.810,2019-12-14 19:17:38.086,539.276,11.281
542,ODUGS,VCC-A,44428,2019-12-14 19:09:19.009,2019-12-14 19:18:05.557,526.548,10.255
543,UVAGS,VCC-B,44431,2019-12-14 19:11:33.269,2019-12-14 19:20:36.073,542.804,11.589
544,ODUGS,VCC-B,44431,2019-12-14 19:12:13.155,2019-12-14 19:21:03.976,530.821,10.582
545,VTGS,VCC-C,44430,2019-12-14 20:09:23.322,2019-12-14 20:19:13.226,589.904,18.702
546,UVAGS,VCC-C,44430,2019-12-14 20:09:28.928,2019-12-14 20:19:39.353,610.425,23.541
547,ODUGS,VCC-C,44430,2019-12-14 20:10:03.865,2019-12-14 20:20:12.821,608.956,23.084
548,VTGS,VCC-A,44428,2019-12-14 20:44:50.706,2019-12-14 20:55:17.994,627.288,33.191
549,UVAGS,VCC-A,44428,2019-12-14 20:44:57.813,2019-12-14 20:55:37.011,639.198,44.379
550,ODUGS,VCC-A,44428,2019-12-14 20:45:31.448,2019-12-14 20:56:11.038,639.59,45.318
551,VTGS,VCC-B,44431,2019-12-14 20:47:44.582,2019-12-14 20:58:14.168,629.586,35.115
552,UVAGS,VCC-B,44431,2019-12-14 20:47:51.844,2019-12-14 20:58:32.591,640.747,47.298
553,ODUGS,VCC-B,44431,2019-12-14 20:48:25.424,2019-12-14 20:59:06.585,641.161,48.494
554,VTGS,VCC-C,44430,2019-12-14 21:45:39.388,2019-12-14 21:56:14.229,634.841,51.99
555,UVAGS,VCC-C,44430,2019-12-14 21:45:51.321,2019-12-14 21:56:19.163,627.842,37.434
556,ODUGS,VCC-C,44430,2019-12-14 21:46:25.781,2019-12-14 21:56:50.146,624.365,34.343
557,VTGS,VCC-A,44428,2019-12-14 22:21:27.732,2019-12-14 22:31:22.388,594.656,21.491
558,UVAGS,VCC-A,44428,2019-12-14 22:21:44.700,2019-12-14 22:31:17.635,572.935,16.473
559,ODUGS,VCC-A,44428,2019-12-14 22:22:22.223,2019-12-14 22:31:44.417,562.194,14.897
560,VTGS,VCC-B,44431,2019-12-14 22:24:23.937,2019-12-14 22:34:13.206,589.269,20.113
561,UVAGS,VCC-B,44431,2019-12-14 22:24:41.469,2019-12-14 22:34:07.525,566.056,15.423
562,ODUGS,VCC-B,44431,2019-12-14 22:25:19.382,2019-12-14 22:34:33.829,554.447,13.909
563,VTGS,VCC-C,44430,2019-12-15 12:48:14.553,2019-12-15 12:57:12.966,538.413,12.746
564,ODUGS,VCC-C,44430,2019-12-15 12:48:18.926,2019-12-15 12:58:07.220,588.294,19.926
565,UVAGS,VCC-C,44430,2019-12-15 12:48:31.755,2019-12-15 12:57:46.704,554.949,14.302
566,VTGS,VCC-A,44428,2019-12-15 13:23:23.437,2019-12-15 13:33:38.042,614.605,29.711
567,ODUGS,VCC-A,44428,2019-12-15 13:23:45.595,2019-12-15 13:34:21.726,636.131,48.914
568,UVAGS,VCC-A,44428,2019-12-15 13:23:45.736,2019-12-15 13:34:08.096,622.36,32.864
569,VTGS,VCC-B,44431,2019-12-15 13:26:16.401,2019-12-15 13:36:34.681,618.28,31.914
570,UVAGS,VCC-B,44431,2019-12-15 13:26:39.002,2019-12-15 13:37:04.558,625.556,35.311
571,ODUGS,VCC-B,44431,2019-12-15 13:26:39.760,2019-12-15 13:37:17.770,638.01,53.058
572,VTGS,VCC-C,44430,2019-12-15 14:23:31.460,2019-12-15 14:34:08.282,636.822,53.063
573,UVAGS,VCC-C,44430,2019-12-15 14:23:58.036,2019-12-15 14:34:36.717,638.681,50.122
574,ODUGS,VCC-C,44430,2019-12-15 14:24:15.639,2019-12-15 14:34:43.920,628.281,34.223
575,VTGS,VCC-A,44428,2019-12-15 14:59:52.381,2019-12-15 15:10:06.148,613.767,25.852
576,UVAGS,VCC-A,44428,2019-12-15 15:00:19.470,2019-12-15 15:10:35.363,615.893,25.504
577,ODUGS,VCC-A,44428,2019-12-15 15:00:46.309,2019-12-15 15:10:40.467,594.158,18.926
578,VTGS,VCC-B,44431,2019-12-15 15:02:50.370,2019-12-15 15:13:01.328,610.958,24.659
579,UVAGS,VCC-B,44431,2019-12-15 15:03:17.432,2019-12-15 15:13:30.655,613.223,24.396
580,ODUGS,VCC-B,44431,2019-12-15 15:03:44.993,2019-12-15 15:13:35.627,590.634,18.166
581,VTGS,VCC-C,44430,2019-12-15 16:01:25.296,2019-12-15 16:10:19.162,533.866,11.241
582,UVAGS,VCC-C,44430,2019-12-15 16:01:49.179,2019-12-15 16:10:52.278,543.099,11.787
583,VTGS,VCC-C,44430,2019-12-15 19:16:44.813,2019-12-15 19:25:55.531,550.718,12.826
584,UVAGS,VCC-C,44430,2019-12-15 19:16:49.777,2019-12-15 19:26:27.176,577.399,15.881
585,ODUGS,VCC-C,44430,2019-12-15 19:17:26.751,2019-12-15 19:26:58.687,571.936,15.091
586,VTGS,VCC-A,44428,2019-12-15 19:52:48.456,2019-12-15 20:02:47.187,598.731,20.452
587,UVAGS,VCC-A,44428,2019-12-15 19:52:54.288,2019-12-15 20:03:12.125,617.837,25.897
588,ODUGS,VCC-A,44428,2019-12-15 19:53:28.929,2019-12-15 20:03:45.831,616.902,25.551
589,VTGS,VCC-B,44431,2019-12-15 19:55:43.885,2019-12-15 20:05:46.058,602.173,21.352
590,UVAGS,VCC-B,44431,2019-12-15 19:55:49.821,2019-12-15 20:06:10.424,620.603,27.134
591,ODUGS,VCC-B,44431,2019-12-15 19:56:24.324,2019-12-15 20:06:44.217,619.893,26.853
592,VTGS,VCC-C,44430,2019-12-15 20:52:55.347,2019-12-15 21:03:36.511,641.164,71.404
593,UVAGS,VCC-C,44430,2019-12-15 20:53:04.565,2019-12-15 21:03:48.371,643.806,82.558
594,ODUGS,VCC-C,44430,2019-12-15 20:53:38.068,2019-12-15 21:04:21.392,643.324,77.672
595,VTGS,VCC-A,44428,2019-12-15 21:29:09.088,2019-12-15 21:39:41.426,632.338,44.201
596,UVAGS,VCC-A,44428,2019-12-15 21:29:21.699,2019-12-15 21:39:44.870,623.171,32.356
597,ODUGS,VCC-A,44428,2019-12-15 21:29:56.512,2019-12-15 21:40:15.321,618.809,29.659
598,VTGS,VCC-B,44431,2019-12-15 21:32:05.799,2019-12-15 21:42:35.868,630.069,40.907
599,UVAGS,VCC-B,44431,2019-12-15 21:32:18.761,2019-12-15 21:42:38.570,619.809,30.17
600,ODUGS,VCC-B,44431,2019-12-15 21:32:53.763,2019-12-15 21:43:08.731,614.968,27.641
601,VTGS,VCC-A,44428,2019-12-16 12:31:53.700,2019-12-16 12:41:11.886,558.186,14.947
602,ODUGS,VCC-A,44428,2019-12-16 12:32:01.858,2019-12-16 12:42:03.629,601.771,23.239
603,UVAGS,VCC-A,44428,2019-12-16 12:32:12.076,2019-12-16 12:41:44.705,572.629,16.668
604,VTGS,VCC-B,44431,2019-12-16 12:34:45.967,2019-12-16 12:44:11.667,565.7,16.016
605,ODUGS,VCC-B,44431,2019-12-16 12:34:55.730,2019-12-16 12:45:02.382,606.652,24.908
606,UVAGS,VCC-B,44431,2019-12-16 12:35:04.826,2019-12-16 12:44:44.115,579.289,17.823
607,VTGS,VCC-C,44430,2019-12-16 13:30:46.942,2019-12-16 13:41:25.429,638.487,71.833
608,UVAGS,VCC-C,44430,2019-12-16 13:31:12.036,2019-12-16 13:41:54.087,642.051,78.424
609,ODUGS,VCC-C,44430,2019-12-16 13:31:21.552,2019-12-16 13:42:03.802,642.25,68.996
610,VTGS,VCC-A,44428,2019-12-16 14:07:27.030,2019-12-16 14:18:02.539,635.509,45.654
611,UVAGS,VCC-A,44428,2019-12-16 14:07:53.816,2019-12-16 14:18:31.042,637.226,43.522
612,ODUGS,VCC-A,44428,2019-12-16 14:08:13.111,2019-12-16 14:18:37.820,624.709,30.35
613,VTGS,VCC-B,44431,2019-12-16 14:10:25.547,2019-12-16 14:20:59.544,633.997,42.74
614,UVAGS,VCC-B,44431,2019-12-16 14:10:52.409,2019-12-16 14:21:28.087,635.678,40.91
615,ODUGS,VCC-B,44431,2019-12-16 14:11:12.465,2019-12-16 14:21:34.672,622.207,28.776
616,VTGS,VCC-C,44430,2019-12-16 15:08:04.255,2019-12-16 15:17:38.355,574.1,15.956
617,UVAGS,VCC-C,44430,2019-12-16 15:08:30.376,2019-12-16 15:18:09.215,578.839,16.225
618,ODUGS,VCC-C,44430,2019-12-16 15:09:05.260,2019-12-16 15:18:13.119,547.859,12.287
619,VTGS,VCC-A,44428,2019-12-16 15:45:29.749,2019-12-16 15:54:16.615,526.866,10.569
620,UVAGS,VCC-A,44428,2019-12-16 15:45:52.980,2019-12-16 15:54:50.307,537.327,11.164
621,VTGS,VCC-B,44431,2019-12-16 15:48:31.183,2019-12-16 15:57:14.186,523.003,10.263
622,UVAGS,VCC-B,44431,2019-12-16 15:48:54.096,2019-12-16 15:57:48.147,534.051,10.881
623,UVAGS,VCC-C,44430,2019-12-16 18:24:06.458,2019-12-16 18:33:07.680,541.222,11.581
624,ODUGS,VCC-C,44430,2019-12-16 18:24:46.275,2019-12-16 18:33:35.647,529.372,10.581
625,VTGS,VCC-A,44428,2019-12-16 19:00:44.699,2019-12-16 19:10:06.206,561.507,13.926
626,UVAGS,VCC-A,44428,2019-12-16 19:00:49.778,2019-12-16 19:10:36.673,586.895,17.268
627,ODUGS,VCC-A,44428,2019-12-16 19:01:26.242,2019-12-16 19:11:08.767,582.525,16.531
628,VTGS,VCC-B,44431,2019-12-16 19:03:41.989,2019-12-16 19:13:07.609,565.62,14.434
629,UVAGS,VCC-B,44431,2019-12-16 19:03:47.124,2019-12-16 19:13:37.546,590.422,17.918
630,ODUGS,VCC-B,44431,2019-12-16 19:04:23.364,2019-12-16 19:14:09.872,586.508,17.208
631,VTGS,VCC-C,44430,2019-12-16 20:00:14.754,2019-12-16 20:10:42.607,627.853,35.456
632,UVAGS,VCC-C,44430,2019-12-16 20:00:22.036,2019-12-16 20:11:00.888,638.852,47.899
633,ODUGS,VCC-C,44430,2019-12-16 20:00:55.588,2019-12-16 20:11:34.853,639.265,49.165
634,VTGS,VCC-A,44428,2019-12-16 20:36:58.199,2019-12-16 20:47:41.497,643.298,84.273
635,UVAGS,VCC-A,44428,2019-12-16 20:37:07.938,2019-12-16 20:47:51.890,643.952,69.783
636,ODUGS,VCC-A,44428,2019-12-16 20:37:41.565,2019-12-16 20:48:24.574,643.009,64.925
637,VTGS,VCC-B,44431,2019-12-16 20:39:55.952,2019-12-16 20:50:39.283,643.331,89.389
638,UVAGS,VCC-B,44431,2019-12-16 20:40:05.938,2019-12-16 20:50:49.015,643.077,64.483
639,ODUGS,VCC-B,44431,2019-12-16 20:40:39.633,2019-12-16 20:51:21.522,641.889,59.771
640,VTGS,VCC-C,44430,2019-12-16 21:36:51.994,2019-12-16 21:46:37.556,585.562,19.679
641,UVAGS,VCC-C,44430,2019-12-16 21:37:09.700,2019-12-16 21:46:31.611,561.911,15.077
642,ODUGS,VCC-C,44430,2019-12-16 21:37:47.712,2019-12-16 21:46:57.767,550.055,13.582
643,ODUGS,VCC-A,44428,2019-12-17 11:40:40.436,2019-12-17 11:49:30.497,530.061,11.564
644,ODUGS,VCC-B,44431,2019-12-17 11:43:33.322,2019-12-17 11:52:32.892,539.57,12.461
645,VTGS,VCC-C,44430,2019-12-17 12:38:18.089,2019-12-17 12:48:34.905,616.816,31.987
646,UVAGS,VCC-C,44430,2019-12-17 12:38:40.706,2019-12-17 12:49:04.754,624.048,35.4
647,ODUGS,VCC-C,44430,2019-12-17 12:38:41.529,2019-12-17 12:49:17.941,636.412,53.302
648,VTGS,VCC-A,44428,2019-12-17 13:15:13.861,2019-12-17 13:25:55.305,641.444,86.159
649,UVAGS,VCC-A,44428,2019-12-17 13:15:39.399,2019-12-17 13:26:23.845,644.446,87.357
650,ODUGS,VCC-A,44428,2019-12-17 13:15:50.849,2019-12-17 13:26:32.907,642.058,57.647
651,VTGS,VCC-B,44431,2019-12-17 13:18:12.751,2019-12-17 13:28:54.475,641.724,87.61
652,UVAGS,VCC-B,44431,2019-12-17 13:18:38.455,2019-12-17 13:29:22.976,644.521,81.499
653,ODUGS,VCC-B,44431,2019-12-17 13:18:50.712,2019-12-17 13:29:31.772,641.06,53.517
654,VTGS,VCC-C,44430,2019-12-17 14:14:49.785,2019-12-17 14:24:58.626,608.841,24.464
655,UVAGS,VCC-C,44430,2019-12-17 14:15:16.843,2019-12-17 14:25:27.937,611.094,24.207
656,ODUGS,VCC-C,44430,2019-12-17 14:15:44.485,2019-12-17 14:25:32.858,588.373,18.017
657,VTGS,VCC-A,44428,2019-12-17 14:52:42.936,2019-12-17 15:02:09.494,566.558,14.676
658,UVAGS,VCC-A,44428,2019-12-17 14:53:08.663,2019-12-17 15:02:40.836,572.173,15.023
659,ODUGS,VCC-A,44428,2019-12-17 14:53:45.110,2019-12-17 15:02:44.674,539.564,11.393
660,VTGS,VCC-B,44431,2019-12-17 14:55:45.758,2019-12-17 15:05:08.422,562.664,14.159
661,UVAGS,VCC-B,44431,2019-12-17 14:56:11.292,2019-12-17 15:05:39.976,568.684,14.536
662,ODUGS,VCC-B,44431,2019-12-17 14:56:48.396,2019-12-17 15:05:43.780,535.384,11.025
