vcc_sched/network/output/VCC_Network_Passes_20191216_20200106_R0.csv

Network Pass #,GS Name,SC Name,SC NORAD ID,Start Time (UTCG),Stop Time (UTCG),Duration (sec),Max El (deg)
0,VCC-NET,VCC-C,44430,2019-12-16 18:24:24.040,2019-12-16 18:33:53.556,569.516,11.604
1,VCC-NET,VCC-A,44428,2019-12-16 19:01:05.831,2019-12-16 19:11:30.314,624.483,17.324
2,VCC-NET,VCC-B,44431,2019-12-16 19:03:48.504,2019-12-16 19:14:16.429,627.925,17.92
3,VCC-NET,VCC-C,44430,2019-12-16 20:00:32.432,2019-12-16 20:11:52.760,680.328,49.386
4,VCC-NET,VCC-A,44428,2019-12-16 20:37:19.519,2019-12-16 20:48:46.005,686.486,84.76
5,VCC-NET,VCC-B,44431,2019-12-16 20:40:02.506,2019-12-16 20:51:28.196,685.69,89.659
6,VCC-NET,VCC-C,44430,2019-12-16 21:37:09.958,2019-12-16 21:47:15.488,605.53,19.609
7,VCC-NET,VCC-A,44428,2019-12-17 11:41:03.197,2019-12-17 11:49:53.922,530.725,11.632
8,VCC-NET,VCC-B,44431,2019-12-17 11:43:40.723,2019-12-17 11:52:39.995,539.272,12.448
9,VCC-NET,VCC-C,44430,2019-12-17 12:38:37.484,2019-12-17 12:49:37.405,659.921,53.585
10,VCC-NET,VCC-A,44428,2019-12-17 13:15:37.304,2019-12-17 13:26:56.222,678.918,86.879
11,VCC-NET,VCC-B,44431,2019-12-17 13:18:20.182,2019-12-17 13:29:38.981,678.799,87.647
12,VCC-NET,VCC-C,44430,2019-12-17 14:15:09.660,2019-12-17 14:25:52.435,642.775,24.383
13,VCC-NET,VCC-A,44428,2019-12-17 14:53:06.887,2019-12-17 15:03:08.204,601.317,14.976
14,VCC-NET,VCC-B,44431,2019-12-17 14:55:53.224,2019-12-17 15:05:51.065,597.841,14.53
15,VCC-NET,VCC-A,44428,2019-12-17 18:09:00.921,2019-12-17 18:18:47.017,586.096,12.517
16,VCC-NET,VCC-B,44431,2019-12-17 18:11:44.004,2019-12-17 18:21:33.748,589.744,12.864
17,VCC-NET,VCC-C,44430,2019-12-17 19:07:55.038,2019-12-17 19:18:53.435,658.397,27.124
18,VCC-NET,VCC-A,44428,2019-12-17 19:45:15.513,2019-12-17 19:56:40.611,685.098,59.274
19,VCC-NET,VCC-B,44431,2019-12-17 19:47:58.166,2019-12-17 19:59:24.221,686.055,63.538
20,VCC-NET,VCC-C,44430,2019-12-17 20:44:14.430,2019-12-17 20:55:14.942,660.512,40.49
21,VCC-NET,VCC-A,44428,2019-12-17 21:22:01.775,2019-12-17 21:31:49.187,587.412,16.644
22,VCC-NET,VCC-B,44431,2019-12-17 21:24:47.011,2019-12-17 21:34:26.306,579.295,15.631
23,VCC-NET,VCC-C,44430,2019-12-18 11:46:30.732,2019-12-18 11:56:26.491,595.759,24.691
24,VCC-NET,VCC-A,44428,2019-12-18 12:23:41.415,2019-12-18 12:34:49.581,668.166,66.732
25,VCC-NET,VCC-B,44431,2019-12-18 12:26:22.765,2019-12-18 12:37:32.795,670.03,71.918
26,VCC-NET,VCC-C,44430,2019-12-18 13:22:07.341,2019-12-18 13:33:14.625,667.284,42.803
27,VCC-NET,VCC-A,44428,2019-12-18 14:00:28.622,2019-12-18 14:11:04.892,636.27,21.711
28,VCC-NET,VCC-B,44431,2019-12-18 14:03:14.225,2019-12-18 14:13:47.465,633.24,20.856
29,VCC-NET,VCC-C,44430,2019-12-18 15:00:10.325,2019-12-18 15:09:25.249,554.924,10.824
30,VCC-NET,VCC-C,44430,2019-12-18 18:15:16.231,2019-12-18 18:25:41.372,625.141,17.736
31,VCC-NET,VCC-A,44428,2019-12-18 18:53:13.240,2019-12-18 19:04:20.430,667.19,31.085
32,VCC-NET,VCC-B,44431,2019-12-18 18:55:55.774,2019-12-18 19:07:05.245,669.471,32.672
33,VCC-NET,VCC-C,44430,2019-12-18 19:51:27.422,2019-12-18 20:02:51.015,683.593,89.57
34,VCC-NET,VCC-A,44428,2019-12-18 20:29:38.800,2019-12-18 20:40:30.117,651.317,33.17
35,VCC-NET,VCC-B,44431,2019-12-18 20:32:22.744,2019-12-18 20:43:09.857,647.113,31.024
36,VCC-NET,VCC-C,44430,2019-12-19 10:54:42.136,2019-12-19 11:03:37.206,535.07,12.14
37,VCC-NET,VCC-A,44428,2019-12-19 11:32:03.578,2019-12-19 11:42:18.866,615.288,30.287
38,VCC-NET,VCC-B,44431,2019-12-19 11:34:42.999,2019-12-19 11:45:03.350,620.351,32.391
39,VCC-NET,VCC-C,44430,2019-12-19 12:29:17.367,2019-12-19 12:40:34.537,677.17,89.356
40,VCC-NET,VCC-A,44428,2019-12-19 13:07:59.338,2019-12-19 13:19:02.620,663.282,35.992
41,VCC-NET,VCC-B,44431,2019-12-19 13:10:43.935,2019-12-19 13:21:45.124,661.189,34.114
42,VCC-NET,VCC-C,44430,2019-12-19 14:06:46.813,2019-12-19 14:16:43.687,596.874,14.585
43,VCC-NET,VCC-A,44428,2019-12-19 14:46:34.114,2019-12-19 14:55:18.661,524.547,10.149
44,VCC-NET,VCC-C,44430,2019-12-19 17:22:33.450,2019-12-19 17:32:19.441,585.991,12.648
45,VCC-NET,VCC-A,44428,2019-12-19 18:01:10.461,2019-12-19 18:11:47.646,637.185,19.881
46,VCC-NET,VCC-B,44431,2019-12-19 18:03:53.067,2019-12-19 18:14:33.451,640.384,20.625
47,VCC-NET,VCC-C,44430,2019-12-19 18:58:44.918,2019-12-19 19:10:08.439,683.521,61.793
48,VCC-NET,VCC-A,44428,2019-12-19 19:37:25.630,2019-12-19 19:48:47.009,681.379,73.054
49,VCC-NET,VCC-B,44431,2019-12-19 19:40:08.823,2019-12-19 19:51:28.605,679.782,67.869
50,VCC-NET,VCC-C,44430,2019-12-19 20:35:30.192,2019-12-19 20:45:10.171,579.979,15.904
51,VCC-NET,VCC-A,44428,2019-12-20 10:40:46.927,2019-12-20 10:49:45.281,538.354,15.152
52,VCC-NET,VCC-B,44431,2019-12-20 10:43:25.497,2019-12-20 10:52:31.477,545.98,16.147
53,VCC-NET,VCC-C,44430,2019-12-20 11:36:42.288,2019-12-20 11:47:49.676,667.388,69.003
54,VCC-NET,VCC-A,44428,2019-12-20 12:15:41.510,2019-12-20 12:26:59.075,677.565,71.663
55,VCC-NET,VCC-B,44431,2019-12-20 12:18:24.892,2019-12-20 12:29:41.716,676.824,66.853
56,VCC-NET,VCC-C,44430,2019-12-20 13:13:28.834,2019-12-20 13:24:01.857,633.023,21.224
57,VCC-NET,VCC-A,44428,2019-12-20 13:53:24.447,2019-12-20 14:03:11.609,587.162,13.308
58,VCC-NET,VCC-B,44431,2019-12-20 13:56:10.987,2019-12-20 14:05:50.864,579.877,12.94
59,VCC-NET,VCC-A,44428,2019-12-20 17:09:04.831,2019-12-20 17:19:04.793,599.962,13.979
60,VCC-NET,VCC-B,44431,2019-12-20 17:11:47.739,2019-12-20 17:21:51.319,603.58,14.399
61,VCC-NET,VCC-C,44430,2019-12-20 18:06:04.117,2019-12-20 18:17:10.002,665.885,31.533
62,VCC-NET,VCC-A,44428,2019-12-20 18:45:17.948,2019-12-20 18:56:45.263,687.315,78.212
63,VCC-NET,VCC-B,44431,2019-12-20 18:48:00.697,2019-12-20 18:59:28.355,687.658,83.671
64,VCC-NET,VCC-C,44430,2019-12-20 19:42:27.512,2019-12-20 19:53:15.003,647.491,32.18
65,VCC-NET,VCC-A,44428,2019-12-20 20:22:15.286,2019-12-20 20:31:16.905,541.619,12.864
66,VCC-NET,VCC-B,44431,2019-12-20 20:25:01.241,2019-12-20 20:33:54.545,533.304,12.035
67,VCC-NET,VCC-C,44430,2019-12-21 10:44:25.635,2019-12-21 10:54:40.358,614.723,30.627
68,VCC-NET,VCC-A,44428,2019-12-21 11:23:37.456,2019-12-21 11:34:51.979,674.523,88.575
69,VCC-NET,VCC-B,44431,2019-12-21 11:26:19.390,2019-12-21 11:37:34.963,675.573,85.752
70,VCC-NET,VCC-C,44430,2019-12-21 12:20:19.852,2019-12-21 12:31:20.924,661.072,35.466
71,VCC-NET,VCC-A,44428,2019-12-21 13:00:41.121,2019-12-21 13:11:04.891,623.77,18.706
72,VCC-NET,VCC-B,44431,2019-12-21 13:03:27.020,2019-12-21 13:13:47.505,620.485,18.067
73,VCC-NET,VCC-C,44430,2019-12-21 13:58:52.455,2019-12-21 14:07:34.246,521.791,10.034
74,VCC-NET,VCC-A,44428,2019-12-21 16:16:59.170,2019-12-21 16:25:48.952,529.782,10.536
75,VCC-NET,VCC-B,44431,2019-12-21 16:19:42.535,2019-12-21 16:28:35.395,532.86,10.784
76,VCC-NET,VCC-C,44430,2019-12-21 17:13:22.620,2019-12-21 17:23:58.036,635.416,19.881
77,VCC-NET,VCC-A,44428,2019-12-21 17:53:12.895,2019-12-21 18:04:27.826,674.931,38.389
78,VCC-NET,VCC-B,44431,2019-12-21 17:55:55.427,2019-12-21 18:07:12.184,676.757,40.689
79,VCC-NET,VCC-C,44430,2019-12-21 18:49:35.078,2019-12-21 19:00:54.073,678.995,72.208
80,VCC-NET,VCC-A,44428,2019-12-21 19:29:44.485,2019-12-21 19:40:16.520,632.035,25.532
81,VCC-NET,VCC-B,44431,2019-12-21 19:32:28.802,2019-12-21 19:42:55.380,626.578,23.963
82,VCC-NET,VCC-C,44430,2019-12-22 09:52:30.790,2019-12-22 10:01:27.180,536.39,15.057
83,VCC-NET,VCC-A,44428,2019-12-22 10:31:50.050,2019-12-22 10:42:23.869,633.819,39.853
84,VCC-NET,VCC-B,44431,2019-12-22 10:34:30.212,2019-12-22 10:45:07.900,637.688,42.838
85,VCC-NET,VCC-C,44430,2019-12-22 11:27:22.546,2019-12-22 11:38:38.413,675.867,71.751
86,VCC-NET,VCC-A,44428,2019-12-22 12:08:05.728,2019-12-22 12:19:00.135,654.407,29.364
87,VCC-NET,VCC-B,44431,2019-12-22 12:10:50.692,2019-12-22 12:21:42.578,651.886,27.996
88,VCC-NET,VCC-C,44430,2019-12-22 13:05:02.757,2019-12-22 13:14:47.966,585.209,13.245
89,VCC-NET,VCC-C,44430,2019-12-22 16:20:37.933,2019-12-22 16:30:35.228,597.295,13.852
90,VCC-NET,VCC-A,44428,2019-12-22 17:01:08.149,2019-12-22 17:11:56.947,648.798,23.071
91,VCC-NET,VCC-B,44431,2019-12-22 17:03:50.665,2019-12-22 17:14:42.356,651.691,24.016
92,VCC-NET,VCC-C,44430,2019-12-22 17:56:48.185,2019-12-22 18:08:13.319,685.134,77.622
93,VCC-NET,VCC-A,44428,2019-12-22 18:37:25.912,2019-12-22 18:48:39.001,673.089,54.255
94,VCC-NET,VCC-B,44431,2019-12-22 18:40:09.295,2019-12-22 18:51:19.907,670.612,50.329
95,VCC-NET,VCC-C,44430,2019-12-22 19:33:42.594,2019-12-22 19:42:42.711,540.117,12.864
96,VCC-NET,VCC-A,44428,2019-12-23 09:40:24.301,2019-12-23 09:49:54.379,570.078,19.464
97,VCC-NET,VCC-B,44431,2019-12-23 09:43:02.052,2019-12-23 09:52:39.738,577.686,20.722
98,VCC-NET,VCC-C,44430,2019-12-23 10:34:39.385,2019-12-23 10:45:51.885,672.5,86.993
99,VCC-NET,VCC-A,44428,2019-12-23 11:15:40.971,2019-12-23 11:26:54.921,673.95,54.599
100,VCC-NET,VCC-B,44431,2019-12-23 11:18:24.773,2019-12-23 11:29:37.415,672.642,51.109
101,VCC-NET,VCC-C,44430,2019-12-23 12:11:39.267,2019-12-23 12:22:02.010,622.743,18.802
102,VCC-NET,VCC-A,44428,2019-12-23 12:53:35.896,2019-12-23 13:03:05.272,569.376,11.946
103,VCC-NET,VCC-B,44431,2019-12-23 12:56:22.525,2019-12-23 13:05:48.370,565.845,11.642
104,VCC-NET,VCC-C,44430,2019-12-23 15:27:52.645,2019-12-23 15:36:39.081,526.436,10.378
105,VCC-NET,VCC-A,44428,2019-12-23 16:09:01.433,2019-12-23 16:19:14.972,613.539,15.739
106,VCC-NET,VCC-B,44431,2019-12-23 16:11:44.141,2019-12-23 16:22:01.186,617.045,16.249
107,VCC-NET,VCC-C,44430,2019-12-23 17:04:03.772,2019-12-23 17:15:15.902,672.13,37.502
108,VCC-NET,VCC-A,44428,2019-12-23 17:45:14.175,2019-12-23 17:56:41.248,687.073,84.495
109,VCC-NET,VCC-B,44431,2019-12-23 17:47:56.992,2019-12-23 17:59:23.740,686.748,79.075
110,VCC-NET,VCC-C,44430,2019-12-23 18:40:32.027,2019-12-23 18:51:03.664,631.637,25.981
111,VCC-NET,VCC-B,44431,2019-12-24 08:51:48.430,2019-12-24 09:00:20.993,512.563,10.162
112,VCC-NET,VCC-C,44430,2019-12-24 09:42:13.486,2019-12-24 09:52:43.442,629.956,38.287
113,VCC-NET,VCC-A,44428,2019-12-24 10:23:29.163,2019-12-24 10:34:47.001,677.838,77.317
114,VCC-NET,VCC-B,44431,2019-12-24 10:26:11.576,2019-12-24 10:37:29.738,678.162,82.71
115,VCC-NET,VCC-C,44430,2019-12-24 11:18:23.889,2019-12-24 11:29:17.740,653.851,30.017
116,VCC-NET,VCC-A,44428,2019-12-24 12:00:47.995,2019-12-24 12:10:58.606,610.611,16.377
117,VCC-NET,VCC-B,44431,2019-12-24 12:03:34.093,2019-12-24 12:13:41.231,607.138,15.859
118,VCC-NET,VCC-A,44428,2019-12-24 15:16:55.347,2019-12-24 15:26:24.916,569.569,11.567
119,VCC-NET,VCC-B,44431,2019-12-24 15:19:38.445,2019-12-24 15:29:11.612,573.167,11.867
120,VCC-NET,VCC-C,44430,2019-12-24 16:11:19.355,2019-12-24 16:22:04.224,644.869,22.426
121,VCC-NET,VCC-A,44428,2019-12-24 16:53:06.028,2019-12-24 17:04:26.826,680.798,48.741
122,VCC-NET,VCC-B,44431,2019-12-24 16:55:48.532,2019-12-24 17:07:10.638,682.106,52.041
123,VCC-NET,VCC-C,44430,2019-12-24 17:47:33.798,2019-12-24 17:58:46.121,672.323,56.619
124,VCC-NET,VCC-A,44428,2019-12-24 18:29:45.138,2019-12-24 18:39:52.935,607.797,19.908
125,VCC-NET,VCC-B,44431,2019-12-24 18:32:29.853,2019-12-24 18:42:30.733,600.88,18.706
126,VCC-NET,VCC-C,44430,2019-12-25 08:50:10.408,2019-12-25 08:59:32.465,562.057,18.466
127,VCC-NET,VCC-A,44428,2019-12-25 09:31:32.867,2019-12-25 09:42:33.876,661.009,53.341
128,VCC-NET,VCC-B,44431,2019-12-25 09:34:13.623,2019-12-25 09:45:17.105,663.482,57.566
129,VCC-NET,VCC-C,44430,2019-12-25 10:25:19.496,2019-12-25 10:36:32.581,673.085,57.422
130,VCC-NET,VCC-A,44428,2019-12-25 11:08:06.877,2019-12-25 11:18:51.048,644.171,24.528
131,VCC-NET,VCC-B,44431,2019-12-25 11:10:52.112,2019-12-25 11:21:33.412,641.3,23.493
132,VCC-NET,VCC-C,44430,2019-12-25 12:03:09.470,2019-12-25 12:12:39.539,570.069,12.12
133,VCC-NET,VCC-C,44430,2019-12-25 15:18:32.495,2019-12-25 15:28:40.802,608.307,15.239
134,VCC-NET,VCC-A,44428,2019-12-25 16:00:59.010,2019-12-25 16:11:58.122,659.112,27.132
135,VCC-NET,VCC-B,44431,2019-12-25 16:03:41.402,2019-12-25 16:14:43.049,661.647,28.364
136,VCC-NET,VCC-C,44430,2019-12-25 16:54:42.270,2019-12-25 17:06:07.379,685.109,89.041
137,VCC-NET,VCC-A,44428,2019-12-25 17:37:20.488,2019-12-25 17:48:21.858,661.37,40.608
138,VCC-NET,VCC-B,44431,2019-12-25 17:40:04.055,2019-12-25 17:51:01.967,657.912,37.837
139,VCC-NET,VCC-C,44430,2019-12-25 18:31:47.460,2019-12-25 18:40:18.464,511.004,10.303
140,VCC-NET,VCC-A,44428,2019-12-26 08:39:56.040,2019-12-26 08:49:53.986,597.946,24.946
141,VCC-NET,VCC-B,44431,2019-12-26 08:42:34.663,2019-12-26 08:52:38.633,603.97,26.602
142,VCC-NET,VCC-C,44430,2019-12-26 09:32:28.573,2019-12-26 09:43:44.125,675.552,75.234
143,VCC-NET,VCC-A,44428,2019-12-26 10:15:35.511,2019-12-26 10:26:43.874,668.363,42.594
144,VCC-NET,VCC-B,44431,2019-12-26 10:18:19.636,2019-12-26 10:29:26.189,666.553,40.155
145,VCC-NET,VCC-C,44430,2019-12-26 11:09:40.800,2019-12-26 11:19:52.933,612.133,16.854
146,VCC-NET,VCC-A,44428,2019-12-26 11:53:41.000,2019-12-26 12:02:56.724,555.724,10.833
147,VCC-NET,VCC-B,44431,2019-12-26 11:56:50.198,2019-12-26 12:05:39.879,529.681,10.581
148,VCC-NET,VCC-C,44430,2019-12-26 14:25:45.582,2019-12-26 14:35:08.943,563.361,11.179
149,VCC-NET,VCC-A,44428,2019-12-26 15:08:50.854,2019-12-26 15:19:17.396,626.542,17.87
150,VCC-NET,VCC-B,44431,2019-12-26 15:11:33.353,2019-12-26 15:22:03.199,629.846,18.495
151,VCC-NET,VCC-C,44430,2019-12-26 16:01:54.030,2019-12-26 16:13:11.136,677.106,45.319
152,VCC-NET,VCC-A,44428,2019-12-26 16:45:04.289,2019-12-26 16:56:28.502,684.213,89.455
153,VCC-NET,VCC-B,44431,2019-12-26 16:47:47.154,2019-12-26 16:59:10.307,683.153,83.853
154,VCC-NET,VCC-C,44430,2019-12-26 17:38:28.069,2019-12-26 17:48:40.793,612.724,21.209
155,VCC-NET,VCC-A,44428,2019-12-27 07:48:37.219,2019-12-27 07:57:36.461,539.242,12.45
156,VCC-NET,VCC-B,44431,2019-12-27 07:51:14.820,2019-12-27 08:00:22.075,547.255,13.302
157,VCC-NET,VCC-C,44430,2019-12-27 08:39:53.937,2019-12-27 08:50:35.970,642.033,48.318
158,VCC-NET,VCC-A,44428,2019-12-27 09:23:16.311,2019-12-27 09:34:34.791,678.48,87.641
159,VCC-NET,VCC-B,44431,2019-12-27 09:25:59.108,2019-12-27 09:37:17.258,678.15,82.097
160,VCC-NET,VCC-C,44430,2019-12-27 10:16:19.300,2019-12-27 10:27:05.111,645.811,25.856
161,VCC-NET,VCC-A,44428,2019-12-27 11:00:49.047,2019-12-27 11:10:46.141,597.094,14.499
162,VCC-NET,VCC-B,44431,2019-12-27 11:03:35.238,2019-12-27 11:13:28.765,593.527,14.072
163,VCC-NET,VCC-A,44428,2019-12-27 14:16:39.151,2019-12-27 14:26:27.369,588.218,12.804
164,VCC-NET,VCC-B,44431,2019-12-27 14:19:21.974,2019-12-27 14:29:13.764,591.79,13.164
165,VCC-NET,VCC-C,44430,2019-12-27 15:09:06.482,2019-12-27 15:19:59.892,653.41,25.484
166,VCC-NET,VCC-A,44428,2019-12-27 15:52:52.733,2019-12-27 16:04:17.356,684.623,63.399
167,VCC-NET,VCC-B,44431,2019-12-27 15:55:35.180,2019-12-27 16:07:00.548,685.368,68.003
168,VCC-NET,VCC-C,44430,2019-12-27 16:45:23.629,2019-12-27 16:56:27.143,663.514,44.632
169,VCC-NET,VCC-A,44428,2019-12-27 17:29:41.090,2019-12-27 17:39:18.863,577.773,15.573
170,VCC-NET,VCC-B,44431,2019-12-27 17:32:26.258,2019-12-27 17:41:31.744,545.486,14.612
171,VCC-NET,VCC-C,44430,2019-12-28 07:47:40.166,2019-12-28 07:57:26.219,586.053,22.537
172,VCC-NET,VCC-A,44428,2019-12-28 08:31:11.660,2019-12-28 08:42:21.453,669.793,71.696
173,VCC-NET,VCC-B,44431,2019-12-28 08:33:52.888,2019-12-28 08:45:04.297,671.409,77.121
174,VCC-NET,VCC-C,44430,2019-12-28 09:23:08.080,2019-12-28 09:34:17.106,669.026,46.682
175,VCC-NET,VCC-A,44428,2019-12-28 10:08:02.598,2019-12-28 10:18:35.460,632.862,20.866
176,VCC-NET,VCC-B,44431,2019-12-28 10:10:48.012,2019-12-28 10:21:17.711,629.699,20.088
177,VCC-NET,VCC-C,44430,2019-12-28 11:01:06.798,2019-12-28 11:10:25.740,558.942,11.174
178,VCC-NET,VCC-B,44431,2019-12-28 13:27:10.189,2019-12-28 13:35:53.008,522.819,10.041
179,VCC-NET,VCC-C,44430,2019-12-28 14:16:17.200,2019-12-28 14:26:36.095,618.895,16.84
180,VCC-NET,VCC-A,44428,2019-12-28 15:00:43.146,2019-12-28 15:11:51.095,667.949,32.48
181,VCC-NET,VCC-B,44431,2019-12-28 15:03:25.394,2019-12-28 15:14:35.451,670.057,34.241
182,VCC-NET,VCC-C,44430,2019-12-28 15:52:27.200,2019-12-28 16:03:50.630,683.43,81.54
183,VCC-NET,VCC-A,44428,2019-12-28 16:37:09.526,2019-12-28 16:47:55.410,645.884,31.046
184,VCC-NET,VCC-B,44431,2019-12-28 16:39:53.265,2019-12-28 16:50:34.599,641.334,29.062
185,VCC-NET,VCC-C,44430,2019-12-29 06:55:43.162,2019-12-29 07:04:24.846,521.684,10.952
186,VCC-NET,VCC-A,44428,2019-12-29 07:39:24.830,2019-12-29 07:49:44.742,619.912,32.202
187,VCC-NET,VCC-B,44431,2019-12-29 07:42:04.112,2019-12-29 07:52:28.748,624.636,34.47
188,VCC-NET,VCC-C,44430,2019-12-29 08:30:09.670,2019-12-29 08:41:26.477,676.807,88.785
189,VCC-NET,VCC-A,44428,2019-12-29 09:15:24.963,2019-12-29 09:26:26.027,661.064,34.252
190,VCC-NET,VCC-B,44431,2019-12-29 09:18:09.327,2019-12-29 09:29:08.137,658.81,32.51
191,VCC-NET,VCC-C,44430,2019-12-29 10:07:33.308,2019-12-29 10:17:34.658,601.35,15.238
192,VCC-NET,VCC-C,44430,2019-12-29 13:23:28.492,2019-12-29 13:33:02.777,574.285,12.098
193,VCC-NET,VCC-A,44428,2019-12-29 14:08:33.235,2019-12-29 14:19:11.934,638.699,20.477
194,VCC-NET,VCC-B,44431,2019-12-29 14:11:15.488,2019-12-29 14:21:57.239,641.751,21.254
195,VCC-NET,VCC-C,44430,2019-12-29 14:59:34.926,2019-12-29 15:10:55.676,680.75,55.612
196,VCC-NET,VCC-A,44428,2019-12-29 15:44:48.398,2019-12-29 15:56:06.956,678.558,68.322
197,VCC-NET,VCC-B,44431,2019-12-29 15:47:31.288,2019-12-29 15:58:47.991,676.703,63.379
198,VCC-NET,VCC-C,44430,2019-12-29 16:36:15.746,2019-12-29 16:46:06.202,590.456,17.416
199,VCC-NET,VCC-A,44428,2019-12-30 06:48:00.311,2019-12-30 06:57:05.435,545.124,16.02
200,VCC-NET,VCC-B,44431,2019-12-30 06:50:38.594,2019-12-30 06:59:51.002,552.408,17.061
201,VCC-NET,VCC-C,44430,2019-12-30 07:37:26.723,2019-12-30 07:48:30.636,663.913,61.307
202,VCC-NET,VCC-A,44428,2019-12-30 08:22:58.703,2019-12-30 08:34:15.486,676.783,67.463
203,VCC-NET,VCC-B,44431,2019-12-30 08:25:41.790,2019-12-30 08:36:57.658,675.868,62.942
204,VCC-NET,VCC-C,44430,2019-12-30 09:14:05.969,2019-12-30 09:24:43.076,637.107,22.592
205,VCC-NET,VCC-A,44428,2019-12-30 10:00:44.065,2019-12-30 10:10:23.888,579.823,12.967
206,VCC-NET,VCC-B,44431,2019-12-30 10:03:30.246,2019-12-30 10:13:06.465,576.219,12.612
207,VCC-NET,VCC-A,44428,2019-12-30 13:16:20.656,2019-12-30 13:26:22.390,601.734,14.283
208,VCC-NET,VCC-B,44431,2019-12-30 13:19:03.135,2019-12-30 13:29:08.379,605.244,14.716
209,VCC-NET,VCC-C,44430,2019-12-30 14:06:44.042,2019-12-30 14:17:45.016,660.974,29.208
210,VCC-NET,VCC-A,44428,2019-12-30 14:52:33.096,2019-12-30 15:03:59.378,686.282,82.839
211,VCC-NET,VCC-B,44431,2019-12-30 14:55:15.458,2019-12-30 15:06:41.874,686.416,88.405
212,VCC-NET,VCC-C,44430,2019-12-30 15:43:04.602,2019-12-30 15:53:57.081,652.479,35.725
213,VCC-NET,VCC-A,44428,2019-12-30 16:29:32.757,2019-12-30 16:38:25.745,532.988,12.096
214,VCC-NET,VCC-B,44431,2019-12-30 16:32:18.478,2019-12-30 16:41:02.651,524.173,11.299
215,VCC-NET,VCC-C,44430,2019-12-31 06:45:03.112,2019-12-31 06:55:08.854,605.742,27.515
216,VCC-NET,VCC-A,44428,2019-12-31 07:30:46.139,2019-12-31 07:42:01.540,675.401,86.723
217,VCC-NET,VCC-B,44431,2019-12-31 07:33:27.729,2019-12-31 07:44:43.986,676.257,81.184
218,VCC-NET,VCC-C,44430,2019-12-31 08:20:48.152,2019-12-31 08:31:52.020,663.868,38.776
219,VCC-NET,VCC-A,44428,2019-12-31 09:07:52.727,2019-12-31 09:18:13.466,620.739,18.163
220,VCC-NET,VCC-B,44431,2019-12-31 09:10:38.220,2019-12-31 09:20:55.578,617.358,17.551
221,VCC-NET,VCC-C,44430,2019-12-31 09:59:16.996,2019-12-31 10:08:02.891,525.895,10.377
222,VCC-NET,VCC-A,44428,2019-12-31 12:24:08.105,2019-12-31 12:32:59.192,531.087,10.694
223,VCC-NET,VCC-B,44431,2019-12-31 12:26:50.971,2019-12-31 12:35:45.073,534.102,10.948
224,VCC-NET,VCC-C,44430,2019-12-31 13:13:52.115,2019-12-31 13:24:21.025,628.91,18.694
225,VCC-NET,VCC-A,44428,2019-12-31 14:00:20.650,2019-12-31 14:11:35.788,675.138,40.137
226,VCC-NET,VCC-B,44431,2019-12-31 14:03:02.718,2019-12-31 14:14:19.502,676.784,42.599
227,VCC-NET,VCC-C,44430,2019-12-31 14:50:02.999,2019-12-31 15:01:23.044,680.045,81.097
228,VCC-NET,VCC-A,44428,2019-12-31 15:36:53.212,2019-12-31 15:47:19.423,626.211,24.175
229,VCC-NET,VCC-B,44431,2019-12-31 15:39:37.140,2019-12-31 15:49:57.548,620.408,22.696
230,VCC-NET,VCC-C,44430,2020-01-01 05:52:59.766,2020-01-01 06:02:07.769,548.003,13.502
231,VCC-NET,VCC-A,44428,2020-01-01 06:38:50.101,2020-01-01 06:49:27.098,636.997,42.165
232,VCC-NET,VCC-B,44431,2020-01-01 06:41:29.879,2020-01-01 06:52:10.494,640.615,45.359
233,VCC-NET,VCC-C,44430,2020-01-01 07:27:42.519,2020-01-01 07:38:59.000,676.481,80.517
234,VCC-NET,VCC-A,44428,2020-01-01 08:15:09.163,2020-01-01 08:26:01.475,652.312,28.286
235,VCC-NET,VCC-B,44431,2020-01-01 08:17:53.669,2020-01-01 08:28:43.354,649.685,26.996
236,VCC-NET,VCC-C,44430,2020-01-01 09:05:16.646,2020-01-01 09:15:07.225,590.579,13.882
237,VCC-NET,VCC-C,44430,2020-01-01 12:20:56.558,2020-01-01 12:30:46.549,589.991,13.148
238,VCC-NET,VCC-A,44428,2020-01-01 13:08:08.681,2020-01-01 13:18:58.475,649.794,23.718
239,VCC-NET,VCC-B,44431,2020-01-01 13:10:50.659,2020-01-01 13:21:43.196,652.537,24.703
240,VCC-NET,VCC-C,44430,2020-01-01 13:57:06.486,2020-01-01 14:08:29.530,683.044,68.887
241,VCC-NET,VCC-A,44428,2020-01-01 14:44:26.611,2020-01-01 14:55:36.509,669.898,51.139
242,VCC-NET,VCC-B,44431,2020-01-01 14:47:09.503,2020-01-01 14:58:16.677,667.174,47.466
243,VCC-NET,VCC-C,44430,2020-01-01 15:33:55.207,2020-01-01 15:42:56.208,541.001,14.313
244,VCC-NET,VCC-A,44428,2020-01-02 05:47:15.394,2020-01-02 05:56:51.390,575.996,20.394
245,VCC-NET,VCC-B,44431,2020-01-02 05:49:52.763,2020-01-02 05:59:36.006,583.243,21.71
246,VCC-NET,VCC-C,44430,2020-01-02 06:34:51.614,2020-01-02 06:46:01.517,669.903,77.133
247,VCC-NET,VCC-A,44428,2020-01-02 07:22:36.163,2020-01-02 07:33:49.179,673.016,52.017
248,VCC-NET,VCC-B,44431,2020-01-02 07:25:19.449,2020-01-02 07:36:31.032,671.583,48.758
249,VCC-NET,VCC-C,44430,2020-01-02 08:11:43.755,2020-01-02 08:22:11.665,627.91,20.001
250,VCC-NET,VCC-A,44428,2020-01-02 09:00:32.842,2020-01-02 09:09:59.291,566.449,11.709
251,VCC-NET,VCC-B,44431,2020-01-02 09:03:18.900,2020-01-02 09:12:41.774,562.874,11.413
252,VCC-NET,VCC-A,44428,2020-01-02 12:15:54.883,2020-01-02 12:26:09.804,614.921,16.053
253,VCC-NET,VCC-B,44431,2020-01-02 12:18:36.985,2020-01-02 12:28:55.288,618.303,16.576
254,VCC-NET,VCC-C,44430,2020-01-02 13:04:12.077,2020-01-02 13:15:19.567,667.49,33.952
255,VCC-NET,VCC-A,44428,2020-01-02 13:52:07.202,2020-01-02 14:03:32.828,685.626,80.576
256,VCC-NET,VCC-B,44431,2020-01-02 13:54:49.449,2020-01-02 14:06:14.547,685.098,78.406
257,VCC-NET,VCC-C,44430,2020-01-02 14:40:36.777,2020-01-02 14:51:15.878,639.101,29.051
258,VCC-NET,VCC-B,44431,2020-01-03 04:58:31.221,2020-01-03 05:07:10.774,519.553,10.687
259,VCC-NET,VCC-C,44430,2020-01-03 05:42:18.817,2020-01-03 05:52:40.660,621.843,33.742
260,VCC-NET,VCC-A,44428,2020-01-03 06:30:16.063,2020-01-03 06:41:34.294,678.231,81.027
261,VCC-NET,VCC-B,44431,2020-01-03 06:32:57.912,2020-01-03 06:44:16.321,678.409,86.461
262,VCC-NET,VCC-C,44430,2020-01-03 07:18:19.590,2020-01-03 07:29:17.363,657.773,32.875
263,VCC-NET,VCC-A,44428,2020-01-03 08:07:37.085,2020-01-03 08:17:45.155,608.07,16.012
264,VCC-NET,VCC-B,44431,2020-01-03 08:10:22.562,2020-01-03 08:20:27.102,604.54,15.51
265,VCC-NET,VCC-A,44428,2020-01-03 11:23:41.800,2020-01-03 11:33:12.765,570.965,11.731
266,VCC-NET,VCC-B,44431,2020-01-03 11:26:24.212,2020-01-03 11:35:58.692,574.48,12.035
267,VCC-NET,VCC-C,44430,2020-01-03 12:11:17.291,2020-01-03 12:21:55.554,638.263,20.856
268,VCC-NET,VCC-A,44428,2020-01-03 12:59:51.607,2020-01-03 13:11:12.151,680.544,50.845
269,VCC-NET,VCC-B,44431,2020-01-03 13:02:33.463,2020-01-03 13:13:55.141,681.678,54.339
270,VCC-NET,VCC-C,44430,2020-01-03 13:47:29.693,2020-01-03 13:58:44.626,674.933,64.982
271,VCC-NET,VCC-A,44428,2020-01-03 14:36:31.771,2020-01-03 14:46:33.570,601.799,19.023
272,VCC-NET,VCC-B,44431,2020-01-03 14:39:15.910,2020-01-03 14:49:10.451,594.541,17.872
273,VCC-NET,VCC-C,44430,2020-01-04 04:50:09.557,2020-01-04 04:59:16.348,546.791,16.413
274,VCC-NET,VCC-A,44428,2020-01-04 05:38:11.427,2020-01-04 05:49:14.329,662.902,56.039
275,VCC-NET,VCC-B,44431,2020-01-04 05:40:51.571,2020-01-04 05:51:56.774,665.203,60.468
276,VCC-NET,VCC-C,44430,2020-01-04 06:25:06.975,2020-01-04 06:36:21.756,674.781,65.346
277,VCC-NET,VCC-A,44428,2020-01-04 07:14:47.957,2020-01-04 07:25:30.315,642.358,23.859
278,VCC-NET,VCC-B,44431,2020-01-04 07:17:32.519,2020-01-04 07:28:11.928,639.409,22.869
279,VCC-NET,VCC-C,44430,2020-01-04 08:02:50.679,2020-01-04 08:12:26.999,576.32,12.738
280,VCC-NET,VCC-C,44430,2020-01-04 11:18:19.595,2020-01-04 11:28:20.159,600.564,14.344
281,VCC-NET,VCC-A,44428,2020-01-04 12:07:37.287,2020-01-04 12:18:36.942,659.655,27.83
282,VCC-NET,VCC-B,44431,2020-01-04 12:10:18.963,2020-01-04 12:21:20.998,662.035,29.108
283,VCC-NET,VCC-C,44430,2020-01-04 12:54:28.730,2020-01-04 13:05:52.694,683.964,84.826
284,VCC-NET,VCC-A,44428,2020-01-04 13:43:59.042,2020-01-04 13:54:57.045,658.003,38.754
285,VCC-NET,VCC-B,44431,2020-01-04 13:46:41.925,2020-01-04 13:57:36.241,654.316,36.138
286,VCC-NET,VCC-C,44430,2020-01-04 14:31:26.621,2020-01-04 14:40:13.793,527.172,11.709
287,VCC-NET,VCC-A,44428,2020-01-05 04:46:26.113,2020-01-05 04:56:28.120,602.007,25.946
288,VCC-NET,VCC-B,44431,2020-01-05 04:49:04.090,2020-01-05 04:59:11.880,607.79,27.673
289,VCC-NET,VCC-C,44430,2020-01-05 05:32:08.421,2020-01-05 05:43:22.369,673.948,85.824
290,VCC-NET,VCC-A,44428,2020-01-05 06:22:08.523,2020-01-05 06:33:15.984,667.461,41.128
291,VCC-NET,VCC-B,44431,2020-01-05 06:24:51.916,2020-01-05 06:35:57.481,665.565,38.823
292,VCC-NET,VCC-C,44430,2020-01-05 07:09:12.534,2020-01-05 07:19:30.904,618.37,17.985
293,VCC-NET,VCC-A,44428,2020-01-05 08:00:15.165,2020-01-05 08:09:28.669,553.504,10.675
294,VCC-NET,VCC-B,44431,2020-01-05 08:03:23.413,2020-01-05 08:12:11.021,527.608,10.429
295,VCC-NET,VCC-C,44430,2020-01-05 10:25:21.413,2020-01-05 10:34:10.348,528.935,10.634
296,VCC-NET,VCC-A,44428,2020-01-05 11:15:21.961,2020-01-05 11:25:49.471,627.51,18.185
297,VCC-NET,VCC-B,44431,2020-01-05 11:18:03.663,2020-01-05 11:28:34.360,630.697,18.823
298,VCC-NET,VCC-C,44430,2020-01-05 12:01:30.617,2020-01-05 12:12:43.530,672.913,40.162
299,VCC-NET,VCC-A,44428,2020-01-05 12:51:35.143,2020-01-05 13:02:57.648,682.505,86.163
300,VCC-NET,VCC-B,44431,2020-01-05 12:54:17.246,2020-01-05 13:05:38.508,681.262,80.586
301,VCC-NET,VCC-C,44430,2020-01-05 13:38:00.210,2020-01-05 13:48:23.455,623.245,23.924
302,VCC-NET,VCC-A,44428,2020-01-06 03:54:59.621,2020-01-06 04:04:03.881,544.26,12.939
303,VCC-NET,VCC-B,44431,2020-01-06 03:57:36.534,2020-01-06 04:06:48.517,551.983,13.811
304,VCC-NET,VCC-C,44430,2020-01-06 04:39:26.967,2020-01-06 04:50:01.850,634.883,41.673
305,VCC-NET,VCC-A,44428,2020-01-06 05:29:41.234,2020-01-06 05:40:59.841,678.607,84.575
306,VCC-NET,VCC-B,44431,2020-01-06 05:32:23.248,2020-01-06 05:43:41.422,678.174,79.153
307,VCC-NET,VCC-C,44430,2020-01-06 06:15:42.271,2020-01-06 06:26:33.167,650.896,28.364
308,VCC-NET,VCC-A,44428,2020-01-06 07:07:15.488,2020-01-06 07:17:10.635,595.147,14.262
309,VCC-NET,VCC-B,44431,2020-01-06 07:10:00.842,2020-01-06 07:19:52.386,591.544,13.846
310,VCC-NET,VCC-A,44428,2020-01-06 10:23:03.173,2020-01-06 10:32:52.472,589.299,12.965
311,VCC-NET,VCC-B,44431,2020-01-06 10:25:45.130,2020-01-06 10:35:37.905,592.775,13.329
312,VCC-NET,VCC-C,44430,2020-01-06 11:08:32.776,2020-01-06 11:19:19.630,646.854,23.397
313,VCC-NET,VCC-A,44428,2020-01-06 11:59:16.097,2020-01-06 12:10:40.132,684.035,65.781
314,VCC-NET,VCC-B,44431,2020-01-06 12:01:57.709,2020-01-06 12:13:22.330,684.621,70.549
315,VCC-NET,VCC-C,44430,2020-01-06 12:44:47.305,2020-01-06 12:55:55.346,668.041,51.807
316,VCC-NET,VCC-A,44428,2020-01-06 13:36:05.517,2020-01-06 13:45:37.372,571.855,14.996
317,VCC-NET,VCC-B,44431,2020-01-06 13:38:49.920,2020-01-06 13:47:49.527,571.855,14.064
