vcc_sched/network/output/VCC_Combined_Passes_20191216_20200106.csv

Pass #,GS Name,SC Name,SC NORAD ID,Start Time (UTCG),Stop Time (UTCG),Duration (sec),Max El (deg)
0,UVAGS,VCC-C,44430,2019-12-16 18:24:24.040,2019-12-16 18:33:25.554,541.514,11.604
1,ODUGS,VCC-C,44430,2019-12-16 18:25:03.836,2019-12-16 18:33:53.556,529.72,10.606
2,VTGS,VCC-A,44428,2019-12-16 19:01:05.831,2019-12-16 19:10:27.764,561.933,13.97
3,UVAGS,VCC-A,44428,2019-12-16 19:01:10.916,2019-12-16 19:10:58.192,587.276,17.324
4,ODUGS,VCC-A,44428,2019-12-16 19:01:47.355,2019-12-16 19:11:30.314,582.959,16.589
5,VTGS,VCC-B,44431,2019-12-16 19:03:48.504,2019-12-16 19:13:14.157,565.653,14.436
6,UVAGS,VCC-B,44431,2019-12-16 19:03:53.638,2019-12-16 19:13:44.099,590.461,17.92
7,ODUGS,VCC-B,44431,2019-12-16 19:04:29.872,2019-12-16 19:14:16.429,586.557,17.211
8,VTGS,VCC-C,44430,2019-12-16 20:00:32.432,2019-12-16 20:11:00.555,628.123,35.593
9,UVAGS,VCC-C,44430,2019-12-16 20:00:39.728,2019-12-16 20:11:18.796,639.068,48.103
10,ODUGS,VCC-C,44430,2019-12-16 20:01:13.271,2019-12-16 20:11:52.760,639.489,49.386
11,VTGS,VCC-A,44428,2019-12-16 20:37:19.519,2019-12-16 20:48:02.989,643.47,84.76
12,UVAGS,VCC-A,44428,2019-12-16 20:37:29.277,2019-12-16 20:48:13.332,644.055,69.356
13,ODUGS,VCC-A,44428,2019-12-16 20:38:02.905,2019-12-16 20:48:46.005,643.1,64.51
14,VTGS,VCC-B,44431,2019-12-16 20:40:02.506,2019-12-16 20:50:45.944,643.438,89.659
15,UVAGS,VCC-B,44431,2019-12-16 20:40:12.490,2019-12-16 20:50:55.675,643.185,64.499
16,ODUGS,VCC-B,44431,2019-12-16 20:40:46.180,2019-12-16 20:51:28.196,642.016,59.79
17,VTGS,VCC-C,44430,2019-12-16 21:37:09.958,2019-12-16 21:46:55.354,585.396,19.609
18,UVAGS,VCC-C,44430,2019-12-16 21:37:27.697,2019-12-16 21:46:49.359,561.662,15.024
19,ODUGS,VCC-C,44430,2019-12-16 21:38:05.721,2019-12-16 21:47:15.488,549.767,13.532
20,ODUGS,VCC-A,44428,2019-12-17 11:41:03.197,2019-12-17 11:49:53.922,530.725,11.632
21,ODUGS,VCC-B,44431,2019-12-17 11:43:40.723,2019-12-17 11:52:39.995,539.272,12.448
22,VTGS,VCC-C,44430,2019-12-17 12:38:37.484,2019-12-17 12:48:54.403,616.919,32.133
23,UVAGS,VCC-C,44430,2019-12-17 12:39:00.123,2019-12-17 12:49:24.241,624.118,35.562
24,ODUGS,VCC-C,44430,2019-12-17 12:39:01.001,2019-12-17 12:49:37.405,636.404,53.585
25,VTGS,VCC-A,44428,2019-12-17 13:15:37.304,2019-12-17 13:26:18.643,641.339,86.699
26,UVAGS,VCC-A,44428,2019-12-17 13:16:02.856,2019-12-17 13:26:47.181,644.325,86.879
27,ODUGS,VCC-A,44428,2019-12-17 13:16:14.376,2019-12-17 13:26:56.222,641.846,57.271
28,VTGS,VCC-B,44431,2019-12-17 13:18:20.182,2019-12-17 13:29:01.675,641.493,87.647
29,UVAGS,VCC-B,44431,2019-12-17 13:18:45.881,2019-12-17 13:29:30.179,644.298,81.527
30,ODUGS,VCC-B,44431,2019-12-17 13:18:58.136,2019-12-17 13:29:38.981,640.845,53.514
31,VTGS,VCC-C,44430,2019-12-17 14:15:09.660,2019-12-17 14:25:18.198,608.538,24.383
32,UVAGS,VCC-C,44430,2019-12-17 14:15:36.709,2019-12-17 14:25:47.522,610.813,24.132
33,ODUGS,VCC-C,44430,2019-12-17 14:16:04.401,2019-12-17 14:25:52.435,588.034,17.964
34,VTGS,VCC-A,44428,2019-12-17 14:53:06.887,2019-12-17 15:02:33.004,566.117,14.626
35,UVAGS,VCC-A,44428,2019-12-17 14:53:32.595,2019-12-17 15:03:04.367,571.772,14.976
36,ODUGS,VCC-A,44428,2019-12-17 14:54:09.099,2019-12-17 15:03:08.204,539.105,11.358
37,VTGS,VCC-B,44431,2019-12-17 14:55:53.224,2019-12-17 15:05:15.704,562.48,14.153
38,UVAGS,VCC-B,44431,2019-12-17 14:56:18.755,2019-12-17 15:05:47.261,568.506,14.53
39,ODUGS,VCC-B,44431,2019-12-17 14:56:55.858,2019-12-17 15:05:51.065,535.207,11.02
40,VTGS,VCC-A,44428,2019-12-17 18:09:00.921,2019-12-17 18:17:42.725,521.804,10.145
41,UVAGS,VCC-A,44428,2019-12-17 18:09:05.930,2019-12-17 18:18:17.981,552.051,12.517
42,ODUGS,VCC-A,44428,2019-12-17 18:09:44.969,2019-12-17 18:18:47.017,542.048,11.564
43,VTGS,VCC-B,44431,2019-12-17 18:11:44.004,2019-12-17 18:20:29.510,525.506,10.425
44,UVAGS,VCC-B,44431,2019-12-17 18:11:48.985,2019-12-17 18:21:04.363,555.378,12.864
45,ODUGS,VCC-B,44431,2019-12-17 18:12:27.754,2019-12-17 18:21:33.748,545.994,11.929
46,VTGS,VCC-C,44430,2019-12-17 19:07:55.038,2019-12-17 19:17:55.325,600.287,21.323
47,UVAGS,VCC-C,44430,2019-12-17 19:08:00.957,2019-12-17 19:18:19.652,618.695,27.124
48,ODUGS,VCC-C,44430,2019-12-17 19:08:35.431,2019-12-17 19:18:53.435,618.004,26.85
49,VTGS,VCC-A,44428,2019-12-17 19:45:15.513,2019-12-17 19:55:50.052,634.539,41.548
50,UVAGS,VCC-A,44428,2019-12-17 19:45:23.228,2019-12-17 19:56:06.762,643.534,57.151
51,ODUGS,VCC-A,44428,2019-12-17 19:45:56.694,2019-12-17 19:56:40.611,643.917,59.274
52,VTGS,VCC-B,44431,2019-12-17 19:47:58.166,2019-12-17 19:58:34.297,636.131,44.112
53,UVAGS,VCC-B,44431,2019-12-17 19:48:06.044,2019-12-17 19:58:50.435,644.391,61.041
54,ODUGS,VCC-B,44431,2019-12-17 19:48:39.487,2019-12-17 19:59:24.221,644.734,63.538
55,VTGS,VCC-C,44430,2019-12-17 20:44:14.430,2019-12-17 20:54:42.197,627.767,40.49
56,UVAGS,VCC-C,44430,2019-12-17 20:44:27.433,2019-12-17 20:54:44.820,617.387,29.854
57,ODUGS,VCC-C,44430,2019-12-17 20:45:02.439,2019-12-17 20:55:14.942,612.503,27.344
58,VTGS,VCC-A,44428,2019-12-17 21:22:01.775,2019-12-17 21:31:32.882,571.107,16.644
59,UVAGS,VCC-A,44428,2019-12-17 21:22:21.088,2019-12-17 21:31:24.383,543.295,12.714
60,ODUGS,VCC-A,44428,2019-12-17 21:23:00.267,2019-12-17 21:31:49.187,528.92,11.349
61,VTGS,VCC-B,44431,2019-12-17 21:24:47.011,2019-12-17 21:34:11.562,564.551,15.631
62,UVAGS,VCC-B,44431,2019-12-17 21:25:06.991,2019-12-17 21:34:02.068,535.077,11.905
63,ODUGS,VCC-B,44431,2019-12-17 21:25:46.652,2019-12-17 21:34:26.306,519.654,10.582
64,VTGS,VCC-C,44430,2019-12-18 11:46:30.732,2019-12-18 11:55:54.029,563.297,15.861
65,ODUGS,VCC-C,44430,2019-12-18 11:46:40.341,2019-12-18 11:56:44.829,604.488,24.691
66,UVAGS,VCC-C,44430,2019-12-18 11:46:49.539,2019-12-18 11:56:26.491,576.952,17.656
67,VTGS,VCC-A,44428,2019-12-18 12:23:41.415,2019-12-18 12:34:07.998,626.583,39.248
68,UVAGS,VCC-A,44428,2019-12-18 12:24:04.806,2019-12-18 12:34:37.430,632.624,43.463
69,ODUGS,VCC-A,44428,2019-12-18 12:24:08.018,2019-12-18 12:34:49.581,641.563,66.732
70,VTGS,VCC-B,44431,2019-12-18 12:26:22.765,2019-12-18 12:36:51.667,628.902,42.154
71,UVAGS,VCC-B,44431,2019-12-18 12:26:46.395,2019-12-18 12:37:20.975,634.58,46.682
72,ODUGS,VCC-B,44431,2019-12-18 12:26:50.406,2019-12-18 12:37:32.795,642.389,71.918
73,VTGS,VCC-C,44430,2019-12-18 13:22:07.341,2019-12-18 13:32:39.534,632.193,42.803
74,UVAGS,VCC-C,44430,2019-12-18 13:22:34.185,2019-12-18 13:33:08.050,633.865,40.952
75,ODUGS,VCC-C,44430,2019-12-18 13:22:54.206,2019-12-18 13:33:14.625,620.419,28.76
76,VTGS,VCC-A,44428,2019-12-18 14:00:28.622,2019-12-18 14:10:30.606,601.984,21.711
77,UVAGS,VCC-A,44428,2019-12-18 14:00:55.555,2019-12-18 14:11:00.273,604.718,21.643
78,ODUGS,VCC-A,44428,2019-12-18 14:01:25.156,2019-12-18 14:11:04.892,579.736,16.239
79,VTGS,VCC-B,44431,2019-12-18 14:03:14.225,2019-12-18 14:13:13.153,598.928,20.856
80,UVAGS,VCC-B,44431,2019-12-18 14:03:41.094,2019-12-18 14:13:42.946,601.852,20.841
81,ODUGS,VCC-B,44431,2019-12-18 14:04:11.356,2019-12-18 14:13:47.465,576.109,15.669
82,VTGS,VCC-C,44430,2019-12-18 15:00:10.325,2019-12-18 15:08:51.312,520.987,10.211
83,UVAGS,VCC-C,44430,2019-12-18 15:00:33.244,2019-12-18 15:09:25.249,532.005,10.824
84,VTGS,VCC-C,44430,2019-12-18 18:15:16.231,2019-12-18 18:24:39.074,562.843,14.28
85,UVAGS,VCC-C,44430,2019-12-18 18:15:21.311,2019-12-18 18:25:09.095,587.784,17.736
86,ODUGS,VCC-C,44430,2019-12-18 18:15:57.565,2019-12-18 18:25:41.372,583.807,17.025
87,VTGS,VCC-A,44428,2019-12-18 18:53:13.240,2019-12-18 19:03:23.712,610.472,24.165
88,UVAGS,VCC-A,44428,2019-12-18 18:53:19.493,2019-12-18 19:03:46.460,626.967,31.085
89,ODUGS,VCC-A,44428,2019-12-18 18:53:53.651,2019-12-18 19:04:20.430,626.779,31.034
90,VTGS,VCC-B,44431,2019-12-18 18:55:55.774,2019-12-18 19:06:09.031,613.257,25.244
91,UVAGS,VCC-B,44431,2019-12-18 18:56:02.137,2019-12-18 19:06:31.236,629.099,32.626
92,ODUGS,VCC-B,44431,2019-12-18 18:56:36.195,2019-12-18 19:07:05.245,629.05,32.672
93,VTGS,VCC-C,44430,2019-12-18 19:51:27.422,2019-12-18 20:02:08.692,641.27,89.57
94,UVAGS,VCC-C,44430,2019-12-18 19:51:37.373,2019-12-18 20:02:18.499,641.126,65.013
95,ODUGS,VCC-C,44430,2019-12-18 19:52:11.042,2019-12-18 20:02:51.015,639.973,60.267
96,VTGS,VCC-A,44428,2019-12-18 20:29:38.800,2019-12-18 20:40:00.280,621.48,33.17
97,UVAGS,VCC-A,44428,2019-12-18 20:29:52.822,2019-12-18 20:40:00.840,608.018,24.91
98,ODUGS,VCC-A,44428,2019-12-18 20:30:28.428,2019-12-18 20:40:30.117,601.689,22.771
99,VTGS,VCC-B,44431,2019-12-18 20:32:22.744,2019-12-18 20:42:41.078,618.334,31.024
100,UVAGS,VCC-B,44431,2019-12-18 20:32:37.154,2019-12-18 20:42:40.899,603.745,23.415
101,ODUGS,VCC-B,44431,2019-12-18 20:33:12.990,2019-12-18 20:43:09.857,596.867,21.383
102,ODUGS,VCC-C,44430,2019-12-19 10:54:42.136,2019-12-19 11:03:37.206,535.07,12.14
103,VTGS,VCC-A,44428,2019-12-19 11:32:03.578,2019-12-19 11:41:47.328,583.75,19.319
104,ODUGS,VCC-A,44428,2019-12-19 11:32:17.497,2019-12-19 11:42:35.495,617.998,30.287
105,UVAGS,VCC-A,44428,2019-12-19 11:32:23.654,2019-12-19 11:42:18.866,595.212,21.412
106,VTGS,VCC-B,44431,2019-12-19 11:34:42.999,2019-12-19 11:44:32.070,589.071,20.56
107,ODUGS,VCC-B,44431,2019-12-19 11:34:58.228,2019-12-19 11:45:19.485,621.257,32.391
108,UVAGS,VCC-B,44431,2019-12-19 11:35:03.446,2019-12-19 11:45:03.350,599.904,22.769
109,VTGS,VCC-C,44430,2019-12-19 12:29:17.367,2019-12-19 12:39:57.181,639.814,89.356
110,UVAGS,VCC-C,44430,2019-12-19 12:29:43.016,2019-12-19 12:40:25.671,642.655,83.112
111,ODUGS,VCC-C,44430,2019-12-19 12:29:55.054,2019-12-19 12:40:34.537,639.483,54.504
112,VTGS,VCC-A,44428,2019-12-19 13:07:59.338,2019-12-19 13:18:27.871,628.533,35.992
113,UVAGS,VCC-A,44428,2019-12-19 13:08:26.354,2019-12-19 13:18:56.553,630.199,34.811
114,ODUGS,VCC-A,44428,2019-12-19 13:08:48.527,2019-12-19 13:19:02.620,614.093,25.004
115,VTGS,VCC-B,44431,2019-12-19 13:10:43.935,2019-12-19 13:21:10.472,626.537,34.114
116,UVAGS,VCC-B,44431,2019-12-19 13:11:10.990,2019-12-19 13:21:39.216,628.226,33.102
117,ODUGS,VCC-B,44431,2019-12-19 13:11:33.865,2019-12-19 13:21:45.124,611.259,23.92
118,VTGS,VCC-C,44430,2019-12-19 14:06:46.813,2019-12-19 14:16:08.464,561.651,14.218
119,UVAGS,VCC-C,44430,2019-12-19 14:07:12.386,2019-12-19 14:16:39.939,567.553,14.585
120,ODUGS,VCC-C,44430,2019-12-19 14:07:49.354,2019-12-19 14:16:43.687,534.333,11.051
121,UVAGS,VCC-A,44428,2019-12-19 14:46:34.114,2019-12-19 14:55:18.661,524.547,10.149
122,VTGS,VCC-C,44430,2019-12-19 17:22:33.450,2019-12-19 17:31:15.187,521.737,10.241
123,UVAGS,VCC-C,44430,2019-12-19 17:22:38.381,2019-12-19 17:31:50.217,551.836,12.648
124,ODUGS,VCC-C,44430,2019-12-19 17:23:17.254,2019-12-19 17:32:19.441,542.187,11.709
125,VTGS,VCC-A,44428,2019-12-19 18:01:10.461,2019-12-19 18:10:46.327,575.866,15.949
126,UVAGS,VCC-A,44428,2019-12-19 18:01:15.745,2019-12-19 18:11:14.775,599.03,19.881
127,ODUGS,VCC-A,44428,2019-12-19 18:01:51.422,2019-12-19 18:11:47.646,596.224,19.256
128,VTGS,VCC-B,44431,2019-12-19 18:03:53.067,2019-12-19 18:13:32.480,579.413,16.518
129,UVAGS,VCC-B,44431,2019-12-19 18:03:58.420,2019-12-19 18:14:00.420,602.0,20.625
130,ODUGS,VCC-B,44431,2019-12-19 18:04:33.920,2019-12-19 18:14:33.451,599.531,20.032
131,VTGS,VCC-C,44430,2019-12-19 18:58:44.918,2019-12-19 19:09:18.298,633.38,42.976
132,UVAGS,VCC-C,44430,2019-12-19 18:58:52.725,2019-12-19 19:09:34.646,641.921,59.428
133,ODUGS,VCC-C,44430,2019-12-19 18:59:26.158,2019-12-19 19:10:08.439,642.281,61.793
134,VTGS,VCC-A,44428,2019-12-19 19:37:25.630,2019-12-19 19:48:07.169,641.539,73.054
135,UVAGS,VCC-A,44428,2019-12-19 19:37:36.336,2019-12-19 19:48:15.026,638.69,51.687
136,ODUGS,VCC-A,44428,2019-12-19 19:38:10.269,2019-12-19 19:48:47.009,636.74,47.601
137,VTGS,VCC-B,44431,2019-12-19 19:40:08.823,2019-12-19 19:50:49.594,640.771,67.869
138,UVAGS,VCC-B,44431,2019-12-19 19:40:19.784,2019-12-19 19:50:56.821,637.037,48.064
139,ODUGS,VCC-B,44431,2019-12-19 19:40:53.816,2019-12-19 19:51:28.605,634.789,44.211
140,VTGS,VCC-C,44430,2019-12-19 20:35:30.192,2019-12-19 20:44:54.921,564.729,15.904
141,UVAGS,VCC-C,44430,2019-12-19 20:35:49.959,2019-12-19 20:44:45.761,535.802,12.115
142,ODUGS,VCC-C,44430,2019-12-19 20:36:29.447,2019-12-19 20:45:10.171,520.724,10.781
143,ODUGS,VCC-A,44428,2019-12-20 10:40:46.927,2019-12-20 10:50:09.268,562.341,15.152
144,UVAGS,VCC-A,44428,2019-12-20 10:41:05.068,2019-12-20 10:49:45.281,520.213,10.752
145,ODUGS,VCC-B,44431,2019-12-20 10:43:25.497,2019-12-20 10:52:54.585,569.088,16.147
146,VTGS,VCC-B,44431,2019-12-20 10:43:27.044,2019-12-20 10:51:56.144,509.1,10.131
147,UVAGS,VCC-B,44431,2019-12-20 10:43:42.337,2019-12-20 10:52:31.477,529.14,11.511
148,VTGS,VCC-C,44430,2019-12-20 11:36:42.288,2019-12-20 11:47:08.319,626.031,40.43
149,UVAGS,VCC-C,44430,2019-12-20 11:37:05.778,2019-12-20 11:47:37.678,631.9,44.785
150,ODUGS,VCC-C,44430,2019-12-20 11:37:09.356,2019-12-20 11:47:49.676,640.32,69.003
151,VTGS,VCC-A,44428,2019-12-20 12:15:41.510,2019-12-20 12:26:22.535,641.025,71.663
152,UVAGS,VCC-A,44428,2019-12-20 12:16:07.628,2019-12-20 12:26:50.959,643.331,66.774
153,ODUGS,VCC-A,44428,2019-12-20 12:16:22.077,2019-12-20 12:26:59.075,636.998,44.106
154,VTGS,VCC-B,44431,2019-12-20 12:18:24.892,2019-12-20 12:29:05.394,640.502,66.853
155,UVAGS,VCC-B,44431,2019-12-20 12:18:51.126,2019-12-20 12:29:33.815,642.689,62.44
156,ODUGS,VCC-B,44431,2019-12-20 12:19:06.308,2019-12-20 12:29:41.716,635.408,41.506
157,VTGS,VCC-C,44430,2019-12-20 13:13:28.834,2019-12-20 13:23:27.626,598.792,21.224
158,UVAGS,VCC-C,44430,2019-12-20 13:13:55.734,2019-12-20 13:23:57.329,601.595,21.18
159,ODUGS,VCC-C,44430,2019-12-20 13:14:25.656,2019-12-20 13:24:01.857,576.201,15.895
160,VTGS,VCC-A,44428,2019-12-20 13:53:24.447,2019-12-20 14:02:35.699,551.252,12.857
161,UVAGS,VCC-A,44428,2019-12-20 13:53:49.382,2019-12-20 14:03:07.852,558.47,13.308
162,ODUGS,VCC-A,44428,2019-12-20 13:54:28.241,2019-12-20 14:03:11.609,523.368,10.087
163,VTGS,VCC-B,44431,2019-12-20 13:56:10.987,2019-12-20 14:05:18.491,547.504,12.466
164,UVAGS,VCC-B,44431,2019-12-20 13:56:35.702,2019-12-20 14:05:50.864,555.162,12.94
165,VTGS,VCC-A,44428,2019-12-20 17:09:04.831,2019-12-20 17:18:00.855,536.024,11.318
166,UVAGS,VCC-A,44428,2019-12-20 17:09:09.767,2019-12-20 17:18:34.446,564.679,13.979
167,ODUGS,VCC-A,44428,2019-12-20 17:09:47.758,2019-12-20 17:19:04.793,557.035,13.1
168,VTGS,VCC-B,44431,2019-12-20 17:11:47.739,2019-12-20 17:20:47.522,539.783,11.654
169,UVAGS,VCC-B,44431,2019-12-20 17:11:52.672,2019-12-20 17:21:20.669,567.997,14.399
170,ODUGS,VCC-B,44431,2019-12-20 17:12:30.423,2019-12-20 17:21:51.319,560.896,13.54
171,VTGS,VCC-C,44430,2019-12-20 18:06:04.117,2019-12-20 18:16:13.495,609.378,24.451
172,UVAGS,VCC-C,44430,2019-12-20 18:06:10.388,2019-12-20 18:16:36.039,625.651,31.533
173,ODUGS,VCC-C,44430,2019-12-20 18:06:44.495,2019-12-20 18:17:10.002,625.507,31.517
174,VTGS,VCC-A,44428,2019-12-20 18:45:17.948,2019-12-20 18:55:57.316,639.368,53.267
175,UVAGS,VCC-A,44428,2019-12-20 18:45:26.341,2019-12-20 18:56:11.727,645.386,74.511
176,ODUGS,VCC-A,44428,2019-12-20 18:45:59.757,2019-12-20 18:56:45.263,645.506,78.212
177,VTGS,VCC-B,44431,2019-12-20 18:48:00.697,2019-12-20 18:58:41.091,640.394,56.95
178,UVAGS,VCC-B,44431,2019-12-20 18:48:09.272,2019-12-20 18:58:54.913,645.641,79.598
179,ODUGS,VCC-B,44431,2019-12-20 18:48:42.697,2019-12-20 18:59:28.355,645.658,83.671
180,VTGS,VCC-C,44430,2019-12-20 19:42:27.512,2019-12-20 19:52:45.616,618.104,32.18
181,UVAGS,VCC-C,44430,2019-12-20 19:42:41.697,2019-12-20 19:52:45.873,604.176,24.194
182,ODUGS,VCC-C,44430,2019-12-20 19:43:17.383,2019-12-20 19:53:15.003,597.62,22.104
183,VTGS,VCC-A,44428,2019-12-20 20:22:15.286,2019-12-20 20:31:16.905,541.619,12.864
184,VTGS,VCC-B,44431,2019-12-20 20:25:01.241,2019-12-20 20:33:54.545,533.304,12.035
185,VTGS,VCC-C,44430,2019-12-21 10:44:25.635,2019-12-21 10:54:08.888,583.253,19.498
186,ODUGS,VCC-C,44430,2019-12-21 10:44:39.813,2019-12-21 10:54:56.900,617.087,30.627
187,UVAGS,VCC-C,44430,2019-12-21 10:44:45.784,2019-12-21 10:54:40.358,594.574,21.611
188,VTGS,VCC-A,44428,2019-12-21 11:23:37.456,2019-12-21 11:34:12.111,634.655,52.56
189,UVAGS,VCC-A,44428,2019-12-21 11:24:01.758,2019-12-21 11:34:41.093,639.335,58.103
190,ODUGS,VCC-A,44428,2019-12-21 11:24:08.108,2019-12-21 11:34:51.979,643.871,88.575
191,VTGS,VCC-B,44431,2019-12-21 11:26:19.390,2019-12-21 11:36:55.476,636.086,56.684
192,UVAGS,VCC-B,44431,2019-12-21 11:26:43.899,2019-12-21 11:37:24.369,640.47,62.558
193,ODUGS,VCC-B,44431,2019-12-21 11:26:51.017,2019-12-21 11:37:34.963,643.946,85.752
194,VTGS,VCC-C,44430,2019-12-21 12:20:19.852,2019-12-21 12:30:46.243,626.391,35.466
195,UVAGS,VCC-C,44430,2019-12-21 12:20:46.870,2019-12-21 12:31:14.918,628.048,34.323
196,ODUGS,VCC-C,44430,2019-12-21 12:21:09.210,2019-12-21 12:31:20.924,611.714,24.666
197,VTGS,VCC-A,44428,2019-12-21 13:00:41.121,2019-12-21 13:10:30.458,589.337,18.584
198,UVAGS,VCC-A,44428,2019-12-21 13:01:07.749,2019-12-21 13:11:00.660,592.911,18.706
199,ODUGS,VCC-A,44428,2019-12-21 13:01:39.980,2019-12-21 13:11:04.891,564.911,14.126
200,VTGS,VCC-B,44431,2019-12-21 13:03:27.020,2019-12-21 13:13:12.998,585.978,17.906
201,UVAGS,VCC-B,44431,2019-12-21 13:03:53.543,2019-12-21 13:13:43.353,589.81,18.067
202,ODUGS,VCC-B,44431,2019-12-21 13:04:26.419,2019-12-21 13:13:47.505,561.086,13.659
203,UVAGS,VCC-C,44430,2019-12-21 13:58:52.455,2019-12-21 14:07:34.246,521.791,10.034
204,UVAGS,VCC-A,44428,2019-12-21 16:16:59.170,2019-12-21 16:25:48.952,529.782,10.536
205,UVAGS,VCC-B,44431,2019-12-21 16:19:42.535,2019-12-21 16:28:35.395,532.86,10.784
206,VTGS,VCC-C,44430,2019-12-21 17:13:22.620,2019-12-21 17:22:56.777,574.157,15.934
207,UVAGS,VCC-C,44430,2019-12-21 17:13:27.883,2019-12-21 17:23:25.167,597.284,19.881
208,ODUGS,VCC-C,44430,2019-12-21 17:14:03.519,2019-12-21 17:23:58.036,594.517,19.262
209,VTGS,VCC-A,44428,2019-12-21 17:53:12.895,2019-12-21 18:03:33.211,620.316,28.896
210,UVAGS,VCC-A,44428,2019-12-21 17:53:19.620,2019-12-21 18:03:53.776,634.156,37.965
211,ODUGS,VCC-A,44428,2019-12-21 17:53:53.425,2019-12-21 18:04:27.826,634.401,38.389
212,VTGS,VCC-B,44431,2019-12-21 17:55:55.427,2019-12-21 18:06:18.120,622.693,30.332
213,UVAGS,VCC-B,44431,2019-12-21 17:56:02.281,2019-12-21 18:06:38.131,635.85,40.1
214,ODUGS,VCC-B,44431,2019-12-21 17:56:36.016,2019-12-21 18:07:12.184,636.168,40.689
215,VTGS,VCC-C,44430,2019-12-21 18:49:35.078,2019-12-21 19:00:14.382,639.304,72.208
216,UVAGS,VCC-C,44430,2019-12-21 18:49:45.822,2019-12-21 19:00:22.144,636.322,50.998
217,ODUGS,VCC-C,44430,2019-12-21 18:50:19.756,2019-12-21 19:00:54.073,634.317,46.94
218,VTGS,VCC-A,44428,2019-12-21 19:29:44.485,2019-12-21 19:39:51.099,606.614,25.532
219,UVAGS,VCC-A,44428,2019-12-21 19:30:00.145,2019-12-21 19:39:48.619,588.474,19.477
220,ODUGS,VCC-A,44428,2019-12-21 19:30:36.765,2019-12-21 19:40:16.520,579.755,17.712
221,VTGS,VCC-B,44431,2019-12-21 19:32:28.802,2019-12-21 19:42:31.151,602.349,23.963
222,UVAGS,VCC-B,44431,2019-12-21 19:32:44.918,2019-12-21 19:42:27.864,582.946,18.322
223,ODUGS,VCC-B,44431,2019-12-21 19:33:21.842,2019-12-21 19:42:55.380,573.538,16.632
224,ODUGS,VCC-C,44430,2019-12-22 09:52:30.790,2019-12-22 10:01:51.239,560.449,15.057
225,UVAGS,VCC-C,44430,2019-12-22 09:52:49.005,2019-12-22 10:01:27.180,518.175,10.673
226,VTGS,VCC-A,44428,2019-12-22 10:31:50.050,2019-12-22 10:41:53.289,603.239,24.795
227,ODUGS,VCC-A,44428,2019-12-22 10:32:08.979,2019-12-22 10:42:38.635,629.656,39.853
228,UVAGS,VCC-A,44428,2019-12-22 10:32:11.510,2019-12-22 10:42:23.869,612.359,27.423
229,VTGS,VCC-B,44431,2019-12-22 10:34:30.212,2019-12-22 10:44:37.520,607.308,26.428
230,ODUGS,VCC-B,44431,2019-12-22 10:34:50.325,2019-12-22 10:45:22.244,631.919,42.838
231,UVAGS,VCC-B,44431,2019-12-22 10:34:51.989,2019-12-22 10:45:07.900,615.911,29.228
232,VTGS,VCC-C,44430,2019-12-22 11:27:22.546,2019-12-22 11:38:01.895,639.349,71.751
233,UVAGS,VCC-C,44430,2019-12-22 11:27:48.648,2019-12-22 11:38:30.301,641.653,66.829
234,ODUGS,VCC-C,44430,2019-12-22 11:28:03.088,2019-12-22 11:38:38.413,635.325,44.067
235,VTGS,VCC-A,44428,2019-12-22 12:08:05.728,2019-12-22 12:18:25.721,619.993,29.364
236,UVAGS,VCC-A,44428,2019-12-22 12:08:32.840,2019-12-22 12:18:54.673,621.833,28.749
237,ODUGS,VCC-A,44428,2019-12-22 12:08:57.782,2019-12-22 12:19:00.135,602.353,21.094
238,VTGS,VCC-B,44431,2019-12-22 12:10:50.692,2019-12-22 12:21:08.222,617.53,27.996
239,UVAGS,VCC-B,44431,2019-12-22 12:11:17.804,2019-12-22 12:21:37.258,619.454,27.487
240,ODUGS,VCC-B,44431,2019-12-22 12:11:43.437,2019-12-22 12:21:42.578,599.141,20.255
241,VTGS,VCC-C,44430,2019-12-22 13:05:02.757,2019-12-22 13:14:12.152,549.395,12.797
242,UVAGS,VCC-C,44430,2019-12-22 13:05:27.689,2019-12-22 13:14:44.282,556.593,13.245
243,ODUGS,VCC-C,44430,2019-12-22 13:06:06.569,2019-12-22 13:14:47.966,521.397,10.029
244,VTGS,VCC-C,44430,2019-12-22 16:20:37.933,2019-12-22 16:29:31.282,533.349,11.207
245,UVAGS,VCC-C,44430,2019-12-22 16:20:42.815,2019-12-22 16:30:04.943,562.128,13.852
246,ODUGS,VCC-C,44430,2019-12-22 16:21:20.834,2019-12-22 16:30:35.228,554.394,12.974
247,VTGS,VCC-A,44428,2019-12-22 17:01:08.149,2019-12-22 17:10:57.114,588.965,18.359
248,UVAGS,VCC-A,44428,2019-12-22 17:01:13.721,2019-12-22 17:11:23.525,609.804,23.071
249,ODUGS,VCC-A,44428,2019-12-22 17:01:48.744,2019-12-22 17:11:56.947,608.203,22.589
250,VTGS,VCC-B,44431,2019-12-22 17:03:50.665,2019-12-22 17:13:42.931,592.266,19.062
251,UVAGS,VCC-B,44431,2019-12-22 17:03:56.320,2019-12-22 17:14:08.818,612.498,24.016
252,ODUGS,VCC-B,44431,2019-12-22 17:04:31.191,2019-12-22 17:14:42.356,611.165,23.58
253,VTGS,VCC-C,44430,2019-12-22 17:56:48.185,2019-12-22 18:07:25.327,637.142,52.775
254,UVAGS,VCC-C,44430,2019-12-22 17:56:56.552,2019-12-22 18:07:39.795,643.243,73.948
255,ODUGS,VCC-C,44430,2019-12-22 17:57:29.954,2019-12-22 18:08:13.319,643.365,77.622
256,VTGS,VCC-A,44428,2019-12-22 18:37:25.912,2019-12-22 18:48:02.559,636.647,54.255
257,UVAGS,VCC-A,44428,2019-12-22 18:37:37.681,2019-12-22 18:48:07.866,630.185,38.944
258,ODUGS,VCC-A,44428,2019-12-22 18:38:12.066,2019-12-22 18:48:39.001,626.935,35.744
259,VTGS,VCC-B,44431,2019-12-22 18:40:09.295,2019-12-22 18:50:44.363,635.068,50.329
260,UVAGS,VCC-B,44431,2019-12-22 18:40:21.358,2019-12-22 18:50:49.006,627.648,36.372
261,ODUGS,VCC-B,44431,2019-12-22 18:40:55.885,2019-12-22 18:51:19.907,624.022,33.368
262,VTGS,VCC-C,44430,2019-12-22 19:33:42.594,2019-12-22 19:42:42.711,540.117,12.864
263,VTGS,VCC-A,44428,2019-12-23 09:40:24.301,2019-12-23 09:49:20.477,536.176,12.442
264,ODUGS,VCC-A,44428,2019-12-23 09:40:28.030,2019-12-23 09:50:15.168,587.138,19.464
265,UVAGS,VCC-A,44428,2019-12-23 09:40:41.310,2019-12-23 09:49:54.379,553.069,13.975
266,VTGS,VCC-B,44431,2019-12-23 09:43:02.052,2019-12-23 09:52:06.257,544.205,13.289
267,ODUGS,VCC-B,44431,2019-12-23 09:43:07.422,2019-12-23 09:52:59.831,592.409,20.722
268,UVAGS,VCC-B,44431,2019-12-23 09:43:19.574,2019-12-23 09:52:39.738,560.164,14.883
269,VTGS,VCC-C,44430,2019-12-23 10:34:39.385,2019-12-23 10:45:11.930,632.545,51.366
270,UVAGS,VCC-C,44430,2019-12-23 10:35:03.621,2019-12-23 10:45:40.919,637.298,56.824
271,ODUGS,VCC-C,44430,2019-12-23 10:35:09.754,2019-12-23 10:45:51.885,642.131,86.993
272,VTGS,VCC-A,44428,2019-12-23 11:15:40.971,2019-12-23 11:26:19.202,638.231,54.599
273,UVAGS,VCC-A,44428,2019-12-23 11:16:07.530,2019-12-23 11:26:47.633,640.103,51.498
274,ODUGS,VCC-A,44428,2019-12-23 11:16:24.837,2019-12-23 11:26:54.921,630.084,35.061
275,VTGS,VCC-B,44431,2019-12-23 11:18:24.773,2019-12-23 11:29:01.867,637.094,51.109
276,UVAGS,VCC-B,44431,2019-12-23 11:18:51.413,2019-12-23 11:29:30.314,638.901,48.389
277,ODUGS,VCC-B,44431,2019-12-23 11:19:09.439,2019-12-23 11:29:37.415,627.976,33.228
278,VTGS,VCC-C,44430,2019-12-23 12:11:39.267,2019-12-23 12:21:27.664,588.397,18.693
279,UVAGS,VCC-C,44430,2019-12-23 12:12:05.910,2019-12-23 12:21:57.805,591.895,18.802
280,ODUGS,VCC-C,44430,2019-12-23 12:12:37.986,2019-12-23 12:22:02.010,564.024,14.183
281,VTGS,VCC-A,44428,2019-12-23 12:53:35.896,2019-12-23 13:02:32.248,536.352,11.409
282,UVAGS,VCC-A,44428,2019-12-23 12:53:59.898,2019-12-23 13:03:05.272,545.374,11.946
283,VTGS,VCC-B,44431,2019-12-23 12:56:22.525,2019-12-23 13:05:15.115,532.59,11.083
284,UVAGS,VCC-B,44431,2019-12-23 12:56:46.262,2019-12-23 13:05:48.370,542.108,11.642
285,UVAGS,VCC-C,44430,2019-12-23 15:27:52.645,2019-12-23 15:36:39.081,526.436,10.378
286,VTGS,VCC-A,44428,2019-12-23 16:09:01.433,2019-12-23 16:18:11.728,550.295,12.718
287,UVAGS,VCC-A,44428,2019-12-23 16:09:06.400,2019-12-23 16:18:43.532,577.132,15.739
288,ODUGS,VCC-A,44428,2019-12-23 16:09:43.462,2019-12-23 16:19:14.972,571.51,14.94
289,VTGS,VCC-B,44431,2019-12-23 16:11:44.141,2019-12-23 16:20:58.164,554.023,13.121
290,UVAGS,VCC-B,44431,2019-12-23 16:11:49.144,2019-12-23 16:21:29.502,580.358,16.249
291,ODUGS,VCC-B,44431,2019-12-23 16:12:25.979,2019-12-23 16:22:01.186,575.207,15.472
292,VTGS,VCC-C,44430,2019-12-23 17:04:03.772,2019-12-23 17:14:21.110,617.338,28.296
293,UVAGS,VCC-C,44430,2019-12-23 17:04:10.428,2019-12-23 17:14:41.876,631.448,37.131
294,ODUGS,VCC-C,44430,2019-12-23 17:04:44.249,2019-12-23 17:15:15.902,631.653,37.502
295,VTGS,VCC-A,44428,2019-12-23 17:45:14.175,2019-12-23 17:55:56.085,641.91,69.719
296,UVAGS,VCC-A,44428,2019-12-23 17:45:23.324,2019-12-23 17:56:08.160,644.836,84.495
297,ODUGS,VCC-A,44428,2019-12-23 17:45:56.814,2019-12-23 17:56:41.248,644.434,79.669
298,VTGS,VCC-B,44431,2019-12-23 17:47:56.992,2019-12-23 17:58:39.311,642.319,74.709
299,UVAGS,VCC-B,44431,2019-12-23 17:48:06.346,2019-12-23 17:58:50.789,644.443,79.075
300,ODUGS,VCC-B,44431,2019-12-23 17:48:39.874,2019-12-23 17:59:23.740,643.866,74.155
301,VTGS,VCC-C,44430,2019-12-23 18:40:32.027,2019-12-23 18:50:37.889,605.862,25.981
302,UVAGS,VCC-C,44430,2019-12-23 18:40:47.550,2019-12-23 18:50:35.659,588.109,19.784
303,ODUGS,VCC-C,44430,2019-12-23 18:41:24.069,2019-12-23 18:51:03.664,579.595,17.997
304,ODUGS,VCC-B,44431,2019-12-24 08:51:48.430,2019-12-24 09:00:20.993,512.563,10.162
305,VTGS,VCC-C,44430,2019-12-24 09:42:13.486,2019-12-24 09:52:12.764,599.278,23.892
306,ODUGS,VCC-C,44430,2019-12-24 09:42:31.759,2019-12-24 09:52:58.451,626.692,38.287
307,UVAGS,VCC-C,44430,2019-12-24 09:42:34.770,2019-12-24 09:52:43.442,608.672,26.432
308,VTGS,VCC-A,44428,2019-12-24 10:23:29.163,2019-12-24 10:34:08.558,639.395,70.769
309,UVAGS,VCC-A,44428,2019-12-24 10:23:54.235,2019-12-24 10:34:37.229,642.994,77.317
310,ODUGS,VCC-A,44428,2019-12-24 10:24:03.595,2019-12-24 10:34:47.001,643.406,70.086
311,VTGS,VCC-B,44431,2019-12-24 10:26:11.576,2019-12-24 10:36:51.612,640.036,76.099
312,UVAGS,VCC-B,44431,2019-12-24 10:26:36.826,2019-12-24 10:37:20.225,643.399,82.71
313,ODUGS,VCC-B,44431,2019-12-24 10:26:46.934,2019-12-24 10:37:29.738,642.804,65.328
314,VTGS,VCC-C,44430,2019-12-24 11:18:23.889,2019-12-24 11:28:43.344,619.455,30.017
315,UVAGS,VCC-C,44430,2019-12-24 11:18:50.986,2019-12-24 11:29:12.232,621.246,29.341
316,ODUGS,VCC-C,44430,2019-12-24 11:19:15.584,2019-12-24 11:29:17.740,602.156,21.461
317,VTGS,VCC-A,44428,2019-12-24 12:00:47.995,2019-12-24 12:10:23.835,575.84,16.114
318,UVAGS,VCC-A,44428,2019-12-24 12:01:14.163,2019-12-24 12:10:54.661,580.498,16.377
319,ODUGS,VCC-A,44428,2019-12-24 12:01:48.911,2019-12-24 12:10:58.606,549.695,12.406
320,VTGS,VCC-B,44431,2019-12-24 12:03:34.093,2019-12-24 12:13:06.342,572.249,15.564
321,UVAGS,VCC-B,44431,2019-12-24 12:04:00.112,2019-12-24 12:13:37.343,577.231,15.859
322,ODUGS,VCC-B,44431,2019-12-24 12:04:35.480,2019-12-24 12:13:41.231,545.751,12.018
323,UVAGS,VCC-A,44428,2019-12-24 15:16:55.347,2019-12-24 15:25:56.996,541.649,11.567
324,ODUGS,VCC-A,44428,2019-12-24 15:17:35.212,2019-12-24 15:26:24.916,529.704,10.564
325,UVAGS,VCC-B,44431,2019-12-24 15:19:38.445,2019-12-24 15:28:43.300,544.855,11.867
326,ODUGS,VCC-B,44431,2019-12-24 15:20:18.019,2019-12-24 15:29:11.612,533.593,10.881
327,VTGS,VCC-C,44430,2019-12-24 16:11:19.355,2019-12-24 16:21:04.160,584.805,17.86
328,UVAGS,VCC-C,44430,2019-12-24 16:11:24.847,2019-12-24 16:21:30.899,606.052,22.426
329,ODUGS,VCC-C,44430,2019-12-24 16:11:59.949,2019-12-24 16:22:04.224,604.275,21.922
330,VTGS,VCC-A,44428,2019-12-24 16:53:06.028,2019-12-24 17:03:34.472,628.444,35.227
331,UVAGS,VCC-A,44428,2019-12-24 16:53:13.295,2019-12-24 17:03:52.841,639.546,47.516
332,ODUGS,VCC-A,44428,2019-12-24 16:53:46.859,2019-12-24 17:04:26.826,639.967,48.741
333,VTGS,VCC-B,44431,2019-12-24 16:55:48.532,2019-12-24 17:06:18.888,630.356,37.202
334,UVAGS,VCC-B,44431,2019-12-24 16:55:55.948,2019-12-24 17:06:36.690,640.742,50.538
335,ODUGS,VCC-B,44431,2019-12-24 16:56:29.467,2019-12-24 17:07:10.638,641.171,52.041
336,VTGS,VCC-C,44430,2019-12-24 17:47:33.798,2019-12-24 17:58:09.189,635.391,56.619
337,UVAGS,VCC-C,44430,2019-12-24 17:47:45.409,2019-12-24 17:58:14.878,629.469,40.434
338,ODUGS,VCC-C,44430,2019-12-24 17:48:19.703,2019-12-24 17:58:46.121,626.418,37.112
339,VTGS,VCC-A,44428,2019-12-24 18:29:45.138,2019-12-24 18:39:32.483,587.345,19.908
340,UVAGS,VCC-A,44428,2019-12-24 18:30:02.753,2019-12-24 18:39:26.686,563.933,15.258
341,ODUGS,VCC-A,44428,2019-12-24 18:30:40.700,2019-12-24 18:39:52.935,552.235,13.754
342,VTGS,VCC-B,44431,2019-12-24 18:32:29.853,2019-12-24 18:42:11.659,581.806,18.706
343,UVAGS,VCC-B,44431,2019-12-24 18:32:48.030,2019-12-24 18:42:04.959,556.929,14.329
344,ODUGS,VCC-B,44431,2019-12-24 18:33:26.370,2019-12-24 18:42:30.733,544.363,12.878
345,VTGS,VCC-C,44430,2019-12-25 08:50:10.408,2019-12-25 08:58:58.221,527.813,11.749
346,ODUGS,VCC-C,44430,2019-12-25 08:50:12.775,2019-12-25 08:59:53.855,581.08,18.466
347,UVAGS,VCC-C,44430,2019-12-25 08:50:26.978,2019-12-25 08:59:32.465,545.487,13.234
348,VTGS,VCC-A,44428,2019-12-25 09:31:32.867,2019-12-25 09:41:50.848,617.981,32.048
349,UVAGS,VCC-A,44428,2019-12-25 09:31:55.504,2019-12-25 09:42:20.695,625.191,35.46
350,ODUGS,VCC-A,44428,2019-12-25 09:31:56.324,2019-12-25 09:42:33.876,637.552,53.341
351,VTGS,VCC-B,44431,2019-12-25 09:34:13.623,2019-12-25 09:44:34.598,620.975,34.288
352,UVAGS,VCC-B,44431,2019-12-25 09:34:36.529,2019-12-25 09:45:04.289,627.76,37.95
353,ODUGS,VCC-B,44431,2019-12-25 09:34:38.174,2019-12-25 09:45:17.105,638.931,57.566
354,VTGS,VCC-C,44430,2019-12-25 10:25:19.496,2019-12-25 10:35:56.757,637.261,57.422
355,UVAGS,VCC-C,44430,2019-12-25 10:25:45.968,2019-12-25 10:36:25.157,639.189,53.993
356,ODUGS,VCC-C,44430,2019-12-25 10:26:02.733,2019-12-25 10:36:32.581,629.848,36.471
357,VTGS,VCC-A,44428,2019-12-25 11:08:06.877,2019-12-25 11:18:16.794,609.917,24.528
358,UVAGS,VCC-A,44428,2019-12-25 11:08:33.948,2019-12-25 11:18:46.109,612.161,24.269
359,ODUGS,VCC-A,44428,2019-12-25 11:09:01.580,2019-12-25 11:18:51.048,589.468,18.07
360,VTGS,VCC-B,44431,2019-12-25 11:10:52.112,2019-12-25 11:20:59.168,607.056,23.493
361,UVAGS,VCC-B,44431,2019-12-25 11:11:19.146,2019-12-25 11:21:28.593,609.447,23.305
362,ODUGS,VCC-B,44431,2019-12-25 11:11:47.455,2019-12-25 11:21:33.412,585.957,17.401
363,VTGS,VCC-C,44430,2019-12-25 12:03:09.470,2019-12-25 12:12:06.708,537.238,11.601
364,UVAGS,VCC-C,44430,2019-12-25 12:03:33.656,2019-12-25 12:12:39.539,545.883,12.12
365,VTGS,VCC-C,44430,2019-12-25 15:18:32.495,2019-12-25 15:27:37.394,544.899,12.311
366,UVAGS,VCC-C,44430,2019-12-25 15:18:37.394,2019-12-25 15:28:09.616,572.222,15.239
367,ODUGS,VCC-C,44430,2019-12-25 15:19:14.642,2019-12-25 15:28:40.802,566.16,14.425
368,VTGS,VCC-A,44428,2019-12-25 16:00:59.010,2019-12-25 16:10:59.993,600.983,21.337
369,UVAGS,VCC-A,44428,2019-12-25 16:01:04.935,2019-12-25 16:11:24.333,619.398,27.132
370,ODUGS,VCC-A,44428,2019-12-25 16:01:39.423,2019-12-25 16:11:58.122,618.699,26.856
371,VTGS,VCC-B,44431,2019-12-25 16:03:41.402,2019-12-25 16:13:45.385,603.983,22.223
372,UVAGS,VCC-B,44431,2019-12-25 16:03:47.434,2019-12-25 16:14:09.187,621.753,28.364
373,ODUGS,VCC-B,44431,2019-12-25 16:04:21.801,2019-12-25 16:14:43.049,621.248,28.156
374,VTGS,VCC-C,44430,2019-12-25 16:54:42.270,2019-12-25 17:05:21.635,639.365,65.64
375,UVAGS,VCC-C,44430,2019-12-25 16:54:51.240,2019-12-25 17:05:34.215,642.975,89.041
376,ODUGS,VCC-C,44430,2019-12-25 16:55:24.694,2019-12-25 17:06:07.379,642.685,84.397
377,VTGS,VCC-A,44428,2019-12-25 17:37:20.488,2019-12-25 17:47:49.074,628.586,40.608
378,UVAGS,VCC-A,44428,2019-12-25 17:37:33.479,2019-12-25 17:47:51.719,618.24,29.947
379,ODUGS,VCC-A,44428,2019-12-25 17:38:08.485,2019-12-25 17:48:21.858,613.373,27.432
380,VTGS,VCC-B,44431,2019-12-25 17:40:04.055,2019-12-25 17:50:30.164,626.109,37.837
381,UVAGS,VCC-B,44431,2019-12-25 17:40:17.382,2019-12-25 17:50:32.108,614.726,28.086
382,ODUGS,VCC-B,44431,2019-12-25 17:40:52.575,2019-12-25 17:51:01.967,609.392,25.713
383,VTGS,VCC-C,44430,2019-12-25 18:31:47.460,2019-12-25 18:40:18.464,511.004,10.303
384,VTGS,VCC-A,44428,2019-12-26 08:39:56.040,2019-12-26 08:49:21.568,565.528,16.038
385,ODUGS,VCC-A,44428,2019-12-26 08:40:05.867,2019-12-26 08:50:12.233,606.366,24.946
386,UVAGS,VCC-A,44428,2019-12-26 08:40:14.927,2019-12-26 08:49:53.986,579.059,17.845
387,VTGS,VCC-B,44431,2019-12-26 08:42:34.663,2019-12-26 08:52:06.540,571.877,17.074
388,ODUGS,VCC-B,44431,2019-12-26 08:42:45.908,2019-12-26 08:52:56.314,610.406,26.602
389,UVAGS,VCC-B,44431,2019-12-26 08:42:53.969,2019-12-26 08:52:38.633,584.664,18.968
390,VTGS,VCC-C,44430,2019-12-26 09:32:28.573,2019-12-26 09:43:05.357,636.784,65.467
391,UVAGS,VCC-C,44430,2019-12-26 09:32:53.451,2019-12-26 09:43:34.080,640.629,71.87
392,ODUGS,VCC-C,44430,2019-12-26 09:33:02.033,2019-12-26 09:43:44.125,642.092,75.234
393,VTGS,VCC-A,44428,2019-12-26 10:15:35.511,2019-12-26 10:26:08.786,633.275,42.594
394,UVAGS,VCC-A,44428,2019-12-26 10:16:02.387,2019-12-26 10:26:37.311,634.924,40.771
395,ODUGS,VCC-A,44428,2019-12-26 10:16:22.483,2019-12-26 10:26:43.874,621.391,28.676
396,VTGS,VCC-B,44431,2019-12-26 10:18:19.636,2019-12-26 10:28:51.236,631.6,40.155
397,UVAGS,VCC-B,44431,2019-12-26 10:18:46.566,2019-12-26 10:29:19.803,633.237,38.576
398,ODUGS,VCC-B,44431,2019-12-26 10:19:07.372,2019-12-26 10:29:26.189,618.817,27.335
399,VTGS,VCC-C,44430,2019-12-26 11:09:40.800,2019-12-26 11:19:18.346,577.546,16.626
400,UVAGS,VCC-C,44430,2019-12-26 11:10:07.094,2019-12-26 11:19:48.980,581.886,16.854
401,ODUGS,VCC-C,44430,2019-12-26 11:10:41.229,2019-12-26 11:19:52.933,551.704,12.75
402,VTGS,VCC-A,44428,2019-12-26 11:53:41.000,2019-12-26 12:02:22.767,521.767,10.217
403,UVAGS,VCC-A,44428,2019-12-26 11:54:03.898,2019-12-26 12:02:56.724,532.826,10.833
404,UVAGS,VCC-B,44431,2019-12-26 11:56:50.198,2019-12-26 12:05:39.879,529.681,10.581
405,UVAGS,VCC-C,44430,2019-12-26 14:25:45.582,2019-12-26 14:34:41.507,535.925,11.179
406,ODUGS,VCC-C,44430,2019-12-26 14:26:25.777,2019-12-26 14:35:08.943,523.166,10.159
407,VTGS,VCC-A,44428,2019-12-26 15:08:50.854,2019-12-26 15:18:15.141,564.287,14.389
408,UVAGS,VCC-A,44428,2019-12-26 15:08:55.966,2019-12-26 15:18:45.079,589.113,17.87
409,ODUGS,VCC-A,44428,2019-12-26 15:09:32.200,2019-12-26 15:19:17.396,585.196,17.162
410,VTGS,VCC-B,44431,2019-12-26 15:11:33.353,2019-12-26 15:21:01.245,567.892,14.875
411,UVAGS,VCC-B,44431,2019-12-26 15:11:38.507,2019-12-26 15:21:30.690,592.183,18.495
412,ODUGS,VCC-B,44431,2019-12-26 15:12:14.548,2019-12-26 15:22:03.199,588.651,17.814
413,VTGS,VCC-C,44430,2019-12-26 16:01:54.030,2019-12-26 16:12:18.157,624.127,33.108
414,UVAGS,VCC-C,44430,2019-12-26 16:02:01.117,2019-12-26 16:12:37.136,636.019,44.362
415,ODUGS,VCC-C,44430,2019-12-26 16:02:34.728,2019-12-26 16:13:11.136,636.408,45.319
416,VTGS,VCC-A,44428,2019-12-26 16:45:04.289,2019-12-26 16:55:46.291,642.002,89.455
417,UVAGS,VCC-A,44428,2019-12-26 16:45:14.281,2019-12-26 16:55:55.998,641.717,64.265
418,ODUGS,VCC-A,44428,2019-12-26 16:45:47.969,2019-12-26 16:56:28.502,640.533,59.551
419,VTGS,VCC-B,44431,2019-12-26 16:47:47.154,2019-12-26 16:58:28.887,641.733,83.853
420,UVAGS,VCC-B,44431,2019-12-26 16:47:57.381,2019-12-26 16:58:37.974,640.593,59.696
421,ODUGS,VCC-B,44431,2019-12-26 16:48:31.136,2019-12-26 16:59:10.307,639.171,55.169
422,VTGS,VCC-C,44430,2019-12-26 17:38:28.069,2019-12-26 17:48:18.950,590.881,21.209
423,UVAGS,VCC-C,44430,2019-12-26 17:38:45.122,2019-12-26 17:48:14.080,568.958,16.239
424,ODUGS,VCC-C,44430,2019-12-26 17:39:22.668,2019-12-26 17:48:40.793,558.125,14.675
425,ODUGS,VCC-A,44428,2019-12-27 07:48:37.219,2019-12-27 07:57:36.461,539.242,12.45
426,ODUGS,VCC-B,44431,2019-12-27 07:51:14.820,2019-12-27 08:00:22.075,547.255,13.302
427,VTGS,VCC-C,44430,2019-12-27 08:39:53.937,2019-12-27 08:50:05.918,611.981,29.332
428,ODUGS,VCC-C,44430,2019-12-27 08:40:15.944,2019-12-27 08:50:49.653,633.709,48.318
429,UVAGS,VCC-C,44430,2019-12-27 08:40:16.199,2019-12-27 08:50:35.970,619.771,32.451
430,VTGS,VCC-A,44428,2019-12-27 09:23:16.311,2019-12-27 09:33:57.521,641.21,87.641
431,UVAGS,VCC-A,44428,2019-12-27 09:23:42.027,2019-12-27 09:34:26.003,643.976,81.502
432,ODUGS,VCC-A,44428,2019-12-27 09:23:54.291,2019-12-27 09:34:34.791,640.5,53.476
433,VTGS,VCC-B,44431,2019-12-27 09:25:59.108,2019-12-27 09:36:40.251,641.143,82.097
434,UVAGS,VCC-B,44431,2019-12-27 09:26:24.969,2019-12-27 09:37:08.704,643.735,76.322
435,ODUGS,VCC-B,44431,2019-12-27 09:26:37.967,2019-12-27 09:37:17.258,639.291,50.044
436,VTGS,VCC-C,44430,2019-12-27 10:16:19.300,2019-12-27 10:26:30.885,611.585,25.856
437,UVAGS,VCC-C,44430,2019-12-27 10:16:46.393,2019-12-27 10:27:00.050,613.657,25.497
438,ODUGS,VCC-C,44430,2019-12-27 10:17:13.180,2019-12-27 10:27:05.111,591.931,18.892
439,VTGS,VCC-A,44428,2019-12-27 11:00:49.047,2019-12-27 11:10:10.839,561.792,14.124
440,UVAGS,VCC-A,44428,2019-12-27 11:01:14.589,2019-12-27 11:10:42.373,567.784,14.499
441,ODUGS,VCC-A,44428,2019-12-27 11:01:51.724,2019-12-27 11:10:46.141,534.417,10.992
442,VTGS,VCC-B,44431,2019-12-27 11:03:35.238,2019-12-27 11:12:53.285,558.047,13.671
443,UVAGS,VCC-B,44431,2019-12-27 11:04:00.590,2019-12-27 11:13:25.017,564.427,14.072
444,ODUGS,VCC-B,44431,2019-12-27 11:04:38.318,2019-12-27 11:13:28.765,530.447,10.667
445,VTGS,VCC-A,44428,2019-12-27 14:16:39.151,2019-12-27 14:25:23.146,523.995,10.372
446,UVAGS,VCC-A,44428,2019-12-27 14:16:44.102,2019-12-27 14:25:58.020,553.918,12.804
447,ODUGS,VCC-A,44428,2019-12-27 14:17:22.890,2019-12-27 14:26:27.369,544.479,11.87
448,VTGS,VCC-B,44431,2019-12-27 14:19:21.974,2019-12-27 14:28:09.613,527.639,10.661
449,UVAGS,VCC-B,44431,2019-12-27 14:19:26.904,2019-12-27 14:28:44.069,557.165,13.164
450,ODUGS,VCC-B,44431,2019-12-27 14:20:05.423,2019-12-27 14:29:13.764,548.341,12.249
451,VTGS,VCC-C,44430,2019-12-27 15:09:06.482,2019-12-27 15:19:01.170,594.688,20.119
452,UVAGS,VCC-C,44430,2019-12-27 15:09:12.245,2019-12-27 15:19:26.237,613.992,25.484
453,ODUGS,VCC-C,44430,2019-12-27 15:09:46.896,2019-12-27 15:19:59.892,612.996,25.128
454,VTGS,VCC-A,44428,2019-12-27 15:52:52.733,2019-12-27 16:03:27.438,634.705,43.973
455,UVAGS,VCC-A,44428,2019-12-27 15:53:00.601,2019-12-27 16:03:43.584,642.983,60.903
456,ODUGS,VCC-A,44428,2019-12-27 15:53:34.042,2019-12-27 16:04:17.356,643.314,63.399
457,VTGS,VCC-B,44431,2019-12-27 15:55:35.180,2019-12-27 16:06:11.278,636.098,46.77
458,UVAGS,VCC-B,44431,2019-12-27 15:55:43.216,2019-12-27 16:06:26.849,643.633,65.11
459,ODUGS,VCC-B,44431,2019-12-27 15:56:16.640,2019-12-27 16:07:00.548,643.908,68.003
460,VTGS,VCC-C,44430,2019-12-27 16:45:23.629,2019-12-27 16:55:53.101,629.472,44.632
461,UVAGS,VCC-C,44430,2019-12-27 16:45:36.188,2019-12-27 16:55:56.670,620.482,32.57
462,ODUGS,VCC-C,44430,2019-12-27 16:46:10.949,2019-12-27 16:56:27.143,616.194,29.849
463,VTGS,VCC-A,44428,2019-12-27 17:29:41.090,2019-12-27 17:39:04.162,563.072,15.573
464,UVAGS,VCC-A,44428,2019-12-27 17:30:01.094,2019-12-27 17:38:54.646,533.552,11.854
465,ODUGS,VCC-A,44428,2019-12-27 17:30:40.760,2019-12-27 17:39:18.863,518.103,10.533
466,VTGS,VCC-B,44431,2019-12-27 17:32:26.258,2019-12-27 17:41:42.304,556.046,14.612
467,UVAGS,VCC-B,44431,2019-12-27 17:32:46.968,2019-12-27 17:41:31.744,524.776,11.079
468,VTGS,VCC-C,44430,2019-12-28 07:47:40.166,2019-12-28 07:56:53.279,553.113,14.476
469,ODUGS,VCC-C,44430,2019-12-28 07:47:47.665,2019-12-28 07:57:45.428,597.763,22.537
470,UVAGS,VCC-C,44430,2019-12-28 07:47:58.343,2019-12-28 07:57:26.219,567.876,16.16
471,VTGS,VCC-A,44428,2019-12-28 08:31:11.660,2019-12-28 08:41:40.331,628.671,42.02
472,UVAGS,VCC-A,44428,2019-12-28 08:31:35.295,2019-12-28 08:42:09.626,634.331,46.533
473,ODUGS,VCC-A,44428,2019-12-28 08:31:39.275,2019-12-28 08:42:21.453,642.178,71.696
474,VTGS,VCC-B,44431,2019-12-28 08:33:52.888,2019-12-28 08:44:23.618,630.73,45.18
475,UVAGS,VCC-B,44431,2019-12-28 08:34:16.756,2019-12-28 08:44:52.793,636.037,50.027
476,ODUGS,VCC-B,44431,2019-12-28 08:34:21.525,2019-12-28 08:45:04.297,642.772,77.121
477,VTGS,VCC-C,44430,2019-12-28 09:23:08.080,2019-12-28 09:33:41.834,633.754,46.682
478,UVAGS,VCC-C,44430,2019-12-28 09:23:34.837,2019-12-28 09:34:10.287,635.45,44.421
479,ODUGS,VCC-C,44430,2019-12-28 09:23:53.852,2019-12-28 09:34:17.106,623.254,30.831
480,VTGS,VCC-A,44428,2019-12-28 10:08:02.598,2019-12-28 10:18:01.195,598.597,20.866
481,UVAGS,VCC-A,44428,2019-12-28 10:08:29.485,2019-12-28 10:18:30.962,601.477,20.847
482,ODUGS,VCC-A,44428,2019-12-28 10:08:59.737,2019-12-28 10:18:35.460,575.723,15.669
483,VTGS,VCC-B,44431,2019-12-28 10:10:48.012,2019-12-28 10:20:43.416,595.404,20.057
484,UVAGS,VCC-B,44431,2019-12-28 10:11:14.823,2019-12-28 10:21:13.311,598.488,20.088
485,ODUGS,VCC-B,44431,2019-12-28 10:11:45.740,2019-12-28 10:21:17.711,571.971,15.124
486,VTGS,VCC-C,44430,2019-12-28 11:01:06.798,2019-12-28 11:09:52.172,525.374,10.59
487,UVAGS,VCC-C,44430,2019-12-28 11:01:30.137,2019-12-28 11:10:25.740,535.603,11.174
488,UVAGS,VCC-B,44431,2019-12-28 13:27:10.189,2019-12-28 13:35:53.008,522.819,10.041
489,VTGS,VCC-C,44430,2019-12-28 14:16:17.200,2019-12-28 14:25:33.413,556.213,13.573
490,UVAGS,VCC-C,44430,2019-12-28 14:16:22.194,2019-12-28 14:26:04.149,581.955,16.84
491,ODUGS,VCC-C,44430,2019-12-28 14:16:58.749,2019-12-28 14:26:36.095,577.346,16.095
492,VTGS,VCC-A,44428,2019-12-28 15:00:43.146,2019-12-28 15:10:54.864,611.718,25.097
493,UVAGS,VCC-A,44428,2019-12-28 15:00:49.489,2019-12-28 15:11:17.105,627.616,32.441
494,ODUGS,VCC-A,44428,2019-12-28 15:01:23.554,2019-12-28 15:11:51.095,627.541,32.48
495,VTGS,VCC-B,44431,2019-12-28 15:03:25.394,2019-12-28 15:13:39.738,614.344,26.24
496,UVAGS,VCC-B,44431,2019-12-28 15:03:31.857,2019-12-28 15:14:01.432,629.575,34.092
497,ODUGS,VCC-B,44431,2019-12-28 15:04:05.826,2019-12-28 15:14:35.451,629.625,34.241
498,VTGS,VCC-C,44430,2019-12-28 15:52:27.200,2019-12-28 16:03:07.214,640.014,81.54
499,UVAGS,VCC-C,44430,2019-12-28 15:52:36.827,2019-12-28 16:03:17.898,641.071,72.116
500,ODUGS,VCC-C,44430,2019-12-28 15:53:10.408,2019-12-28 16:03:50.630,640.222,67.186
501,VTGS,VCC-A,44428,2019-12-28 16:37:09.526,2019-12-28 16:47:26.603,617.077,31.046
502,UVAGS,VCC-A,44428,2019-12-28 16:37:23.926,2019-12-28 16:47:26.451,602.525,23.413
503,ODUGS,VCC-A,44428,2019-12-28 16:37:59.750,2019-12-28 16:47:55.410,595.66,21.379
504,VTGS,VCC-B,44431,2019-12-28 16:39:53.265,2019-12-28 16:50:06.874,613.609,29.062
505,UVAGS,VCC-B,44431,2019-12-28 16:40:08.068,2019-12-28 16:50:05.974,597.906,22.012
506,ODUGS,VCC-B,44431,2019-12-28 16:40:44.135,2019-12-28 16:50:34.599,590.464,20.077
507,ODUGS,VCC-C,44430,2019-12-29 06:55:43.162,2019-12-29 07:04:24.846,521.684,10.952
508,VTGS,VCC-A,44428,2019-12-29 07:39:24.830,2019-12-29 07:49:13.461,588.631,20.451
509,ODUGS,VCC-A,44428,2019-12-29 07:39:39.964,2019-12-29 07:50:00.914,620.95,32.202
510,UVAGS,VCC-A,44428,2019-12-29 07:39:45.259,2019-12-29 07:49:44.742,599.483,22.648
511,VTGS,VCC-B,44431,2019-12-29 07:42:04.112,2019-12-29 07:51:57.717,593.605,21.764
512,ODUGS,VCC-B,44431,2019-12-29 07:42:20.516,2019-12-29 07:52:44.442,623.926,34.47
513,UVAGS,VCC-B,44431,2019-12-29 07:42:24.892,2019-12-29 07:52:28.748,603.856,24.087
514,VTGS,VCC-C,44430,2019-12-29 08:30:09.670,2019-12-29 08:40:48.721,639.051,82.221
515,UVAGS,VCC-C,44430,2019-12-29 08:30:35.098,2019-12-29 08:41:17.257,642.159,88.785
516,ODUGS,VCC-C,44430,2019-12-29 08:30:46.037,2019-12-29 08:41:26.477,640.44,60.347
517,VTGS,VCC-A,44428,2019-12-29 09:15:24.963,2019-12-29 09:25:51.400,626.437,34.252
518,UVAGS,VCC-A,44428,2019-12-29 09:15:52.030,2019-12-29 09:26:20.117,628.087,33.224
519,ODUGS,VCC-A,44428,2019-12-29 09:16:14.856,2019-12-29 09:26:26.027,611.171,23.992
520,VTGS,VCC-B,44431,2019-12-29 09:18:09.327,2019-12-29 09:28:33.600,624.273,32.51
521,UVAGS,VCC-B,44431,2019-12-29 09:18:36.417,2019-12-29 09:29:02.383,625.966,31.633
522,ODUGS,VCC-B,44431,2019-12-29 09:18:59.940,2019-12-29 09:29:08.137,608.197,22.972
523,VTGS,VCC-C,44430,2019-12-29 10:07:33.308,2019-12-29 10:16:59.711,566.403,14.913
524,UVAGS,VCC-C,44430,2019-12-29 10:07:59.150,2019-12-29 10:17:30.887,571.737,15.238
525,ODUGS,VCC-C,44430,2019-12-29 10:08:35.237,2019-12-29 10:17:34.658,539.421,11.539
526,UVAGS,VCC-C,44430,2019-12-29 13:23:28.492,2019-12-29 13:32:34.126,545.634,12.098
527,ODUGS,VCC-C,44430,2019-12-29 13:24:07.792,2019-12-29 13:33:02.777,534.985,11.133
528,VTGS,VCC-A,44428,2019-12-29 14:08:33.235,2019-12-29 14:18:10.940,577.705,16.396
529,UVAGS,VCC-A,44428,2019-12-29 14:08:38.563,2019-12-29 14:18:38.940,600.377,20.477
530,ODUGS,VCC-A,44428,2019-12-29 14:09:14.088,2019-12-29 14:19:11.934,597.846,19.881
531,VTGS,VCC-B,44431,2019-12-29 14:11:15.488,2019-12-29 14:20:56.605,581.117,16.986
532,UVAGS,VCC-B,44431,2019-12-29 14:11:20.883,2019-12-29 14:21:24.094,603.211,21.254
533,ODUGS,VCC-B,44431,2019-12-29 14:11:56.237,2019-12-29 14:21:57.239,601.002,20.692
534,VTGS,VCC-C,44430,2019-12-29 14:59:34.926,2019-12-29 15:10:04.600,629.674,39.249
535,UVAGS,VCC-C,44430,2019-12-29 14:59:42.485,2019-12-29 15:10:21.812,639.327,53.784
536,ODUGS,VCC-C,44430,2019-12-29 15:00:15.958,2019-12-29 15:10:55.676,639.718,55.612
537,VTGS,VCC-A,44428,2019-12-29 15:44:48.398,2019-12-29 15:55:27.882,639.484,68.322
538,UVAGS,VCC-A,44428,2019-12-29 15:44:59.334,2019-12-29 15:55:35.167,635.833,48.32
539,ODUGS,VCC-A,44428,2019-12-29 15:45:33.356,2019-12-29 15:56:06.956,633.6,44.441
540,VTGS,VCC-B,44431,2019-12-29 15:47:31.288,2019-12-29 15:58:09.756,638.468,63.379
541,UVAGS,VCC-B,44431,2019-12-29 15:47:42.486,2019-12-29 15:58:16.407,633.921,44.962
542,ODUGS,VCC-B,44431,2019-12-29 15:48:16.614,2019-12-29 15:58:47.991,631.377,41.315
543,VTGS,VCC-C,44430,2019-12-29 16:36:15.746,2019-12-29 16:45:48.710,572.964,17.416
544,UVAGS,VCC-C,44430,2019-12-29 16:36:34.581,2019-12-29 16:45:40.999,546.418,13.308
545,ODUGS,VCC-C,44430,2019-12-29 16:37:13.368,2019-12-29 16:46:06.202,532.834,11.911
546,ODUGS,VCC-A,44428,2019-12-30 06:48:00.311,2019-12-30 06:57:28.646,568.335,16.02
547,VTGS,VCC-A,44428,2019-12-30 06:48:02.085,2019-12-30 06:56:30.052,507.967,10.042
548,UVAGS,VCC-A,44428,2019-12-30 06:48:17.313,2019-12-30 06:57:05.435,528.122,11.415
549,VTGS,VCC-B,44431,2019-12-30 06:50:38.594,2019-12-30 06:59:16.141,517.547,10.78
550,ODUGS,VCC-B,44431,2019-12-30 06:50:38.687,2019-12-30 07:00:13.384,574.697,17.061
551,UVAGS,VCC-B,44431,2019-12-30 06:50:54.436,2019-12-30 06:59:51.002,536.566,12.199
552,VTGS,VCC-C,44430,2019-12-30 07:37:26.723,2019-12-30 07:47:48.567,621.844,36.226
553,UVAGS,VCC-C,44430,2019-12-30 07:37:49.840,2019-12-30 07:48:18.115,628.275,40.114
554,ODUGS,VCC-C,44430,2019-12-30 07:37:52.166,2019-12-30 07:48:30.636,638.47,61.307
555,VTGS,VCC-A,44428,2019-12-30 08:22:58.703,2019-12-30 08:33:39.164,640.461,67.463
556,UVAGS,VCC-A,44428,2019-12-30 08:23:24.935,2019-12-30 08:34:07.566,642.631,62.984
557,ODUGS,VCC-A,44428,2019-12-30 08:23:40.029,2019-12-30 08:34:15.486,635.457,41.823
558,VTGS,VCC-B,44431,2019-12-30 08:25:41.790,2019-12-30 08:36:21.550,639.76,62.942
559,UVAGS,VCC-B,44431,2019-12-30 08:26:08.141,2019-12-30 08:36:49.945,641.804,58.936
560,ODUGS,VCC-B,44431,2019-12-30 08:26:23.950,2019-12-30 08:36:57.658,633.708,39.421
561,VTGS,VCC-C,44430,2019-12-30 09:14:05.969,2019-12-30 09:24:08.903,602.934,22.592
562,UVAGS,VCC-C,44430,2019-12-30 09:14:32.965,2019-12-30 09:24:38.398,605.433,22.456
563,ODUGS,VCC-C,44430,2019-12-30 09:15:01.859,2019-12-30 09:24:43.076,581.217,16.792
564,VTGS,VCC-A,44428,2019-12-30 10:00:44.065,2019-12-30 10:09:51.566,547.501,12.498
565,UVAGS,VCC-A,44428,2019-12-30 10:01:08.826,2019-12-30 10:10:23.888,555.062,12.967
566,VTGS,VCC-B,44431,2019-12-30 10:03:30.246,2019-12-30 10:12:33.924,543.678,12.121
567,UVAGS,VCC-B,44431,2019-12-30 10:03:54.770,2019-12-30 10:13:06.465,551.695,12.612
568,VTGS,VCC-A,44428,2019-12-30 13:16:20.656,2019-12-30 13:25:18.589,537.933,11.557
569,UVAGS,VCC-A,44428,2019-12-30 13:16:25.567,2019-12-30 13:25:51.812,566.245,14.283
570,ODUGS,VCC-A,44428,2019-12-30 13:17:03.369,2019-12-30 13:26:22.390,559.021,13.421
571,VTGS,VCC-B,44431,2019-12-30 13:19:03.135,2019-12-30 13:28:04.735,541.6,11.901
572,UVAGS,VCC-B,44431,2019-12-30 13:19:08.051,2019-12-30 13:28:37.517,569.466,14.716
573,ODUGS,VCC-B,44431,2019-12-30 13:19:45.605,2019-12-30 13:29:08.379,562.774,13.874
574,VTGS,VCC-C,44430,2019-12-30 14:06:44.042,2019-12-30 14:16:47.744,603.702,22.798
575,UVAGS,VCC-C,44430,2019-12-30 14:06:50.126,2019-12-30 14:17:11.144,621.018,29.208
576,ODUGS,VCC-C,44430,2019-12-30 14:07:24.400,2019-12-30 14:17:45.016,620.616,29.055
577,VTGS,VCC-A,44428,2019-12-30 14:52:33.096,2019-12-30 15:03:12.032,638.936,56.295
578,UVAGS,VCC-A,44428,2019-12-30 14:52:41.644,2019-12-30 15:03:25.939,644.295,78.794
579,ODUGS,VCC-A,44428,2019-12-30 14:53:15.065,2019-12-30 15:03:59.378,644.313,82.839
580,VTGS,VCC-B,44431,2019-12-30 14:55:15.458,2019-12-30 15:05:55.219,639.761,60.254
581,UVAGS,VCC-B,44431,2019-12-30 14:55:24.191,2019-12-30 15:06:08.544,644.353,84.061
582,ODUGS,VCC-B,44431,2019-12-30 14:55:57.626,2019-12-30 15:06:41.874,644.248,88.405
583,VTGS,VCC-C,44430,2019-12-30 15:43:04.602,2019-12-30 15:53:26.096,621.494,35.725
584,UVAGS,VCC-C,44430,2019-12-30 15:43:18.217,2019-12-30 15:53:27.483,609.266,26.614
585,ODUGS,VCC-C,44430,2019-12-30 15:43:53.565,2019-12-30 15:53:57.081,603.516,24.344
586,VTGS,VCC-A,44428,2019-12-30 16:29:32.757,2019-12-30 16:38:25.745,532.988,12.096
587,VTGS,VCC-B,44431,2019-12-30 16:32:18.478,2019-12-30 16:41:02.651,524.173,11.299
588,VTGS,VCC-C,44430,2019-12-31 06:45:03.112,2019-12-31 06:54:36.944,573.832,17.621
589,ODUGS,VCC-C,44430,2019-12-31 06:45:15.118,2019-12-31 06:55:26.238,611.12,27.515
590,UVAGS,VCC-C,44430,2019-12-31 06:45:22.639,2019-12-31 06:55:08.854,586.215,19.564
591,VTGS,VCC-A,44428,2019-12-31 07:30:46.139,2019-12-31 07:41:22.011,635.872,55.934
592,UVAGS,VCC-A,44428,2019-12-31 07:31:10.626,2019-12-31 07:41:50.902,640.276,61.748
593,ODUGS,VCC-A,44428,2019-12-31 07:31:17.613,2019-12-31 07:42:01.540,643.927,86.723
594,VTGS,VCC-B,44431,2019-12-31 07:33:27.729,2019-12-31 07:44:04.825,637.096,60.326
595,UVAGS,VCC-B,44431,2019-12-31 07:33:52.412,2019-12-31 07:44:33.632,641.22,66.443
596,ODUGS,VCC-B,44431,2019-12-31 07:34:00.166,2019-12-31 07:44:43.986,643.82,81.184
597,VTGS,VCC-C,44430,2019-12-31 08:20:48.152,2019-12-31 08:31:17.187,629.035,38.776
598,UVAGS,VCC-C,44430,2019-12-31 08:21:15.108,2019-12-31 08:31:45.757,630.649,37.318
599,ODUGS,VCC-C,44430,2019-12-31 08:21:36.322,2019-12-31 08:31:52.020,615.698,26.528
600,VTGS,VCC-A,44428,2019-12-31 09:07:52.727,2019-12-31 09:17:39.017,586.29,18.01
601,UVAGS,VCC-A,44428,2019-12-31 09:08:19.285,2019-12-31 09:18:09.322,590.037,18.163
602,ODUGS,VCC-A,44428,2019-12-31 09:08:52.065,2019-12-31 09:18:13.466,561.401,13.725
603,VTGS,VCC-B,44431,2019-12-31 09:10:38.220,2019-12-31 09:20:21.050,582.83,17.361
604,UVAGS,VCC-B,44431,2019-12-31 09:11:04.668,2019-12-31 09:20:51.511,586.843,17.551
605,ODUGS,VCC-B,44431,2019-12-31 09:11:38.088,2019-12-31 09:20:55.578,557.49,13.275
606,UVAGS,VCC-C,44430,2019-12-31 09:59:16.996,2019-12-31 10:08:02.891,525.895,10.377
607,UVAGS,VCC-A,44428,2019-12-31 12:24:08.105,2019-12-31 12:32:59.192,531.087,10.694
608,UVAGS,VCC-B,44431,2019-12-31 12:26:50.971,2019-12-31 12:35:45.073,534.102,10.948
609,VTGS,VCC-C,44430,2019-12-31 13:13:52.115,2019-12-31 13:23:19.245,567.13,15.015
610,UVAGS,VCC-C,44430,2019-12-31 13:13:57.254,2019-12-31 13:23:48.464,591.21,18.694
611,ODUGS,VCC-C,44430,2019-12-31 13:14:33.200,2019-12-31 13:24:21.025,587.825,18.028
612,VTGS,VCC-A,44428,2019-12-31 14:00:20.650,2019-12-31 14:10:41.635,620.985,29.964
613,UVAGS,VCC-A,44428,2019-12-31 14:00:27.470,2019-12-31 14:11:01.753,634.283,39.584
614,ODUGS,VCC-A,44428,2019-12-31 14:01:01.222,2019-12-31 14:11:35.788,634.566,40.137
615,VTGS,VCC-B,44431,2019-12-31 14:03:02.718,2019-12-31 14:13:25.912,623.194,31.482
616,UVAGS,VCC-B,44431,2019-12-31 14:03:09.677,2019-12-31 14:13:45.470,635.793,41.861
617,ODUGS,VCC-B,44431,2019-12-31 14:03:43.357,2019-12-31 14:14:19.502,636.145,42.599
618,VTGS,VCC-C,44430,2019-12-31 14:50:02.999,2019-12-31 15:00:42.050,639.051,81.097
619,UVAGS,VCC-C,44430,2019-12-31 14:50:13.341,2019-12-31 15:00:50.827,637.486,57.449
620,ODUGS,VCC-C,44430,2019-12-31 14:50:47.127,2019-12-31 15:01:23.044,635.917,53.01
621,VTGS,VCC-A,44428,2019-12-31 15:36:53.212,2019-12-31 15:46:55.004,601.792,24.175
622,UVAGS,VCC-A,44428,2019-12-31 15:37:09.259,2019-12-31 15:46:51.855,582.596,18.467
623,ODUGS,VCC-A,44428,2019-12-31 15:37:46.128,2019-12-31 15:47:19.423,573.295,16.766
624,VTGS,VCC-B,44431,2019-12-31 15:39:37.140,2019-12-31 15:49:34.355,597.215,22.696
625,UVAGS,VCC-B,44431,2019-12-31 15:39:53.658,2019-12-31 15:49:30.381,576.723,17.367
626,ODUGS,VCC-B,44431,2019-12-31 15:40:30.853,2019-12-31 15:49:57.548,566.695,15.736
627,ODUGS,VCC-C,44430,2020-01-01 05:52:59.766,2020-01-01 06:02:07.769,548.003,13.502
628,VTGS,VCC-A,44428,2020-01-01 06:38:50.101,2020-01-01 06:48:56.692,606.591,26.067
629,ODUGS,VCC-A,44428,2020-01-01 06:39:09.971,2020-01-01 06:49:41.525,631.554,42.165
630,UVAGS,VCC-A,44428,2020-01-01 06:39:11.824,2020-01-01 06:49:27.098,615.274,28.826
631,VTGS,VCC-B,44431,2020-01-01 06:41:29.879,2020-01-01 06:51:40.281,610.402,27.794
632,ODUGS,VCC-B,44431,2020-01-01 06:41:50.913,2020-01-01 06:52:24.517,633.604,45.359
633,UVAGS,VCC-B,44431,2020-01-01 06:41:51.907,2020-01-01 06:52:10.494,618.587,30.738
634,VTGS,VCC-C,44430,2020-01-01 07:27:42.519,2020-01-01 07:38:22.099,639.58,80.517
635,UVAGS,VCC-C,44430,2020-01-01 07:28:08.415,2020-01-01 07:38:50.520,642.105,74.829
636,ODUGS,VCC-C,44430,2020-01-01 07:28:21.626,2020-01-01 07:38:59.000,637.374,49.01
637,VTGS,VCC-A,44428,2020-01-01 08:15:09.163,2020-01-01 08:25:27.139,617.976,28.286
638,UVAGS,VCC-A,44428,2020-01-01 08:15:36.291,2020-01-01 08:25:56.135,619.844,27.751
639,ODUGS,VCC-A,44428,2020-01-01 08:16:01.779,2020-01-01 08:26:01.475,599.696,20.429
640,VTGS,VCC-B,44431,2020-01-01 08:17:53.669,2020-01-01 08:28:09.064,615.395,26.996
641,UVAGS,VCC-B,44431,2020-01-01 08:18:20.791,2020-01-01 08:28:38.149,617.358,26.558
642,ODUGS,VCC-B,44431,2020-01-01 08:18:46.969,2020-01-01 08:28:43.354,596.385,19.627
643,VTGS,VCC-C,44430,2020-01-01 09:05:16.646,2020-01-01 09:14:31.788,555.142,13.477
644,UVAGS,VCC-C,44430,2020-01-01 09:05:41.934,2020-01-01 09:15:03.551,561.617,13.882
645,ODUGS,VCC-C,44430,2020-01-01 09:06:19.871,2020-01-01 09:15:07.225,527.354,10.512
646,VTGS,VCC-C,44430,2020-01-01 12:20:56.558,2020-01-01 12:29:42.435,525.877,10.638
647,UVAGS,VCC-C,44430,2020-01-01 12:21:01.432,2020-01-01 12:30:16.834,555.402,13.148
648,ODUGS,VCC-C,44430,2020-01-01 12:21:39.902,2020-01-01 12:30:46.549,546.647,12.239
649,VTGS,VCC-A,44428,2020-01-01 13:08:08.681,2020-01-01 13:17:58.974,590.293,18.831
650,UVAGS,VCC-A,44428,2020-01-01 13:08:14.303,2020-01-01 13:18:24.991,610.688,23.718
651,ODUGS,VCC-A,44428,2020-01-01 13:08:49.217,2020-01-01 13:18:58.475,609.258,23.27
652,VTGS,VCC-B,44431,2020-01-01 13:10:50.659,2020-01-01 13:20:44.114,593.455,19.558
653,UVAGS,VCC-B,44431,2020-01-01 13:10:56.368,2020-01-01 13:21:09.604,613.236,24.703
654,ODUGS,VCC-B,44431,2020-01-01 13:11:31.143,2020-01-01 13:21:43.196,612.053,24.303
655,VTGS,VCC-C,44430,2020-01-01 13:57:06.486,2020-01-01 14:07:40.429,633.943,47.204
656,UVAGS,VCC-C,44430,2020-01-01 13:57:14.550,2020-01-01 14:07:55.878,641.328,65.896
657,ODUGS,VCC-C,44430,2020-01-01 13:57:47.959,2020-01-01 14:08:29.530,641.571,68.887
658,VTGS,VCC-A,44428,2020-01-01 14:44:26.611,2020-01-01 14:55:00.779,634.168,51.139
659,UVAGS,VCC-A,44428,2020-01-01 14:44:38.609,2020-01-01 14:55:05.571,626.962,36.868
660,ODUGS,VCC-A,44428,2020-01-01 14:45:13.103,2020-01-01 14:55:36.509,623.406,33.82
661,VTGS,VCC-B,44431,2020-01-01 14:47:09.503,2020-01-01 14:57:41.859,632.356,47.466
662,UVAGS,VCC-B,44431,2020-01-01 14:47:21.803,2020-01-01 14:57:45.980,624.177,34.462
663,ODUGS,VCC-B,44431,2020-01-01 14:47:56.445,2020-01-01 14:58:16.677,620.232,31.598
664,VTGS,VCC-C,44430,2020-01-01 15:33:55.207,2020-01-01 15:43:07.046,551.839,14.313
665,UVAGS,VCC-C,44430,2020-01-01 15:34:16.130,2020-01-01 15:42:56.208,520.078,10.828
666,VTGS,VCC-A,44428,2020-01-02 05:47:15.394,2020-01-02 05:56:17.813,542.419,13.073
667,ODUGS,VCC-A,44428,2020-01-02 05:47:20.357,2020-01-02 05:57:11.653,591.296,20.394
668,UVAGS,VCC-A,44428,2020-01-02 05:47:32.803,2020-01-02 05:56:51.390,558.587,14.65
669,VTGS,VCC-B,44431,2020-01-02 05:49:52.763,2020-01-02 05:59:02.829,550.066,13.948
670,ODUGS,VCC-B,44431,2020-01-02 05:49:59.311,2020-01-02 05:59:55.607,596.296,21.71
671,UVAGS,VCC-B,44431,2020-01-02 05:50:10.660,2020-01-02 05:59:36.006,565.346,15.589
672,VTGS,VCC-C,44430,2020-01-02 06:34:51.614,2020-01-02 06:45:20.860,629.246,45.102
673,UVAGS,VCC-C,44430,2020-01-02 06:35:15.477,2020-01-02 06:45:50.019,634.542,49.954
674,ODUGS,VCC-C,44430,2020-01-02 06:35:20.250,2020-01-02 06:46:01.517,641.267,77.133
675,VTGS,VCC-A,44428,2020-01-02 07:22:36.163,2020-01-02 07:33:13.615,637.452,52.017
676,UVAGS,VCC-A,44428,2020-01-02 07:23:02.799,2020-01-02 07:33:42.041,639.242,49.195
677,ODUGS,VCC-A,44428,2020-01-02 07:23:20.636,2020-01-02 07:33:49.179,628.543,33.703
678,VTGS,VCC-B,44431,2020-01-02 07:25:19.449,2020-01-02 07:35:55.637,636.188,48.758
679,UVAGS,VCC-B,44431,2020-01-02 07:25:46.170,2020-01-02 07:36:24.076,637.906,46.289
680,ODUGS,VCC-B,44431,2020-01-02 07:26:04.723,2020-01-02 07:36:31.032,626.309,31.982
681,VTGS,VCC-C,44430,2020-01-02 08:11:43.755,2020-01-02 08:21:37.436,593.681,19.972
682,UVAGS,VCC-C,44430,2020-01-02 08:12:10.565,2020-01-02 08:22:07.317,596.752,20.001
683,ODUGS,VCC-C,44430,2020-01-02 08:12:41.504,2020-01-02 08:22:11.665,570.161,15.048
684,VTGS,VCC-A,44428,2020-01-02 09:00:32.842,2020-01-02 09:09:26.120,533.278,11.158
685,UVAGS,VCC-A,44428,2020-01-02 09:00:56.667,2020-01-02 09:09:59.291,542.624,11.709
686,VTGS,VCC-B,44431,2020-01-02 09:03:18.900,2020-01-02 09:12:08.363,529.463,10.841
687,UVAGS,VCC-B,44431,2020-01-02 09:03:42.449,2020-01-02 09:12:41.774,539.325,11.413
688,VTGS,VCC-A,44428,2020-01-02 12:15:54.883,2020-01-02 12:25:06.740,551.857,12.962
689,UVAGS,VCC-A,44428,2020-01-02 12:15:59.863,2020-01-02 12:25:38.212,578.349,16.053
690,ODUGS,VCC-A,44428,2020-01-02 12:16:36.776,2020-01-02 12:26:09.804,573.028,15.27
691,VTGS,VCC-B,44431,2020-01-02 12:18:36.985,2020-01-02 12:27:52.459,555.474,13.373
692,UVAGS,VCC-B,44431,2020-01-02 12:18:41.994,2020-01-02 12:28:23.463,581.469,16.576
693,ODUGS,VCC-B,44431,2020-01-02 12:19:18.688,2020-01-02 12:28:55.288,576.6,15.815
694,VTGS,VCC-C,44430,2020-01-02 13:04:12.077,2020-01-02 13:14:23.844,611.767,26.013
695,UVAGS,VCC-C,44430,2020-01-02 13:04:18.509,2020-01-02 13:14:45.578,627.069,33.813
696,ODUGS,VCC-C,44430,2020-01-02 13:04:52.482,2020-01-02 13:15:19.567,627.085,33.952
697,VTGS,VCC-A,44428,2020-01-02 13:52:07.202,2020-01-02 14:02:48.216,641.014,73.217
698,UVAGS,VCC-A,44428,2020-01-02 13:52:16.499,2020-01-02 14:02:59.854,643.355,80.576
699,ODUGS,VCC-A,44428,2020-01-02 13:52:50.021,2020-01-02 14:03:32.828,642.807,75.647
700,VTGS,VCC-B,44431,2020-01-02 13:54:49.449,2020-01-02 14:05:30.674,641.225,78.406
701,UVAGS,VCC-B,44431,2020-01-02 13:54:58.955,2020-01-02 14:05:41.716,642.761,75.232
702,ODUGS,VCC-B,44431,2020-01-02 13:55:32.517,2020-01-02 14:06:14.547,642.03,70.285
703,VTGS,VCC-C,44430,2020-01-02 14:40:36.777,2020-01-02 14:50:48.141,611.364,29.051
704,UVAGS,VCC-C,44430,2020-01-02 14:40:51.567,2020-01-02 14:50:47.264,595.697,21.977
705,ODUGS,VCC-C,44430,2020-01-02 14:41:27.621,2020-01-02 14:51:15.878,588.257,20.039
706,ODUGS,VCC-B,44431,2020-01-03 04:58:31.221,2020-01-03 05:07:10.774,519.553,10.687
707,VTGS,VCC-C,44430,2020-01-03 05:42:18.817,2020-01-03 05:52:09.569,590.752,21.321
708,ODUGS,VCC-C,44430,2020-01-03 05:42:34.858,2020-01-03 05:52:56.493,621.635,33.742
709,UVAGS,VCC-C,44430,2020-01-03 05:42:39.499,2020-01-03 05:52:40.660,601.161,23.604
