vcc_sched/network/output/VCC_Network_Passes_20200326_20200430.csv

Network Pass #,GS Name,SC Name,SC NORAD ID,Start Time (UTCG),Stop Time (UTCG),Duration (sec),Max El (deg)
0,VCC-NET,VCC-C,44430,2020-03-26 02:22:29.544,2020-03-26 02:31:49.521,559.977,12.368
1,VCC-NET,VCC-A,44428,2020-03-26 02:59:14.986,2020-03-26 03:09:28.998,614.012,18.626
2,VCC-NET,VCC-B,44431,2020-03-26 03:01:15.186,2020-03-26 03:11:31.776,616.59,19.137
3,VCC-NET,VCC-C,44430,2020-03-26 03:58:28.027,2020-03-26 04:09:40.709,672.682,61.084
4,VCC-NET,VCC-A,44428,2020-03-26 04:35:21.256,2020-03-26 04:46:43.729,682.473,76.864
5,VCC-NET,VCC-B,44431,2020-03-26 04:37:21.561,2020-03-26 04:48:43.596,682.035,80.883
6,VCC-NET,VCC-C,44430,2020-03-26 05:34:55.247,2020-03-26 05:44:38.058,582.811,19.738
7,VCC-NET,VCC-A,44428,2020-03-26 19:38:13.951,2020-03-26 19:46:41.992,508.041,10.041
8,VCC-NET,VCC-B,44431,2020-03-26 19:40:09.283,2020-03-26 19:49:01.213,531.93,10.591
9,VCC-NET,VCC-C,44430,2020-03-26 20:34:57.150,2020-03-26 20:46:04.012,666.862,49.324
10,VCC-NET,VCC-A,44428,2020-03-26 21:12:30.952,2020-03-26 21:24:01.820,690.868,82.925
11,VCC-NET,VCC-B,44431,2020-03-26 21:14:30.478,2020-03-26 21:26:01.480,691.002,87.047
12,VCC-NET,VCC-C,44430,2020-03-26 22:11:15.478,2020-03-26 22:22:13.012,657.534,25.031
13,VCC-NET,VCC-A,44428,2020-03-26 22:49:47.397,2020-03-26 23:00:10.861,623.464,15.625
14,VCC-NET,VCC-B,44431,2020-03-26 22:51:49.565,2020-03-26 23:02:10.511,620.946,15.259
15,VCC-NET,VCC-A,44428,2020-03-27 02:05:38.843,2020-03-27 02:15:06.740,567.897,12.892
16,VCC-NET,VCC-B,44431,2020-03-27 02:07:38.587,2020-03-27 02:17:09.173,570.586,13.173
17,VCC-NET,VCC-C,44430,2020-03-27 03:03:34.845,2020-03-27 03:14:22.561,647.716,30.468
18,VCC-NET,VCC-A,44428,2020-03-27 03:41:42.258,2020-03-27 03:53:00.025,677.767,65.759
19,VCC-NET,VCC-B,44431,2020-03-27 03:43:41.557,2020-03-27 03:55:00.213,678.656,69.183
20,VCC-NET,VCC-C,44430,2020-03-27 04:39:43.058,2020-03-27 04:50:29.290,646.232,43.796
21,VCC-NET,VCC-A,44428,2020-03-27 05:18:16.977,2020-03-27 05:27:55.736,578.759,18.661
22,VCC-NET,VCC-B,44431,2020-03-27 05:20:17.953,2020-03-27 05:29:50.757,572.804,17.812
23,VCC-NET,VCC-C,44430,2020-03-27 19:40:39.905,2020-03-27 19:50:52.092,612.187,21.616
24,VCC-NET,VCC-A,44428,2020-03-27 20:19:03.002,2020-03-27 20:30:17.243,674.241,55.064
25,VCC-NET,VCC-B,44431,2020-03-27 20:21:00.563,2020-03-27 20:32:16.577,676.014,58.292
26,VCC-NET,VCC-C,44430,2020-03-27 21:15:56.421,2020-03-27 21:27:17.515,681.094,47.44
27,VCC-NET,VCC-A,44428,2020-03-27 21:55:32.804,2020-03-27 22:06:30.484,657.68,23.755
28,VCC-NET,VCC-B,44431,2020-03-27 21:57:33.623,2020-03-27 22:08:29.223,655.6,23.011
29,VCC-NET,VCC-C,44430,2020-03-27 22:53:45.399,2020-03-27 23:02:58.324,552.925,11.031
30,VCC-NET,VCC-C,44430,2020-03-28 02:08:39.387,2020-03-28 02:18:49.505,610.118,18.561
31,VCC-NET,VCC-A,44428,2020-03-28 02:48:04.178,2020-03-28 02:58:59.685,655.507,33.07
32,VCC-NET,VCC-B,44431,2020-03-28 02:50:02.721,2020-03-28 03:01:00.083,657.362,34.343
33,VCC-NET,VCC-C,44430,2020-03-28 03:44:39.850,2020-03-28 03:55:57.928,678.078,77.846
34,VCC-NET,VCC-A,44428,2020-03-28 04:24:19.445,2020-03-28 04:35:03.719,644.274,39.471
35,VCC-NET,VCC-B,44431,2020-03-28 04:26:18.829,2020-03-28 04:37:00.120,641.291,37.455
36,VCC-NET,VCC-A,44428,2020-03-28 19:25:55.883,2020-03-28 19:36:23.098,627.215,24.535
37,VCC-NET,VCC-B,44431,2020-03-28 19:27:51.186,2020-03-28 19:38:22.462,631.276,25.724
38,VCC-NET,VCC-C,44430,2020-03-28 20:20:51.773,2020-03-28 20:32:18.825,687.052,82.054
39,VCC-NET,VCC-A,44428,2020-03-28 21:01:28.308,2020-03-28 21:12:50.366,682.058,42.497
40,VCC-NET,VCC-B,44431,2020-03-28 21:03:27.649,2020-03-28 21:14:48.442,680.793,40.667
41,VCC-NET,VCC-C,44430,2020-03-28 21:58:02.267,2020-03-28 22:08:21.935,619.668,15.522
42,VCC-NET,VCC-A,44428,2020-03-28 22:39:27.287,2020-03-28 22:48:37.923,550.636,10.675
43,VCC-NET,VCC-B,44431,2020-03-28 22:41:51.069,2020-03-28 22:50:36.489,525.42,10.488
44,VCC-NET,VCC-C,44430,2020-03-29 01:13:43.181,2020-03-29 01:23:05.280,562.099,12.614
45,VCC-NET,VCC-A,44428,2020-03-29 01:54:24.384,2020-03-29 02:04:45.316,620.932,20.157
46,VCC-NET,VCC-B,44431,2020-03-29 01:56:22.410,2020-03-29 02:06:45.802,623.392,20.726
47,VCC-NET,VCC-C,44430,2020-03-29 02:49:40.873,2020-03-29 03:00:53.964,673.091,64.264
48,VCC-NET,VCC-A,44428,2020-03-29 03:30:30.929,2020-03-29 03:41:51.211,680.282,88.909
49,VCC-NET,VCC-B,44431,2020-03-29 03:32:29.182,2020-03-29 03:43:48.734,679.552,86.851
50,VCC-NET,VCC-C,44430,2020-03-29 04:26:09.428,2020-03-29 04:35:45.880,576.452,18.798
51,VCC-NET,VCC-A,44428,2020-03-29 18:33:07.788,2020-03-29 18:42:12.798,545.01,11.714
52,VCC-NET,VCC-B,44431,2020-03-29 18:35:01.689,2020-03-29 18:44:12.829,551.14,12.31
53,VCC-NET,VCC-C,44430,2020-03-29 19:26:04.886,2020-03-29 19:37:13.681,668.795,52.161
54,VCC-NET,VCC-A,44428,2020-03-29 20:07:36.729,2020-03-29 20:19:07.850,691.121,88.545
55,VCC-NET,VCC-B,44431,2020-03-29 20:09:34.501,2020-03-29 20:21:05.500,690.999,87.242
56,VCC-NET,VCC-C,44430,2020-03-29 21:02:26.267,2020-03-29 21:13:21.653,655.386,24.221
57,VCC-NET,VCC-A,44428,2020-03-29 21:45:00.744,2020-03-29 21:55:16.697,615.953,14.584
58,VCC-NET,VCC-B,44431,2020-03-29 21:47:01.016,2020-03-29 21:57:14.446,613.43,14.26
59,VCC-NET,VCC-A,44428,2020-03-30 01:00:44.869,2020-03-30 01:10:20.081,575.212,13.72
60,VCC-NET,VCC-B,44431,2020-03-30 01:02:37.819,2020-03-30 01:12:20.484,582.665,14.027
61,VCC-NET,VCC-C,44430,2020-03-30 01:54:42.794,2020-03-30 02:05:31.841,649.047,31.521
62,VCC-NET,VCC-A,44428,2020-03-30 02:36:46.940,2020-03-30 02:48:06.497,679.557,76.205
63,VCC-NET,VCC-B,44431,2020-03-30 02:38:44.367,2020-03-30 02:50:04.572,680.205,80.035
64,VCC-NET,VCC-C,44430,2020-03-30 03:30:51.452,2020-03-30 03:41:34.447,642.995,41.503
65,VCC-NET,VCC-A,44428,2020-03-30 04:13:26.640,2020-03-30 04:23:07.006,580.366,16.252
66,VCC-NET,VCC-B,44431,2020-03-30 04:15:25.940,2020-03-30 04:25:00.277,574.337,15.515
67,VCC-NET,VCC-C,44430,2020-03-30 18:31:41.112,2020-03-30 18:41:57.636,616.524,22.599
68,VCC-NET,VCC-A,44428,2020-03-30 19:14:00.911,2020-03-30 19:25:20.134,679.223,65.024
69,VCC-NET,VCC-B,44431,2020-03-30 19:15:56.993,2020-03-30 19:27:17.619,680.626,68.742
70,VCC-NET,VCC-C,44430,2020-03-30 20:07:01.401,2020-03-30 20:18:21.344,679.943,45.365
71,VCC-NET,VCC-A,44428,2020-03-30 20:50:39.982,2020-03-30 21:01:31.505,651.523,21.685
72,VCC-NET,VCC-B,44431,2020-03-30 20:52:39.160,2020-03-30 21:03:28.524,649.364,21.046
73,VCC-NET,VCC-C,44430,2020-03-30 21:44:51.998,2020-03-30 21:54:02.149,550.151,10.828
74,VCC-NET,VCC-A,44428,2020-03-31 00:07:29.003,2020-03-31 00:16:07.509,518.506,10.076
75,VCC-NET,VCC-B,44431,2020-03-31 00:09:26.488,2020-03-31 00:18:07.285,520.797,10.252
76,VCC-NET,VCC-C,44430,2020-03-31 00:59:42.615,2020-03-31 01:09:54.543,611.928,19.004
77,VCC-NET,VCC-A,44428,2020-03-31 01:43:04.396,2020-03-31 01:54:04.579,660.183,36.943
78,VCC-NET,VCC-B,44431,2020-03-31 01:45:01.244,2020-03-31 01:56:03.095,661.851,38.445
79,VCC-NET,VCC-C,44430,2020-03-31 02:35:42.892,2020-03-31 02:46:59.960,677.068,81.59
80,VCC-NET,VCC-A,44428,2020-03-31 03:19:22.083,2020-03-31 03:29:56.642,634.559,33.931
81,VCC-NET,VCC-B,44431,2020-03-31 03:21:19.908,2020-03-31 03:31:51.072,631.164,32.286
82,VCC-NET,VCC-C,44430,2020-03-31 17:37:36.706,2020-03-31 17:46:22.675,525.969,10.303
83,VCC-NET,VCC-A,44428,2020-03-31 18:20:44.935,2020-03-31 18:31:23.650,638.715,28.184
84,VCC-NET,VCC-B,44431,2020-03-31 18:22:39.070,2020-03-31 18:33:21.301,642.231,29.573
85,VCC-NET,VCC-C,44430,2020-03-31 19:11:50.841,2020-03-31 19:23:17.995,687.154,85.779
86,VCC-NET,VCC-A,44428,2020-03-31 19:56:28.769,2020-03-31 20:07:47.086,678.317,37.525
87,VCC-NET,VCC-B,44431,2020-03-31 19:58:26.730,2020-03-31 20:09:43.622,676.892,36.031
88,VCC-NET,VCC-C,44430,2020-03-31 20:49:03.495,2020-03-31 20:59:20.700,617.205,15.184
89,VCC-NET,VCC-A,44428,2020-03-31 21:34:54.962,2020-03-31 21:43:35.877,520.915,10.147
90,VCC-NET,VCC-C,44430,2020-04-01 00:04:41.819,2020-04-01 00:14:05.770,563.951,12.836
91,VCC-NET,VCC-A,44428,2020-04-01 00:49:20.637,2020-04-01 00:59:48.042,627.405,21.834
92,VCC-NET,VCC-B,44431,2020-04-01 00:51:17.145,2020-04-01 01:01:46.886,629.741,22.472
93,VCC-NET,VCC-C,44430,2020-04-01 01:40:38.814,2020-04-01 01:51:52.162,673.348,67.217
94,VCC-NET,VCC-A,44428,2020-04-01 02:25:27.767,2020-04-01 02:36:37.579,669.812,79.036
95,VCC-NET,VCC-B,44431,2020-04-01 02:27:24.620,2020-04-01 02:38:33.077,668.457,75.009
96,VCC-NET,VCC-C,44430,2020-04-01 03:17:08.572,2020-04-01 03:26:39.167,570.595,18.005
97,VCC-NET,VCC-A,44428,2020-04-01 17:27:50.326,2020-04-01 17:37:12.544,562.218,13.493
98,VCC-NET,VCC-B,44431,2020-04-01 17:29:43.336,2020-04-01 17:39:10.922,567.586,14.145
99,VCC-NET,VCC-C,44430,2020-04-01 18:16:57.925,2020-04-01 18:28:08.354,670.429,54.801
100,VCC-NET,VCC-A,44428,2020-04-01 19:02:30.040,2020-04-01 19:14:00.746,690.706,79.66
101,VCC-NET,VCC-B,44431,2020-04-01 19:04:26.685,2020-04-01 19:15:57.031,690.346,75.781
102,VCC-NET,VCC-C,44430,2020-04-01 19:53:21.905,2020-04-01 20:04:15.413,653.508,23.547
103,VCC-NET,VCC-A,44428,2020-04-01 20:40:01.013,2020-04-01 20:50:09.695,608.682,13.684
104,VCC-NET,VCC-B,44431,2020-04-01 20:42:00.026,2020-04-01 20:52:06.195,606.169,13.395
105,VCC-NET,VCC-A,44428,2020-04-01 23:55:32.868,2020-04-02 00:05:19.935,587.067,14.606
106,VCC-NET,VCC-B,44431,2020-04-01 23:57:29.292,2020-04-02 00:07:18.958,589.666,14.943
107,VCC-NET,VCC-C,44430,2020-04-02 00:45:35.812,2020-04-02 00:56:25.952,650.14,32.489
108,VCC-NET,VCC-A,44428,2020-04-02 01:31:38.693,2020-04-02 01:42:59.351,680.658,87.368
109,VCC-NET,VCC-B,44431,2020-04-02 01:33:34.894,2020-04-02 01:44:55.965,681.071,88.55
110,VCC-NET,VCC-C,44430,2020-04-02 02:21:44.865,2020-04-02 02:32:24.864,639.999,39.616
111,VCC-NET,VCC-A,44428,2020-04-02 03:08:23.805,2020-04-02 03:17:22.166,538.361,14.192
112,VCC-NET,VCC-B,44431,2020-04-02 03:10:22.101,2020-04-02 03:19:14.196,532.095,13.538
113,VCC-NET,VCC-C,44430,2020-04-02 17:22:27.854,2020-04-02 17:32:48.053,620.199,23.497
114,VCC-NET,VCC-A,44428,2020-04-02 18:08:46.592,2020-04-02 18:20:09.731,683.139,76.015
115,VCC-NET,VCC-B,44431,2020-04-02 18:10:41.802,2020-04-02 18:22:06.023,684.221,80.073
116,VCC-NET,VCC-C,44430,2020-04-02 18:57:51.327,2020-04-02 19:09:10.263,678.936,43.674
117,VCC-NET,VCC-A,44428,2020-04-02 19:45:34.243,2020-04-02 19:56:19.597,645.354,19.964
118,VCC-NET,VCC-B,44431,2020-04-02 19:47:32.431,2020-04-02 19:58:15.545,643.114,19.44
119,VCC-NET,VCC-C,44430,2020-04-02 20:35:43.258,2020-04-02 20:44:51.045,547.787,10.658
120,VCC-NET,VCC-A,44428,2020-04-02 23:02:18.100,2020-04-02 23:11:02.740,524.64,10.575
121,VCC-NET,VCC-B,44431,2020-04-02 23:04:14.439,2020-04-02 23:13:01.406,526.967,10.767
122,VCC-NET,VCC-C,44430,2020-04-02 23:50:30.863,2020-04-03 00:00:44.325,613.462,19.402
123,VCC-NET,VCC-A,44428,2020-04-03 00:37:51.588,2020-04-03 00:48:55.842,664.254,41.417
124,VCC-NET,VCC-B,44431,2020-04-03 00:39:47.391,2020-04-03 00:50:53.132,665.741,43.203
125,VCC-NET,VCC-C,44430,2020-04-03 01:26:30.972,2020-04-03 01:37:47.052,676.08,84.915
126,VCC-NET,VCC-A,44428,2020-04-03 02:14:11.973,2020-04-03 02:24:35.901,623.928,29.487
127,VCC-NET,VCC-B,44431,2020-04-03 02:16:08.888,2020-04-03 02:26:28.984,620.096,28.113
128,VCC-NET,VCC-C,44430,2020-04-03 16:28:17.877,2020-04-03 16:37:09.324,531.447,10.74
129,VCC-NET,VCC-A,44428,2020-04-03 17:15:22.156,2020-04-03 17:26:10.651,648.495,32.346
130,VCC-NET,VCC-B,44431,2020-04-03 17:17:15.711,2020-04-03 17:28:07.262,651.551,33.985
131,VCC-NET,VCC-C,44430,2020-04-03 18:02:34.983,2020-04-03 18:14:02.204,687.221,89.004
132,VCC-NET,VCC-A,44428,2020-04-03 18:51:16.477,2020-04-03 19:02:30.780,674.303,33.552
133,VCC-NET,VCC-B,44431,2020-04-03 18:53:13.693,2020-04-03 19:04:26.426,672.733,32.305
134,VCC-NET,VCC-C,44430,2020-04-03 19:39:49.431,2020-04-03 19:50:04.535,615.104,14.903
135,VCC-NET,VCC-C,44430,2020-04-03 22:55:25.419,2020-04-03 23:04:50.953,565.534,13.034
136,VCC-NET,VCC-A,44428,2020-04-03 23:44:03.746,2020-04-03 23:54:37.168,633.422,23.672
137,VCC-NET,VCC-B,44431,2020-04-03 23:45:59.390,2020-04-03 23:56:35.032,635.642,24.395
138,VCC-NET,VCC-C,44430,2020-04-04 00:31:21.795,2020-04-04 00:42:35.282,673.487,69.877
139,VCC-NET,VCC-A,44428,2020-04-04 01:20:11.731,2020-04-04 01:31:16.927,665.196,68.043
140,VCC-NET,VCC-B,44431,2020-04-04 01:22:07.832,2020-04-04 01:33:11.364,663.532,64.412
141,VCC-NET,VCC-C,44430,2020-04-04 02:07:52.597,2020-04-04 02:17:37.465,584.868,17.344
142,VCC-NET,VCC-A,44428,2020-04-04 16:22:21.267,2020-04-04 16:31:58.229,576.962,15.391
143,VCC-NET,VCC-B,44431,2020-04-04 16:24:13.966,2020-04-04 16:33:55.662,581.696,16.113
144,VCC-NET,VCC-C,44430,2020-04-04 17:07:36.193,2020-04-04 17:18:47.990,671.797,57.179
145,VCC-NET,VCC-A,44428,2020-04-04 17:57:10.777,2020-04-04 18:08:40.499,689.722,69.208
146,VCC-NET,VCC-B,44431,2020-04-04 17:59:06.916,2020-04-04 18:10:36.079,689.163,65.785
147,VCC-NET,VCC-C,44430,2020-04-04 18:44:02.326,2020-04-04 18:54:54.243,651.917,22.995
148,VCC-NET,VCC-A,44428,2020-04-04 19:34:48.101,2020-04-04 19:44:49.823,601.722,12.903
149,VCC-NET,VCC-B,44431,2020-04-04 19:36:46.509,2020-04-04 19:46:45.724,599.215,12.642
150,VCC-NET,VCC-A,44428,2020-04-04 22:50:12.399,2020-04-04 23:00:06.259,593.86,15.553
151,VCC-NET,VCC-B,44431,2020-04-04 22:52:08.128,2020-04-04 23:02:04.558,596.43,15.923
152,VCC-NET,VCC-C,44430,2020-04-04 23:36:13.850,2020-04-04 23:47:04.866,651.016,33.355
153,VCC-NET,VCC-A,44428,2020-04-05 00:26:17.482,2020-04-05 00:37:38.599,681.117,81.411
154,VCC-NET,VCC-B,44431,2020-04-05 00:28:13.106,2020-04-05 00:39:34.404,681.298,83.406
155,VCC-NET,VCC-C,44430,2020-04-05 01:12:23.222,2020-04-05 01:23:00.533,637.311,38.083
156,VCC-NET,VCC-A,44428,2020-04-05 02:03:08.441,2020-04-05 02:12:01.330,532.889,12.409
157,VCC-NET,VCC-B,44431,2020-04-05 02:05:06.413,2020-04-05 02:13:53.172,526.759,11.818
158,VCC-NET,VCC-C,44430,2020-04-05 16:13:00.048,2020-04-05 16:23:23.316,623.268,24.293
159,VCC-NET,VCC-A,44428,2020-04-05 17:03:19.906,2020-04-05 17:14:46.037,686.131,87.359
160,VCC-NET,VCC-B,44431,2020-04-05 17:05:14.863,2020-04-05 17:16:41.799,686.936,88.415
161,VCC-NET,VCC-C,44430,2020-04-05 17:48:26.137,2020-04-05 17:59:44.226,678.089,42.315
162,VCC-NET,VCC-A,44428,2020-04-05 18:40:15.506,2020-04-05 18:50:54.732,639.226,18.573
163,VCC-NET,VCC-B,44431,2020-04-05 18:42:13.345,2020-04-05 18:52:50.261,636.916,18.106
164,VCC-NET,VCC-C,44430,2020-04-05 19:26:41.969,2020-04-05 19:35:24.950,522.981,10.519
165,VCC-NET,VCC-A,44428,2020-04-05 21:56:19.645,2020-04-05 22:05:44.589,564.944,11.106
166,VCC-NET,VCC-B,44431,2020-04-05 21:58:15.683,2020-04-05 22:07:42.804,567.121,11.317
167,VCC-NET,VCC-C,44430,2020-04-05 22:41:04.088,2020-04-05 22:51:18.819,614.731,19.749
168,VCC-NET,VCC-A,44428,2020-04-05 23:32:25.730,2020-04-05 23:43:33.476,667.746,46.579
169,VCC-NET,VCC-B,44431,2020-04-05 23:34:21.140,2020-04-05 23:45:30.197,669.057,48.713
170,VCC-NET,VCC-C,44430,2020-04-06 00:17:04.034,2020-04-06 00:28:19.181,675.147,87.785
171,VCC-NET,VCC-A,44428,2020-04-06 01:08:49.071,2020-04-06 01:19:01.505,612.434,25.866
172,VCC-NET,VCC-B,44431,2020-04-06 01:10:45.740,2020-04-06 01:20:53.864,608.124,24.693
173,VCC-NET,VCC-C,44430,2020-04-06 15:18:44.627,2020-04-06 15:27:40.588,535.961,11.117
174,VCC-NET,VCC-A,44428,2020-04-06 16:09:47.353,2020-04-06 16:20:44.144,656.791,37.102
175,VCC-NET,VCC-B,44431,2020-04-06 16:11:40.923,2020-04-06 16:22:40.385,659.462,39.055
176,VCC-NET,VCC-C,44430,2020-04-06 16:53:04.130,2020-04-06 17:04:31.412,687.282,88.242
177,VCC-NET,VCC-A,44428,2020-04-06 17:45:51.337,2020-04-06 17:57:01.427,670.09,30.33
178,VCC-NET,VCC-B,44431,2020-04-06 17:47:48.454,2020-04-06 17:58:56.835,668.381,29.268
179,VCC-NET,VCC-C,44430,2020-04-06 18:30:20.013,2020-04-06 18:40:33.389,613.376,14.675
180,VCC-NET,VCC-C,44430,2020-04-06 21:45:53.928,2020-04-06 21:55:20.788,566.86,13.203
181,VCC-NET,VCC-A,44428,2020-04-06 22:38:33.696,2020-04-06 22:49:12.671,638.975,25.69
182,VCC-NET,VCC-B,44431,2020-04-06 22:40:29.124,2020-04-06 22:51:10.212,641.088,26.514
183,VCC-NET,VCC-C,44430,2020-04-06 23:21:49.761,2020-04-06 23:33:03.298,673.537,72.186
184,VCC-NET,VCC-A,44428,2020-04-07 00:14:42.781,2020-04-07 00:25:42.712,659.931,58.572
185,VCC-NET,VCC-B,44431,2020-04-07 00:16:38.785,2020-04-07 00:27:36.738,657.953,55.418
186,VCC-NET,VCC-C,44430,2020-04-07 00:58:21.429,2020-04-07 01:08:02.082,580.653,16.806
187,VCC-NET,VCC-A,44428,2020-04-07 15:16:39.504,2020-04-07 15:26:29.990,590.486,17.423
188,VCC-NET,VCC-B,44431,2020-04-07 15:18:31.197,2020-04-07 15:28:27.174,595.977,18.232
189,VCC-NET,VCC-C,44430,2020-04-07 15:57:59.620,2020-04-07 16:09:12.553,672.933,59.238
190,VCC-NET,VCC-A,44428,2020-04-07 16:51:38.818,2020-04-07 17:03:07.106,688.288,60.411
191,VCC-NET,VCC-B,44431,2020-04-07 16:53:35.094,2020-04-07 17:05:02.636,687.542,57.475
192,VCC-NET,VCC-C,44430,2020-04-07 17:34:27.469,2020-04-07 17:45:18.093,650.624,22.554
193,VCC-NET,VCC-A,44428,2020-04-07 18:29:21.939,2020-04-07 18:39:17.033,595.094,12.223
194,VCC-NET,VCC-B,44431,2020-04-07 18:31:20.385,2020-04-07 18:41:12.990,592.605,11.986
195,VCC-NET,VCC-A,44428,2020-04-07 21:44:38.633,2020-04-07 21:54:39.020,600.387,16.56
196,VCC-NET,VCC-B,44431,2020-04-07 21:46:34.332,2020-04-07 21:56:37.252,602.92,16.97
197,VCC-NET,VCC-C,44430,2020-04-07 22:26:36.858,2020-04-07 22:37:28.556,651.698,34.1
198,VCC-NET,VCC-A,44428,2020-04-07 23:20:43.268,2020-04-07 23:32:04.257,680.989,89.593
199,VCC-NET,VCC-B,44431,2020-04-07 23:22:38.970,2020-04-07 23:33:59.908,680.938,89.662
200,VCC-NET,VCC-C,44430,2020-04-08 00:02:46.462,2020-04-08 00:13:21.441,634.979,36.866
201,VCC-NET,VCC-A,44428,2020-04-08 00:57:40.529,2020-04-08 01:06:15.820,515.291,10.848
202,VCC-NET,VCC-B,44431,2020-04-08 00:59:38.869,2020-04-08 01:08:07.280,508.411,10.304
203,VCC-NET,VCC-C,44430,2020-04-08 15:03:17.609,2020-04-08 15:13:43.382,625.773,24.973
204,VCC-NET,VCC-A,44428,2020-04-08 15:57:40.725,2020-04-08 16:09:09.059,688.334,87.221
205,VCC-NET,VCC-B,44431,2020-04-08 15:59:36.058,2020-04-08 16:11:04.950,688.892,83.284
206,VCC-NET,VCC-C,44430,2020-04-08 16:38:45.765,2020-04-08 16:50:03.185,677.42,41.252
207,VCC-NET,VCC-A,44428,2020-04-08 17:34:43.662,2020-04-08 17:45:16.878,633.216,17.379
208,VCC-NET,VCC-B,44431,2020-04-08 17:36:41.801,2020-04-08 17:47:12.641,630.84,16.957
209,VCC-NET,VCC-C,44430,2020-04-08 18:17:02.266,2020-04-08 18:25:43.811,521.545,10.409
210,VCC-NET,VCC-A,44428,2020-04-08 20:50:42.524,2020-04-08 21:00:13.010,570.486,11.669
211,VCC-NET,VCC-B,44431,2020-04-08 20:52:38.714,2020-04-08 21:02:11.424,572.71,11.9
212,VCC-NET,VCC-C,44430,2020-04-08 21:31:22.237,2020-04-08 21:41:37.986,615.749,20.04
213,VCC-NET,VCC-A,44428,2020-04-08 22:26:46.786,2020-04-08 22:37:57.493,670.707,52.503
214,VCC-NET,VCC-B,44431,2020-04-08 22:28:42.453,2020-04-08 22:39:54.308,671.855,55.046
215,VCC-NET,VCC-C,44430,2020-04-08 23:07:22.013,2020-04-08 23:18:36.327,674.314,89.807
216,VCC-NET,VCC-A,44428,2020-04-09 00:03:13.331,2020-04-09 00:13:13.469,600.138,22.871
217,VCC-NET,VCC-B,44431,2020-04-09 00:05:10.420,2020-04-09 00:15:05.724,595.304,21.846
218,VCC-NET,VCC-C,44430,2020-04-09 14:08:56.862,2020-04-09 14:17:56.444,539.582,11.431
219,VCC-NET,VCC-A,44428,2020-04-09 15:04:00.340,2020-04-09 15:15:04.155,663.815,42.534
220,VCC-NET,VCC-B,44431,2020-04-09 15:05:54.553,2020-04-09 15:17:00.700,666.147,44.867
221,VCC-NET,VCC-C,44430,2020-04-09 15:43:18.218,2020-04-09 15:54:45.571,687.353,87.323
222,VCC-NET,VCC-A,44428,2020-04-09 16:40:13.250,2020-04-09 16:51:19.000,665.75,27.682
223,VCC-NET,VCC-B,44431,2020-04-09 16:42:10.907,2020-04-09 16:53:14.831,663.924,26.759
224,VCC-NET,VCC-C,44430,2020-04-09 17:20:35.188,2020-04-09 17:30:47.208,612.02,14.497
225,VCC-NET,VCC-C,44430,2020-04-09 20:36:07.304,2020-04-09 20:45:35.231,567.927,13.342
226,VCC-NET,VCC-A,44428,2020-04-09 21:32:50.465,2020-04-09 21:43:34.541,644.076,27.905
227,VCC-NET,VCC-B,44431,2020-04-09 21:34:46.338,2020-04-09 21:45:32.424,646.086,28.853
228,VCC-NET,VCC-C,44430,2020-04-09 22:12:02.657,2020-04-09 22:23:16.179,673.522,74.098
229,VCC-NET,VCC-A,44428,2020-04-09 23:09:00.869,2020-04-09 23:19:54.961,654.092,50.713
230,VCC-NET,VCC-B,44431,2020-04-09 23:10:57.436,2020-04-09 23:21:49.207,651.771,48.01
231,VCC-NET,VCC-C,44430,2020-04-09 23:48:34.994,2020-04-09 23:58:12.116,577.122,16.38
232,VCC-NET,VCC-A,44428,2020-04-10 14:10:43.349,2020-04-10 14:20:47.922,604.573,19.606
233,VCC-NET,VCC-B,44431,2020-04-10 14:12:36.001,2020-04-10 14:22:45.549,609.548,20.521
234,VCC-NET,VCC-C,44430,2020-04-10 14:48:08.142,2020-04-10 14:59:21.994,673.852,60.933
235,VCC-NET,VCC-A,44428,2020-04-10 15:45:54.067,2020-04-10 15:57:20.546,686.479,53.208
236,VCC-NET,VCC-B,44431,2020-04-10 15:47:51.123,2020-04-10 15:59:16.685,685.562,50.708
237,VCC-NET,VCC-C,44430,2020-04-10 16:24:37.282,2020-04-10 16:35:26.909,649.627,22.216
238,VCC-NET,VCC-A,44428,2020-04-10 17:23:42.432,2020-04-10 17:33:31.285,588.853,11.631
239,VCC-NET,VCC-B,44431,2020-04-10 17:25:41.575,2020-04-10 17:35:01.006,559.431,11.412
240,VCC-NET,VCC-A,44428,2020-04-10 20:38:51.567,2020-04-10 20:48:58.180,606.613,17.63
241,VCC-NET,VCC-B,44431,2020-04-10 20:40:47.891,2020-04-10 20:50:57.010,609.119,18.084
242,VCC-NET,VCC-C,44430,2020-04-10 21:16:44.782,2020-04-10 21:27:36.986,652.204,34.71
243,VCC-NET,VCC-A,44428,2020-04-10 22:14:56.014,2020-04-10 22:26:16.333,680.319,83.977
244,VCC-NET,VCC-B,44431,2020-04-10 22:16:52.450,2020-04-10 22:28:12.481,680.031,79.965
245,VCC-NET,VCC-C,44430,2020-04-10 22:52:54.525,2020-04-10 23:03:27.569,633.044,35.932
246,VCC-NET,VCC-C,44430,2020-04-11 13:53:20.478,2020-04-11 14:03:48.211,627.733,25.523
247,VCC-NET,VCC-A,44428,2020-04-11 14:51:48.933,2020-04-11 15:03:18.796,689.863,77.365
248,VCC-NET,VCC-B,44431,2020-04-11 14:53:45.278,2020-04-11 15:05:15.485,690.207,78.876
249,VCC-NET,VCC-C,44430,2020-04-11 15:28:50.162,2020-04-11 15:40:07.089,676.927,40.455
250,VCC-NET,VCC-A,44428,2020-04-11 16:28:58.638,2020-04-11 16:39:25.999,627.361,16.347
251,VCC-NET,VCC-B,44431,2020-04-11 16:30:57.737,2020-04-11 16:41:22.660,624.923,15.962
252,VCC-NET,VCC-C,44430,2020-04-11 17:07:07.095,2020-04-11 17:15:47.567,520.472,10.326
253,VCC-NET,VCC-A,44428,2020-04-11 19:44:51.994,2020-04-11 19:54:12.000,560.006,12.261
254,VCC-NET,VCC-B,44431,2020-04-11 19:46:49.001,2020-04-11 19:56:11.591,562.59,12.515
255,VCC-NET,VCC-C,44430,2020-04-11 20:21:25.271,2020-04-11 20:31:41.789,616.518,20.27
256,VCC-NET,VCC-A,44428,2020-04-11 21:20:54.726,2020-04-11 21:32:07.898,673.172,59.22
257,VCC-NET,VCC-B,44431,2020-04-11 21:22:51.309,2020-04-11 21:34:05.455,674.146,62.222
258,VCC-NET,VCC-C,44430,2020-04-11 21:57:24.859,2020-04-11 22:08:38.463,673.604,87.96
259,VCC-NET,VCC-A,44428,2020-04-11 22:57:24.696,2020-04-11 23:07:11.796,587.1,20.359
260,VCC-NET,VCC-B,44431,2020-04-11 22:59:22.875,2020-04-11 23:09:04.558,581.683,19.445
261,VCC-NET,VCC-C,44430,2020-04-12 12:58:54.520,2020-04-12 13:07:56.861,542.341,11.676
262,VCC-NET,VCC-A,44428,2020-04-12 13:58:00.980,2020-04-12 14:09:10.703,669.723,48.695
263,VCC-NET,VCC-B,44431,2020-04-12 13:59:56.446,2020-04-12 14:11:08.230,671.784,51.473
264,VCC-NET,VCC-C,44430,2020-04-12 14:33:17.194,2020-04-12 14:44:44.629,687.435,89.025
265,VCC-NET,VCC-A,44428,2020-04-12 15:34:22.122,2020-04-12 15:45:23.476,661.354,25.478
266,VCC-NET,VCC-B,44431,2020-04-12 15:36:20.978,2020-04-12 15:47:20.388,659.41,24.66
267,VCC-NET,VCC-C,44430,2020-04-12 16:10:34.902,2020-04-12 16:20:45.939,611.037,14.365
268,VCC-NET,VCC-C,44430,2020-04-12 19:26:05.505,2020-04-12 19:35:34.237,568.732,13.45
269,VCC-NET,VCC-A,44428,2020-04-12 20:26:54.035,2020-04-12 20:37:42.778,648.743,30.337
270,VCC-NET,VCC-B,44431,2020-04-12 20:28:51.009,2020-04-12 20:39:41.658,650.649,31.434
271,VCC-NET,VCC-C,44430,2020-04-12 21:02:00.431,2020-04-12 21:13:13.896,673.465,75.576
272,VCC-NET,VCC-A,44428,2020-04-12 22:03:05.947,2020-04-12 22:13:53.682,647.735,44.295
273,VCC-NET,VCC-B,44431,2020-04-12 22:05:03.743,2020-04-12 22:15:48.792,645.049,41.974
274,VCC-NET,VCC-C,44430,2020-04-12 22:38:33.218,2020-04-12 22:48:07.558,574.34,16.062
275,VCC-NET,VCC-A,44428,2020-04-13 13:04:35.343,2020-04-13 13:14:52.095,616.752,21.954
276,VCC-NET,VCC-B,44431,2020-04-13 13:06:29.544,2020-04-13 13:16:50.851,621.307,23.0
277,VCC-NET,VCC-C,44430,2020-04-13 13:38:01.699,2020-04-13 13:49:16.266,674.567,62.226
278,VCC-NET,VCC-A,44428,2020-04-13 14:39:56.428,2020-04-13 14:51:20.802,684.374,47.374
279,VCC-NET,VCC-B,44431,2020-04-13 14:41:54.909,2020-04-13 14:53:18.210,683.301,45.231
280,VCC-NET,VCC-C,44430,2020-04-13 15:14:31.701,2020-04-13 15:25:20.638,648.937,21.973
281,VCC-NET,VCC-A,44428,2020-04-13 16:17:49.514,2020-04-13 16:27:05.356,555.842,11.114
282,VCC-NET,VCC-B,44431,2020-04-13 16:19:50.009,2020-04-13 16:29:03.236,553.227,10.911
283,VCC-NET,VCC-A,44428,2020-04-13 19:32:51.194,2020-04-13 19:43:03.716,612.522,18.761
284,VCC-NET,VCC-B,44431,2020-04-13 19:34:48.807,2020-04-13 19:45:03.810,615.003,19.269
285,VCC-NET,VCC-C,44430,2020-04-13 20:06:37.572,2020-04-13 20:17:30.114,652.542,35.169
286,VCC-NET,VCC-A,44428,2020-04-13 21:08:55.677,2020-04-13 21:20:14.841,679.164,78.931
287,VCC-NET,VCC-B,44431,2020-04-13 21:10:53.506,2020-04-13 21:22:12.139,678.633,82.98
288,VCC-NET,VCC-C,44430,2020-04-13 21:42:47.349,2020-04-13 21:53:18.889,631.54,35.26
289,VCC-NET,VCC-A,44428,2020-04-14 12:11:27.336,2020-04-14 12:20:15.394,528.058,10.271
290,VCC-NET,VCC-B,44431,2020-04-14 12:13:21.127,2020-04-14 12:22:16.144,535.017,10.826
291,VCC-NET,VCC-C,44430,2020-04-14 12:43:08.587,2020-04-14 12:53:37.759,629.172,25.93
292,VCC-NET,VCC-A,44428,2020-04-14 13:45:44.419,2020-04-14 13:57:15.233,690.814,84.513
293,VCC-NET,VCC-B,44431,2020-04-14 13:47:42.420,2020-04-14 13:59:13.383,690.963,88.515
294,VCC-NET,VCC-C,44430,2020-04-14 14:18:39.267,2020-04-14 14:29:55.887,676.62,39.902
295,VCC-NET,VCC-A,44428,2020-04-14 15:23:00.352,2020-04-14 15:33:22.053,621.701,15.452
296,VCC-NET,VCC-B,44431,2020-04-14 15:25:01.061,2020-04-14 15:35:20.271,619.21,15.095
297,VCC-NET,VCC-C,44430,2020-04-14 15:56:56.409,2020-04-14 16:05:36.168,519.759,10.27
298,VCC-NET,VCC-A,44428,2020-04-14 18:38:48.053,2020-04-14 18:48:14.163,566.11,12.879
299,VCC-NET,VCC-B,44431,2020-04-14 18:40:46.549,2020-04-14 18:50:15.291,568.742,13.159
300,VCC-NET,VCC-C,44430,2020-04-14 19:11:13.137,2020-04-14 19:21:30.183,617.046,20.435
301,VCC-NET,VCC-A,44428,2020-04-14 20:14:49.519,2020-04-14 20:26:04.685,675.166,66.685
302,VCC-NET,VCC-B,44431,2020-04-14 20:16:47.677,2020-04-14 20:28:03.659,675.982,70.155
303,VCC-NET,VCC-C,44430,2020-04-14 20:47:12.513,2020-04-14 20:58:25.553,673.04,86.648
304,VCC-NET,VCC-A,44428,2020-04-14 21:51:23.106,2020-04-14 22:00:56.493,573.387,18.225
305,VCC-NET,VCC-B,44431,2020-04-14 21:53:23.054,2020-04-14 22:03:09.909,586.855,17.395
306,VCC-NET,VCC-C,44430,2020-04-15 11:48:37.520,2020-04-15 11:57:41.802,544.282,11.85
307,VCC-NET,VCC-A,44428,2020-04-15 12:51:49.133,2020-04-15 13:03:03.804,674.671,55.586
308,VCC-NET,VCC-B,44431,2020-04-15 12:53:46.490,2020-04-15 13:05:02.972,676.482,58.856
309,VCC-NET,VCC-C,44430,2020-04-15 13:23:01.000,2020-04-15 13:34:28.541,687.541,89.548
310,VCC-NET,VCC-A,44428,2020-04-15 14:28:17.875,2020-04-15 14:39:14.817,656.942,23.623
311,VCC-NET,VCC-B,44431,2020-04-15 14:30:18.585,2020-04-15 14:41:13.472,654.887,22.885
312,VCC-NET,VCC-C,44430,2020-04-15 15:00:19.105,2020-04-15 15:10:29.521,610.416,14.279
313,VCC-NET,VCC-C,44430,2020-04-15 18:15:48.484,2020-04-15 18:25:17.759,569.275,13.523
314,VCC-NET,VCC-A,44428,2020-04-15 19:20:44.383,2020-04-15 19:31:37.360,652.977,33.003
315,VCC-NET,VCC-B,44431,2020-04-15 19:22:43.119,2020-04-15 19:33:37.915,654.796,34.283
316,VCC-NET,VCC-C,44430,2020-04-15 19:51:43.030,2020-04-15 20:02:56.408,673.378,76.585
317,VCC-NET,VCC-A,44428,2020-04-15 20:56:57.965,2020-04-15 21:07:38.894,640.929,39.069
318,VCC-NET,VCC-B,44431,2020-04-15 20:58:57.648,2020-04-15 21:09:35.509,637.861,37.055
319,VCC-NET,VCC-C,44430,2020-04-15 21:28:16.038,2020-04-15 21:37:48.389,572.351,15.846
320,VCC-NET,VCC-A,44428,2020-04-16 11:58:15.258,2020-04-16 12:08:42.569,627.311,24.484
321,VCC-NET,VCC-B,44431,2020-04-16 12:00:11.625,2020-04-16 12:10:43.140,631.515,25.69
322,VCC-NET,VCC-C,44430,2020-04-16 12:27:40.237,2020-04-16 12:38:55.318,675.081,63.083
323,VCC-NET,VCC-A,44428,2020-04-16 13:33:45.802,2020-04-16 13:45:07.842,682.04,42.64
324,VCC-NET,VCC-B,44431,2020-04-16 13:35:46.372,2020-04-16 13:47:07.183,680.811,40.782
325,VCC-NET,VCC-C,44430,2020-04-16 14:04:10.679,2020-04-16 14:14:59.224,648.545,21.821
326,VCC-NET,VCC-A,44428,2020-04-16 15:11:43.115,2020-04-16 15:20:53.149,550.034,10.662
327,VCC-NET,VCC-B,44431,2020-04-16 15:14:08.319,2020-04-16 15:22:53.065,524.746,10.473
328,VCC-NET,VCC-A,44428,2020-04-16 18:26:37.502,2020-04-16 18:36:55.602,618.1,19.956
329,VCC-NET,VCC-B,44431,2020-04-16 18:28:37.064,2020-04-16 18:38:57.631,620.567,20.526
330,VCC-NET,VCC-C,44430,2020-04-16 18:56:15.179,2020-04-16 19:07:07.902,652.723,35.466
331,VCC-NET,VCC-A,44428,2020-04-16 20:02:42.215,2020-04-16 20:13:59.792,677.577,88.361
332,VCC-NET,VCC-B,44431,2020-04-16 20:04:42.101,2020-04-16 20:15:58.903,676.802,87.335
333,VCC-NET,VCC-C,44430,2020-04-16 20:32:24.875,2020-04-16 20:42:55.378,630.503,34.834
334,VCC-NET,VCC-A,44428,2020-04-17 11:05:00.931,2020-04-17 11:14:04.674,543.743,11.567
335,VCC-NET,VCC-B,44431,2020-04-17 11:06:57.146,2020-04-17 11:16:07.332,550.186,12.176
336,VCC-NET,VCC-C,44430,2020-04-17 11:32:41.880,2020-04-17 11:43:11.978,630.098,26.185
337,VCC-NET,VCC-A,44428,2020-04-17 12:39:27.082,2020-04-17 12:50:58.361,691.279,87.243
338,VCC-NET,VCC-B,44431,2020-04-17 12:41:27.388,2020-04-17 12:52:58.631,691.243,88.439
339,VCC-NET,VCC-C,44430,2020-04-17 13:08:13.030,2020-04-17 13:19:29.522,676.492,39.579
340,VCC-NET,VCC-A,44428,2020-04-17 14:16:48.717,2020-04-17 14:27:05.001,616.284,14.671
341,VCC-NET,VCC-B,44431,2020-04-17 14:18:51.710,2020-04-17 14:29:05.443,613.733,14.337
342,VCC-NET,VCC-C,44430,2020-04-17 14:46:30.161,2020-04-17 14:55:09.554,519.393,10.238
343,VCC-NET,VCC-A,44428,2020-04-17 17:32:30.709,2020-04-17 17:42:02.725,572.016,13.522
344,VCC-NET,VCC-B,44431,2020-04-17 17:34:26.572,2020-04-17 17:44:06.063,579.491,13.831
345,VCC-NET,VCC-C,44430,2020-04-17 18:00:45.789,2020-04-17 18:11:03.123,617.334,20.533
346,VCC-NET,VCC-A,44428,2020-04-17 19:08:31.128,2020-04-17 19:19:47.861,676.733,74.731
347,VCC-NET,VCC-B,44431,2020-04-17 19:10:31.524,2020-04-17 19:21:48.912,677.388,78.644
348,VCC-NET,VCC-C,44430,2020-04-17 19:36:44.921,2020-04-17 19:47:57.559,672.638,85.863
349,VCC-NET,VCC-A,44428,2020-04-17 20:45:08.513,2020-04-17 20:54:47.841,579.328,16.394
350,VCC-NET,VCC-B,44431,2020-04-17 20:47:10.918,2020-04-17 20:56:44.059,573.141,15.625
351,VCC-NET,VCC-C,44430,2020-04-18 10:38:05.816,2020-04-18 10:47:11.224,545.408,11.948
352,VCC-NET,VCC-A,44428,2020-04-18 11:45:24.676,2020-04-18 11:56:43.455,678.779,63.127
353,VCC-NET,VCC-B,44431,2020-04-18 11:47:24.571,2020-04-18 11:58:44.942,680.371,66.892
354,VCC-NET,VCC-C,44430,2020-04-18 12:12:29.586,2020-04-18 12:23:57.245,687.659,89.054
355,VCC-NET,VCC-A,44428,2020-04-18 13:22:00.415,2020-04-18 13:32:52.988,652.573,22.047
356,VCC-NET,VCC-B,44431,2020-04-18 13:24:03.649,2020-04-18 13:34:54.053,650.404,21.372
357,VCC-NET,VCC-C,44430,2020-04-18 13:49:47.750,2020-04-18 13:59:57.899,610.149,14.235
358,VCC-NET,VCC-B,44431,2020-04-18 16:40:49.197,2020-04-18 16:49:26.774,517.577,10.089
359,VCC-NET,VCC-C,44430,2020-04-18 17:05:16.194,2020-04-18 17:14:45.745,569.551,13.562
360,VCC-NET,VCC-A,44428,2020-04-18 18:14:21.482,2020-04-18 18:25:18.292,656.81,35.921
361,VCC-NET,VCC-B,44431,2020-04-18 18:16:22.639,2020-04-18 18:27:21.191,658.552,37.422
362,VCC-NET,VCC-C,44430,2020-04-18 18:41:10.401,2020-04-18 18:52:23.674,673.273,77.13
363,VCC-NET,VCC-A,44428,2020-04-18 19:50:36.866,2020-04-18 20:01:10.612,633.746,34.795
364,VCC-NET,VCC-B,44431,2020-04-18 19:52:39.118,2020-04-18 20:03:09.375,630.257,33.018
365,VCC-NET,VCC-C,44430,2020-04-18 20:17:43.390,2020-04-18 20:27:14.582,571.192,15.729
366,VCC-NET,VCC-A,44428,2020-04-19 10:51:42.919,2020-04-19 11:02:19.366,636.447,27.209
367,VCC-NET,VCC-B,44431,2020-04-19 10:53:42.073,2020-04-19 11:04:22.434,640.361,28.609
368,VCC-NET,VCC-C,44430,2020-04-19 11:17:03.707,2020-04-19 11:28:19.099,675.392,63.493
369,VCC-NET,VCC-A,44428,2020-04-19 12:27:22.106,2020-04-19 12:38:41.639,679.533,38.777
370,VCC-NET,VCC-B,44431,2020-04-19 12:29:25.423,2020-04-19 12:40:43.581,678.158,37.139
371,VCC-NET,VCC-C,44430,2020-04-19 12:53:34.170,2020-04-19 13:04:22.612,648.442,21.757
372,VCC-NET,VCC-A,44428,2020-04-19 14:05:45.589,2020-04-19 14:14:27.821,522.232,10.268
373,VCC-NET,VCC-B,44431,2020-04-19 14:07:50.549,2020-04-19 14:16:30.434,519.885,10.09
374,VCC-NET,VCC-A,44428,2020-04-19 17:20:10.472,2020-04-19 17:30:33.815,623.343,21.213
375,VCC-NET,VCC-B,44431,2020-04-19 17:22:12.652,2020-04-19 17:32:38.450,625.798,21.855
376,VCC-NET,VCC-C,44430,2020-04-19 17:45:37.554,2020-04-19 17:56:30.303,652.749,35.595
377,VCC-NET,VCC-A,44428,2020-04-19 18:56:15.582,2020-04-19 19:07:23.976,668.394,82.438
378,VCC-NET,VCC-B,44431,2020-04-19 18:58:18.191,2020-04-19 19:09:25.213,667.022,78.111
379,VCC-NET,VCC-C,44430,2020-04-19 19:21:47.048,2020-04-19 19:32:16.992,629.944,34.644
380,VCC-NET,VCC-A,44428,2020-04-20 09:58:22.496,2020-04-20 10:07:39.827,557.331,12.894
381,VCC-NET,VCC-B,44431,2020-04-20 10:00:21.742,2020-04-20 10:09:45.117,563.375,13.567
382,VCC-NET,VCC-C,44430,2020-04-20 10:22:00.307,2020-04-20 10:32:30.817,630.51,26.28
383,VCC-NET,VCC-A,44428,2020-04-20 11:32:56.824,2020-04-20 11:44:28.156,691.332,83.698
384,VCC-NET,VCC-B,44431,2020-04-20 11:35:00.099,2020-04-20 11:46:31.225,691.126,79.492
385,VCC-NET,VCC-C,44430,2020-04-20 11:57:31.402,2020-04-20 12:08:47.942,676.54,39.476
386,VCC-NET,VCC-A,44428,2020-04-20 13:10:23.677,2020-04-20 13:20:34.795,611.118,13.988
387,VCC-NET,VCC-B,44431,2020-04-20 13:12:29.617,2020-04-20 13:22:38.134,608.517,13.673
388,VCC-NET,VCC-C,44430,2020-04-20 13:35:48.311,2020-04-20 13:44:27.666,519.355,10.231
389,VCC-NET,VCC-A,44428,2020-04-20 16:25:55.170,2020-04-20 16:35:37.645,582.475,14.186
390,VCC-NET,VCC-B,44431,2020-04-20 16:27:58.643,2020-04-20 16:37:43.867,585.224,14.529
391,VCC-NET,VCC-C,44430,2020-04-20 16:50:03.179,2020-04-20 17:00:20.560,617.381,20.562
392,VCC-NET,VCC-A,44428,2020-04-20 18:01:59.517,2020-04-20 18:13:17.434,677.917,83.088
393,VCC-NET,VCC-B,44431,2020-04-20 18:04:02.817,2020-04-20 18:15:21.228,678.411,87.325
394,VCC-NET,VCC-C,44430,2020-04-20 18:26:02.031,2020-04-20 18:37:14.439,672.408,85.634
395,VCC-NET,VCC-A,44428,2020-04-20 19:38:40.857,2020-04-20 19:47:42.868,542.011,14.807
396,VCC-NET,VCC-B,44431,2020-04-20 19:40:46.404,2020-04-20 19:49:41.952,535.548,14.085
397,VCC-NET,VCC-C,44430,2020-04-21 09:27:19.359,2020-04-21 09:36:25.076,545.717,11.97
398,VCC-NET,VCC-A,44428,2020-04-21 10:38:47.501,2020-04-21 10:50:09.655,682.154,71.125
399,VCC-NET,VCC-B,44431,2020-04-21 10:40:50.573,2020-04-21 10:52:14.131,683.558,75.328
400,VCC-NET,VCC-C,44430,2020-04-21 11:01:42.908,2020-04-21 11:13:10.693,687.785,88.961
401,VCC-NET,VCC-A,44428,2020-04-21 12:15:29.669,2020-04-21 12:26:17.952,648.283,20.697
402,VCC-NET,VCC-B,44431,2020-04-21 12:17:36.093,2020-04-21 12:28:22.095,646.002,20.081
403,VCC-NET,VCC-C,44430,2020-04-21 12:39:00.789,2020-04-21 12:49:11.016,610.227,14.234
404,VCC-NET,VCC-A,44428,2020-04-21 15:32:12.801,2020-04-21 15:40:52.956,520.155,10.285
405,VCC-NET,VCC-B,44431,2020-04-21 15:34:17.564,2020-04-21 15:43:00.190,522.626,10.482
406,VCC-NET,VCC-C,44430,2020-04-21 15:54:28.588,2020-04-21 16:03:58.144,569.556,13.565
407,VCC-NET,VCC-A,44428,2020-04-21 17:07:45.298,2020-04-21 17:18:45.567,660.269,39.103
408,VCC-NET,VCC-B,44431,2020-04-21 17:09:49.551,2020-04-21 17:20:51.473,661.922,40.869
409,VCC-NET,VCC-C,44430,2020-04-21 17:30:22.496,2020-04-21 17:41:35.644,673.148,77.179
410,VCC-NET,VCC-A,44428,2020-04-21 18:44:02.602,2020-04-21 18:54:28.861,626.259,31.268
411,VCC-NET,VCC-B,44431,2020-04-21 18:46:08.089,2020-04-21 18:56:30.407,622.318,29.675
412,VCC-NET,VCC-C,44430,2020-04-21 19:06:55.216,2020-04-21 19:16:26.098,570.882,15.71
413,VCC-NET,VCC-A,44428,2020-04-22 09:44:58.171,2020-04-22 09:55:42.522,644.351,30.14
414,VCC-NET,VCC-B,44431,2020-04-22 09:47:00.745,2020-04-22 09:57:48.764,648.019,31.774
415,VCC-NET,VCC-C,44430,2020-04-22 10:06:12.064,2020-04-22 10:17:27.553,675.489,63.436
416,VCC-NET,VCC-A,44428,2020-04-22 11:20:45.257,2020-04-22 11:32:02.161,676.904,35.596
417,VCC-NET,VCC-B,44431,2020-04-22 11:22:51.985,2020-04-22 11:34:07.376,675.391,34.127
418,VCC-NET,VCC-C,44430,2020-04-22 11:42:42.126,2020-04-22 11:53:30.745,648.619,21.778
419,VCC-NET,VCC-A,44428,2020-04-22 16:13:30.093,2020-04-22 16:23:58.334,628.241,22.529
420,VCC-NET,VCC-B,44431,2020-04-22 16:15:35.558,2020-04-22 16:26:06.254,630.696,23.257
421,VCC-NET,VCC-C,44430,2020-04-22 16:34:44.647,2020-04-22 16:45:37.264,652.617,35.549
422,VCC-NET,VCC-A,44428,2020-04-22 17:49:35.729,2020-04-22 18:00:41.164,665.435,73.898
423,VCC-NET,VCC-B,44431,2020-04-22 17:51:41.734,2020-04-22 18:02:45.514,663.78,69.693
424,VCC-NET,VCC-C,44430,2020-04-22 18:10:53.815,2020-04-22 18:21:23.687,629.872,34.687
425,VCC-NET,VCC-A,44428,2020-04-23 08:51:31.829,2020-04-23 09:01:00.960,569.131,14.25
426,VCC-NET,VCC-B,44431,2020-04-23 08:53:34.740,2020-04-23 09:03:09.582,574.842,14.999
427,VCC-NET,VCC-C,44430,2020-04-23 09:11:03.826,2020-04-23 09:21:34.220,630.394,26.213
428,VCC-NET,VCC-A,44428,2020-04-23 10:26:13.563,2020-04-23 10:37:44.591,691.028,75.548
429,VCC-NET,VCC-B,44431,2020-04-23 10:28:20.462,2020-04-23 10:39:51.131,690.669,71.507
430,VCC-NET,VCC-C,44430,2020-04-23 10:46:34.340,2020-04-23 10:57:51.089,676.749,39.591
431,VCC-NET,VCC-A,44428,2020-04-23 12:03:45.154,2020-04-23 12:13:51.385,606.231,13.389
432,VCC-NET,VCC-B,44431,2020-04-23 12:05:54.717,2020-04-23 12:15:58.298,603.581,13.088
433,VCC-NET,VCC-C,44430,2020-04-23 12:24:50.805,2020-04-23 12:33:30.451,519.646,10.247
434,VCC-NET,VCC-A,44428,2020-04-23 15:19:10.979,2020-04-23 15:28:58.884,587.905,14.868
435,VCC-NET,VCC-B,44431,2020-04-23 15:21:17.934,2020-04-23 15:31:08.670,590.736,15.249
436,VCC-NET,VCC-C,44430,2020-04-23 15:39:05.259,2020-04-23 15:49:22.439,617.18,20.519
437,VCC-NET,VCC-A,44428,2020-04-23 16:55:14.648,2020-04-23 17:06:33.407,678.759,88.574
438,VCC-NET,VCC-B,44431,2020-04-23 16:57:21.521,2020-04-23 17:08:40.607,679.086,84.147
439,VCC-NET,VCC-C,44430,2020-04-23 17:15:03.792,2020-04-23 17:26:16.142,672.35,85.925
440,VCC-NET,VCC-A,44428,2020-04-23 18:32:00.063,2020-04-23 18:40:49.101,529.038,13.423
441,VCC-NET,VCC-B,44431,2020-04-23 18:34:09.455,2020-04-23 18:43:03.964,534.509,12.734
442,VCC-NET,VCC-C,44430,2020-04-24 08:16:18.105,2020-04-24 08:25:23.303,545.198,11.914
443,VCC-NET,VCC-A,44428,2020-04-24 09:31:57.494,2020-04-24 09:43:22.384,684.89,79.288
444,VCC-NET,VCC-B,44431,2020-04-24 09:34:04.405,2020-04-24 09:45:30.526,686.121,83.828
445,VCC-NET,VCC-C,44430,2020-04-24 09:50:40.919,2020-04-24 10:02:08.829,687.91,89.387
446,VCC-NET,VCC-A,44428,2020-04-24 11:08:45.571,2020-04-24 11:19:29.665,644.094,19.577
447,VCC-NET,VCC-B,44431,2020-04-24 11:10:55.860,2020-04-24 11:21:37.561,641.701,19.022
448,VCC-NET,VCC-C,44430,2020-04-24 11:27:58.181,2020-04-24 11:38:08.815,610.634,14.274
449,VCC-NET,VCC-A,44428,2020-04-24 14:25:24.645,2020-04-24 14:34:09.623,524.978,10.668
450,VCC-NET,VCC-B,44431,2020-04-24 14:26:58.691,2020-04-24 14:36:20.686,561.995,10.887
451,VCC-NET,VCC-C,44430,2020-04-24 14:43:25.625,2020-04-24 14:52:54.899,569.274,13.532
452,VCC-NET,VCC-A,44428,2020-04-24 16:00:55.811,2020-04-24 16:11:59.166,663.355,42.555
453,VCC-NET,VCC-B,44431,2020-04-24 16:03:03.826,2020-04-24 16:14:08.760,664.934,44.636
454,VCC-NET,VCC-C,44430,2020-04-24 16:19:19.265,2020-04-24 16:30:32.268,673.003,76.731
455,VCC-NET,VCC-A,44428,2020-04-24 17:37:15.108,2020-04-24 17:47:33.647,618.539,28.332
456,VCC-NET,VCC-B,44431,2020-04-24 17:39:24.520,2020-04-24 17:49:38.619,614.099,26.878
457,VCC-NET,VCC-C,44430,2020-04-24 17:55:51.465,2020-04-24 18:05:22.891,571.426,15.79
458,VCC-NET,VCC-A,44428,2020-04-25 08:38:00.873,2020-04-25 08:48:52.036,651.163,33.282
459,VCC-NET,VCC-B,44431,2020-04-25 08:40:07.508,2020-04-25 08:51:02.144,654.636,35.196
460,VCC-NET,VCC-C,44430,2020-04-25 08:55:05.266,2020-04-25 09:06:20.627,675.361,62.919
461,VCC-NET,VCC-A,44428,2020-04-25 10:13:55.175,2020-04-25 10:25:09.380,674.205,32.951
462,VCC-NET,VCC-B,44431,2020-04-25 10:16:05.993,2020-04-25 10:27:18.536,672.543,31.612
463,VCC-NET,VCC-C,44430,2020-04-25 10:31:34.507,2020-04-25 10:42:23.569,649.062,21.884
464,VCC-NET,VCC-A,44428,2020-04-25 15:06:36.343,2020-04-25 15:17:09.140,632.797,23.903
465,VCC-NET,VCC-B,44431,2020-04-25 15:08:45.760,2020-04-25 15:19:21.030,635.27,24.731
466,VCC-NET,VCC-C,44430,2020-04-25 15:23:36.412,2020-04-25 15:34:28.733,652.321,35.33
467,VCC-NET,VCC-A,44428,2020-04-25 16:42:42.612,2020-04-25 16:53:44.852,662.24,66.293
468,VCC-NET,VCC-B,44431,2020-04-25 16:44:52.689,2020-04-25 16:55:52.970,660.281,62.298
469,VCC-NET,VCC-C,44430,2020-04-25 16:59:45.127,2020-04-25 17:10:15.413,630.286,34.964
470,VCC-NET,VCC-A,44428,2020-04-26 07:44:28.774,2020-04-26 07:54:08.143,579.369,15.633
471,VCC-NET,VCC-B,44431,2020-04-26 07:46:35.971,2020-04-26 07:56:20.791,584.82,16.47
472,VCC-NET,VCC-C,44430,2020-04-26 07:59:52.398,2020-04-26 08:10:22.128,629.73,25.984
473,VCC-NET,VCC-A,44428,2020-04-26 09:19:17.205,2020-04-26 09:30:47.649,690.444,68.386
474,VCC-NET,VCC-B,44431,2020-04-26 09:21:28.404,2020-04-26 09:32:58.329,689.925,64.592
475,VCC-NET,VCC-C,44430,2020-04-26 09:35:21.803,2020-04-26 09:46:38.908,677.105,39.926
476,VCC-NET,VCC-A,44428,2020-04-26 10:56:53.096,2020-04-26 11:06:54.726,601.63,12.862
477,VCC-NET,VCC-B,44431,2020-04-26 10:59:06.965,2020-04-26 11:09:05.882,598.917,12.574
478,VCC-NET,VCC-C,44430,2020-04-26 11:13:37.604,2020-04-26 11:22:17.845,520.241,10.287
479,VCC-NET,VCC-A,44428,2020-04-26 14:12:13.324,2020-04-26 14:22:06.407,593.083,15.565
480,VCC-NET,VCC-B,44431,2020-04-26 14:14:24.433,2020-04-26 14:24:20.437,596.004,15.989
481,VCC-NET,VCC-C,44430,2020-04-26 14:27:51.984,2020-04-26 14:38:08.706,616.722,20.406
482,VCC-NET,VCC-A,44428,2020-04-26 15:48:16.481,2020-04-26 15:59:35.766,679.285,80.67
483,VCC-NET,VCC-B,44431,2020-04-26 15:50:27.600,2020-04-26 16:01:47.057,679.457,84.647
484,VCC-NET,VCC-C,44430,2020-04-26 16:03:50.157,2020-04-26 16:15:02.614,672.457,86.804
485,VCC-NET,VCC-A,44428,2020-04-26 17:25:06.066,2020-04-26 17:33:55.316,529.25,12.208
486,VCC-NET,VCC-B,44431,2020-04-26 17:27:20.008,2020-04-26 17:36:02.162,522.154,11.543
487,VCC-NET,VCC-C,44430,2020-04-27 07:05:02.021,2020-04-27 07:14:05.844,543.823,11.78
488,VCC-NET,VCC-A,44428,2020-04-27 08:24:54.567,2020-04-27 08:36:21.630,687.063,87.29
489,VCC-NET,VCC-B,44431,2020-04-27 08:27:05.980,2020-04-27 08:38:34.117,688.137,87.946
490,VCC-NET,VCC-C,44430,2020-04-27 08:39:23.582,2020-04-27 08:50:51.597,688.015,89.382
491,VCC-NET,VCC-A,44428,2020-04-27 10:01:48.050,2020-04-27 10:12:28.085,640.035,18.628
492,VCC-NET,VCC-B,44431,2020-04-27 10:04:02.888,2020-04-27 10:14:40.410,637.522,18.1
493,VCC-NET,VCC-C,44430,2020-04-27 10:16:39.884,2020-04-27 10:26:51.239,611.355,14.356
494,VCC-NET,VCC-A,44428,2020-04-27 13:17:48.718,2020-04-27 13:27:12.642,563.924,11.059
495,VCC-NET,VCC-B,44431,2020-04-27 13:20:01.757,2020-04-27 13:29:28.213,566.456,11.301
496,VCC-NET,VCC-C,44430,2020-04-27 13:32:07.251,2020-04-27 13:41:35.953,568.702,13.462
497,VCC-NET,VCC-A,44428,2020-04-27 14:53:52.986,2020-04-27 15:04:59.083,666.097,46.272
498,VCC-NET,VCC-B,44431,2020-04-27 14:56:05.439,2020-04-27 15:07:13.041,667.602,48.721
499,VCC-NET,VCC-C,44430,2020-04-27 15:08:00.661,2020-04-27 15:19:13.489,672.828,75.803
500,VCC-NET,VCC-A,44428,2020-04-27 16:30:14.334,2020-04-27 16:40:24.997,610.663,25.865
501,VCC-NET,VCC-B,44431,2020-04-27 16:32:28.358,2020-04-27 16:42:34.036,605.678,24.516
502,VCC-NET,VCC-C,44430,2020-04-27 16:44:32.094,2020-04-27 16:54:04.902,572.808,15.969
503,VCC-NET,VCC-A,44428,2020-04-28 07:30:50.899,2020-04-28 07:41:47.921,657.022,36.633
504,VCC-NET,VCC-B,44431,2020-04-28 07:33:02.249,2020-04-28 07:44:02.572,660.323,38.877
505,VCC-NET,VCC-C,44430,2020-04-28 07:43:43.276,2020-04-28 07:54:58.262,674.986,61.947
506,VCC-NET,VCC-A,44428,2020-04-28 09:06:51.794,2020-04-28 09:18:03.249,671.455,30.732
507,VCC-NET,VCC-B,44431,2020-04-28 09:09:07.377,2020-04-28 09:20:17.025,669.648,29.494
508,VCC-NET,VCC-C,44430,2020-04-28 09:20:11.270,2020-04-28 09:31:01.026,649.756,22.078
509,VCC-NET,VCC-A,44428,2020-04-28 13:59:29.193,2020-04-28 14:10:06.219,637.026,25.329
510,VCC-NET,VCC-B,44431,2020-04-28 14:01:43.241,2020-04-28 14:12:22.751,639.51,26.272
511,VCC-NET,VCC-C,44430,2020-04-28 14:12:12.803,2020-04-28 14:23:04.653,651.85,34.941
512,VCC-NET,VCC-A,44428,2020-04-28 15:35:36.183,2020-04-28 15:46:35.052,658.869,59.703
513,VCC-NET,VCC-B,44431,2020-04-28 15:37:51.011,2020-04-28 15:48:47.601,656.59,55.965
514,VCC-NET,VCC-C,44430,2020-04-28 15:48:20.937,2020-04-28 15:58:52.109,631.172,35.485
515,VCC-NET,VCC-A,44428,2020-04-29 06:37:12.987,2020-04-29 06:47:01.422,588.435,17.037
516,VCC-NET,VCC-B,44431,2020-04-29 06:39:23.604,2020-04-29 06:49:18.797,595.193,17.977
517,VCC-NET,VCC-C,44430,2020-04-29 06:48:25.991,2020-04-29 06:58:54.494,628.503,25.596
518,VCC-NET,VCC-A,44428,2020-04-29 08:12:07.681,2020-04-29 08:23:37.300,689.619,62.254
519,VCC-NET,VCC-B,44431,2020-04-29 08:14:23.848,2020-04-29 08:25:52.795,688.947,58.721
520,VCC-NET,VCC-C,44430,2020-04-29 08:23:53.756,2020-04-29 08:35:11.344,677.588,40.49
521,VCC-NET,VCC-A,44428,2020-04-29 09:49:47.440,2020-04-29 09:59:44.753,597.313,12.398
522,VCC-NET,VCC-B,44431,2020-04-29 09:52:06.297,2020-04-29 10:02:00.839,594.542,12.119
523,VCC-NET,VCC-C,44430,2020-04-29 10:02:08.674,2020-04-29 10:10:49.796,521.122,10.35
524,VCC-NET,VCC-A,44428,2020-04-29 13:05:02.198,2020-04-29 13:15:00.177,597.979,16.271
525,VCC-NET,VCC-B,44431,2020-04-29 13:07:18.132,2020-04-29 13:17:19.132,601.0,16.744
526,VCC-NET,VCC-C,44430,2020-04-29 13:16:23.308,2020-04-29 13:26:39.299,615.991,20.223
527,VCC-NET,VCC-A,44428,2020-04-29 14:41:04.976,2020-04-29 14:52:24.528,679.552,87.616
528,VCC-NET,VCC-B,44431,2020-04-29 14:43:21.019,2020-04-29 14:54:40.569,679.55,87.866
529,VCC-NET,VCC-C,44430,2020-04-29 14:52:21.079,2020-04-29 15:03:33.795,672.716,88.203
530,VCC-NET,VCC-A,44428,2020-04-29 16:17:58.803,2020-04-29 16:26:36.296,517.493,11.136
531,VCC-NET,VCC-B,44431,2020-04-29 16:20:18.011,2020-04-29 16:28:47.553,509.542,10.487
532,VCC-NET,VCC-C,44430,2020-04-30 05:53:31.079,2020-04-30 06:02:32.631,541.552,11.568
533,VCC-NET,VCC-A,44428,2020-04-30 07:17:38.627,2020-04-30 07:29:07.376,688.749,89.297
534,VCC-NET,VCC-B,44431,2020-04-30 07:19:55.210,2020-04-30 07:31:24.887,689.677,85.905
535,VCC-NET,VCC-C,44430,2020-04-30 07:27:50.859,2020-04-30 07:39:18.939,688.08,88.017
536,VCC-NET,VCC-A,44428,2020-04-30 08:54:37.042,2020-04-30 09:05:13.167,636.125,17.801
537,VCC-NET,VCC-B,44431,2020-04-30 08:56:57.105,2020-04-30 09:07:30.600,633.495,17.292
538,VCC-NET,VCC-C,44430,2020-04-30 09:05:05.857,2020-04-30 09:15:18.238,612.381,14.48
539,VCC-NET,VCC-A,44428,2020-04-30 12:10:33.868,2020-04-30 12:20:01.961,568.093,11.452
540,VCC-NET,VCC-B,44431,2020-04-30 12:12:51.957,2020-04-30 12:22:22.736,570.779,11.721
541,VCC-NET,VCC-C,44430,2020-04-30 12:20:33.424,2020-04-30 12:30:01.247,567.823,13.357
542,VCC-NET,VCC-A,44428,2020-04-30 13:46:36.795,2020-04-30 13:57:45.314,668.519,50.233
543,VCC-NET,VCC-B,44431,2020-04-30 13:48:54.354,2020-04-30 14:00:04.318,669.964,53.105
544,VCC-NET,VCC-C,44430,2020-04-30 13:56:26.639,2020-04-30 14:07:39.248,672.609,74.394
545,VCC-NET,VCC-A,44428,2020-04-30 15:23:00.222,2020-04-30 15:33:02.920,602.698,23.775
546,VCC-NET,VCC-B,44431,2020-04-30 15:25:19.543,2020-04-30 15:35:16.663,597.12,22.505
547,VCC-NET,VCC-C,44430,2020-04-30 15:32:57.056,2020-04-30 15:42:32.063,597.12,16.251
