vcc_sched/network/output/VCC_Combined_Passes_20200326_20200430.csv

Pass #,GS Name,SC Name,SC NORAD ID,Start Time (UTCG),Stop Time (UTCG),Duration (sec),Max El (deg)
0,UVAGS,VCC-C,44430,2020-03-26 02:22:29.544,2020-03-26 02:31:21.781,532.237,11.209
1,WFF,VCC-C,44430,2020-03-26 02:23:02.659,2020-03-26 02:32:05.294,542.635,12.368
2,ODUGS,VCC-C,44430,2020-03-26 02:23:09.443,2020-03-26 02:31:49.521,520.078,10.218
3,VTGS,VCC-A,44428,2020-03-26 02:59:14.986,2020-03-26 03:08:26.061,551.075,13.129
4,UVAGS,VCC-A,44428,2020-03-26 02:59:19.892,2020-03-26 03:08:57.245,577.353,16.291
5,WFF,VCC-A,44428,2020-03-26 02:59:51.030,2020-03-26 03:09:39.187,588.157,18.626
6,ODUGS,VCC-A,44428,2020-03-26 02:59:56.597,2020-03-26 03:09:28.998,572.401,15.53
7,VTGS,VCC-B,44431,2020-03-26 03:01:15.186,2020-03-26 03:10:29.030,553.844,13.448
8,UVAGS,VCC-B,44431,2020-03-26 03:01:20.119,2020-03-26 03:10:59.850,579.731,16.696
9,WFF,VCC-B,44431,2020-03-26 03:01:51.175,2020-03-26 03:11:41.633,590.458,19.137
10,ODUGS,VCC-B,44431,2020-03-26 03:01:56.659,2020-03-26 03:11:31.776,575.117,15.953
11,VTGS,VCC-C,44430,2020-03-26 03:58:28.027,2020-03-26 04:08:48.304,620.277,34.39
12,UVAGS,VCC-C,44430,2020-03-26 03:58:35.191,2020-03-26 04:09:06.771,631.58,46.521
13,WFF,VCC-C,44430,2020-03-26 03:59:06.071,2020-03-26 04:09:40.453,634.382,61.084
14,ODUGS,VCC-C,44430,2020-03-26 03:59:08.687,2020-03-26 04:09:40.709,632.022,47.712
15,VTGS,VCC-A,44428,2020-03-26 04:35:21.256,2020-03-26 04:45:59.663,638.407,76.864
16,UVAGS,VCC-A,44428,2020-03-26 04:35:30.689,2020-03-26 04:46:10.871,640.182,76.586
17,WFF,VCC-A,44428,2020-03-26 04:36:03.542,2020-03-26 04:46:38.128,634.586,56.011
18,ODUGS,VCC-A,44428,2020-03-26 04:36:04.196,2020-03-26 04:46:43.729,639.533,71.613
19,VTGS,VCC-B,44431,2020-03-26 04:37:21.561,2020-03-26 04:48:00.095,638.534,80.883
20,UVAGS,VCC-B,44431,2020-03-26 04:37:31.152,2020-03-26 04:48:10.846,639.694,72.639
21,WFF,VCC-B,44431,2020-03-26 04:38:04.180,2020-03-26 04:48:37.667,633.487,52.97
22,ODUGS,VCC-B,44431,2020-03-26 04:38:04.694,2020-03-26 04:48:43.596,638.902,67.689
23,VTGS,VCC-C,44430,2020-03-26 05:34:55.247,2020-03-26 05:44:35.659,580.412,19.738
24,UVAGS,VCC-C,44430,2020-03-26 05:35:12.866,2020-03-26 05:44:29.903,557.037,15.085
25,ODUGS,VCC-C,44430,2020-03-26 05:35:50.730,2020-03-26 05:44:56.125,545.395,13.588
26,WFF,VCC-C,44430,2020-03-26 05:35:56.728,2020-03-26 05:44:38.058,521.33,11.337
27,ODUGS,VCC-A,44428,2020-03-26 19:38:13.951,2020-03-26 19:46:41.992,508.041,10.041
28,ODUGS,VCC-B,44431,2020-03-26 19:40:09.283,2020-03-26 19:48:44.437,515.154,10.591
29,WFF,VCC-B,44431,2020-03-26 19:40:29.747,2020-03-26 19:49:01.213,511.466,10.445
30,VTGS,VCC-C,44430,2020-03-26 20:34:57.150,2020-03-26 20:45:03.806,606.656,29.668
31,UVAGS,VCC-C,44430,2020-03-26 20:35:19.465,2020-03-26 20:45:33.773,614.308,32.857
32,ODUGS,VCC-C,44430,2020-03-26 20:35:19.493,2020-03-26 20:45:47.326,627.833,49.324
33,WFF,VCC-C,44430,2020-03-26 20:35:38.822,2020-03-26 20:46:04.012,625.19,46.778
34,VTGS,VCC-A,44428,2020-03-26 21:12:30.952,2020-03-26 21:23:06.457,635.505,76.245
35,UVAGS,VCC-A,44428,2020-03-26 21:12:56.174,2020-03-26 21:23:35.046,638.872,82.925
36,ODUGS,VCC-A,44428,2020-03-26 21:13:06.319,2020-03-26 21:23:44.525,638.206,64.813
37,WFF,VCC-A,44428,2020-03-26 21:13:24.323,2020-03-26 21:24:01.820,637.497,70.036
38,VTGS,VCC-B,44431,2020-03-26 21:14:30.478,2020-03-26 21:25:06.306,635.828,80.389
39,UVAGS,VCC-B,44431,2020-03-26 21:14:55.820,2020-03-26 21:25:34.853,639.033,87.047
40,ODUGS,VCC-B,44431,2020-03-26 21:15:06.521,2020-03-26 21:25:44.139,637.618,61.49
41,WFF,VCC-B,44431,2020-03-26 21:15:24.424,2020-03-26 21:26:01.480,637.056,66.554
42,VTGS,VCC-C,44430,2020-03-26 22:11:15.478,2020-03-26 22:21:19.360,603.882,25.031
43,UVAGS,VCC-C,44430,2020-03-26 22:11:42.514,2020-03-26 22:21:48.518,606.004,24.705
44,ODUGS,VCC-C,44430,2020-03-26 22:12:09.614,2020-03-26 22:21:53.404,583.79,18.282
45,WFF,VCC-C,44430,2020-03-26 22:12:23.112,2020-03-26 22:22:13.012,589.9,20.012
46,VTGS,VCC-A,44428,2020-03-26 22:49:47.397,2020-03-26 22:59:14.605,567.208,15.331
47,UVAGS,VCC-A,44428,2020-03-26 22:50:13.370,2020-03-26 22:59:45.592,572.222,15.625
48,ODUGS,VCC-A,44428,2020-03-26 22:50:48.845,2020-03-26 22:59:49.334,540.489,11.814
49,WFF,VCC-A,44428,2020-03-26 22:50:58.535,2020-03-26 23:00:10.861,552.326,13.206
50,VTGS,VCC-B,44431,2020-03-26 22:51:49.565,2020-03-26 23:01:14.032,564.467,14.943
51,UVAGS,VCC-B,44431,2020-03-26 22:52:15.416,2020-03-26 23:01:45.155,569.739,15.259
52,ODUGS,VCC-B,44431,2020-03-26 22:52:51.351,2020-03-26 23:01:48.858,537.507,11.539
53,WFF,VCC-B,44431,2020-03-26 22:53:00.780,2020-03-26 23:02:10.511,549.731,12.921
54,UVAGS,VCC-A,44428,2020-03-27 02:05:38.843,2020-03-27 02:14:38.528,539.685,11.658
55,WFF,VCC-A,44428,2020-03-27 02:06:11.812,2020-03-27 02:15:22.001,550.189,12.892
56,ODUGS,VCC-A,44428,2020-03-27 02:06:18.441,2020-03-27 02:15:06.740,528.299,10.679
57,UVAGS,VCC-B,44431,2020-03-27 02:07:38.587,2020-03-27 02:16:40.676,542.089,11.888
58,WFF,VCC-B,44431,2020-03-27 02:08:11.401,2020-03-27 02:17:24.110,552.709,13.173
59,ODUGS,VCC-B,44431,2020-03-27 02:08:17.970,2020-03-27 02:17:09.173,531.203,10.921
60,VTGS,VCC-C,44430,2020-03-27 03:03:34.845,2020-03-27 03:13:23.897,589.052,19.928
61,UVAGS,VCC-C,44430,2020-03-27 03:03:40.521,2020-03-27 03:13:48.929,608.408,25.302
62,WFF,VCC-C,44430,2020-03-27 03:04:10.890,2020-03-27 03:14:27.429,616.539,30.468
63,ODUGS,VCC-C,44430,2020-03-27 03:04:15.087,2020-03-27 03:14:22.561,607.474,24.96
64,VTGS,VCC-A,44428,2020-03-27 03:41:42.258,2020-03-27 03:52:08.220,625.962,36.661
65,UVAGS,VCC-A,44428,2020-03-27 03:41:49.615,2020-03-27 03:52:26.100,636.485,49.873
66,WFF,VCC-A,44428,2020-03-27 03:42:20.635,2020-03-27 03:52:59.317,638.682,65.759
67,ODUGS,VCC-A,44428,2020-03-27 03:42:23.094,2020-03-27 03:53:00.025,636.931,51.348
68,VTGS,VCC-B,44431,2020-03-27 03:43:41.557,2020-03-27 03:54:08.863,627.306,38.225
69,UVAGS,VCC-B,44431,2020-03-27 03:43:49.029,2020-03-27 03:54:26.320,637.291,52.279
70,WFF,VCC-B,44431,2020-03-27 03:44:20.130,2020-03-27 03:54:59.186,639.056,69.183
71,ODUGS,VCC-B,44431,2020-03-27 03:44:22.479,2020-03-27 03:55:00.213,637.734,53.983
72,VTGS,VCC-C,44430,2020-03-27 04:39:43.058,2020-03-27 04:50:06.644,623.586,43.796
73,UVAGS,VCC-C,44430,2020-03-27 04:39:55.677,2020-03-27 04:50:10.085,614.408,31.902
74,ODUGS,VCC-C,44430,2020-03-27 04:40:30.415,2020-03-27 04:50:40.471,610.056,29.217
75,WFF,VCC-C,44430,2020-03-27 04:40:32.343,2020-03-27 04:50:29.290,596.947,24.13
76,VTGS,VCC-A,44428,2020-03-27 05:18:16.977,2020-03-27 05:27:55.363,578.386,18.661
77,UVAGS,VCC-A,44428,2020-03-27 05:18:35.135,2020-03-27 05:27:48.713,553.578,14.274
78,ODUGS,VCC-A,44428,2020-03-27 05:19:13.415,2020-03-27 05:28:14.494,541.079,12.825
79,WFF,VCC-A,44428,2020-03-27 05:19:19.847,2020-03-27 05:27:55.736,515.889,10.683
80,VTGS,VCC-B,44431,2020-03-27 05:20:17.953,2020-03-27 05:29:52.000,574.047,17.812
81,UVAGS,VCC-B,44431,2020-03-27 05:20:36.552,2020-03-27 05:29:44.662,548.11,13.613
82,ODUGS,VCC-B,44431,2020-03-27 05:21:15.142,2020-03-27 05:30:10.069,534.927,12.2
83,WFF,VCC-B,44431,2020-03-27 05:21:21.956,2020-03-27 05:29:50.757,508.801,10.137
84,VTGS,VCC-C,44430,2020-03-27 19:40:39.905,2020-03-27 19:49:42.885,542.98,13.817
85,ODUGS,VCC-C,44430,2020-03-27 19:40:46.574,2020-03-27 19:50:35.570,588.996,21.616
86,UVAGS,VCC-C,44430,2020-03-27 19:40:57.797,2020-03-27 19:50:15.997,558.2,15.457
87,WFF,VCC-C,44430,2020-03-27 19:41:06.671,2020-03-27 19:50:52.092,585.421,21.059
88,VTGS,VCC-A,44428,2020-03-27 20:19:03.002,2020-03-27 20:29:17.727,614.725,32.795
89,UVAGS,VCC-A,44428,2020-03-27 20:19:25.728,2020-03-27 20:29:47.484,621.756,36.318
90,ODUGS,VCC-A,44428,2020-03-27 20:19:26.922,2020-03-27 20:30:00.504,633.582,55.064
91,WFF,VCC-A,44428,2020-03-27 20:19:46.150,2020-03-27 20:30:17.243,631.093,52.048
92,VTGS,VCC-B,44431,2020-03-27 20:21:00.563,2020-03-27 20:31:17.422,616.859,34.494
93,UVAGS,VCC-B,44431,2020-03-27 20:21:23.486,2020-03-27 20:31:47.063,623.577,38.21
94,ODUGS,VCC-B,44431,2020-03-27 20:21:25.292,2020-03-27 20:31:59.810,634.518,58.292
95,WFF,VCC-B,44431,2020-03-27 20:21:44.455,2020-03-27 20:32:16.577,632.122,54.998
96,VTGS,VCC-C,44430,2020-03-27 21:15:56.421,2020-03-27 21:26:24.072,627.651,47.44
97,UVAGS,VCC-C,44430,2020-03-27 21:16:23.098,2020-03-27 21:26:52.472,629.374,45.043
98,ODUGS,VCC-C,44430,2020-03-27 21:16:41.846,2020-03-27 21:26:59.291,617.445,31.034
99,WFF,VCC-C,44430,2020-03-27 21:16:57.983,2020-03-27 21:27:17.515,619.532,33.743
100,VTGS,VCC-A,44428,2020-03-27 21:55:32.804,2020-03-27 22:05:36.576,603.772,23.755
101,UVAGS,VCC-A,44428,2020-03-27 21:55:59.827,2020-03-27 22:06:05.908,606.081,23.532
102,ODUGS,VCC-A,44428,2020-03-27 21:56:27.828,2020-03-27 22:06:10.692,582.864,17.513
103,WFF,VCC-A,44428,2020-03-27 21:56:40.991,2020-03-27 22:06:30.484,589.493,19.193
104,VTGS,VCC-B,44431,2020-03-27 21:57:33.623,2020-03-27 22:07:35.219,601.596,23.011
105,UVAGS,VCC-B,44431,2020-03-27 21:58:00.611,2020-03-27 22:08:04.636,604.025,22.838
106,ODUGS,VCC-B,44431,2020-03-27 21:58:29.114,2020-03-27 22:08:09.328,580.214,17.031
107,WFF,VCC-B,44431,2020-03-27 21:58:42.077,2020-03-27 22:08:29.223,587.146,18.682
108,VTGS,VCC-C,44430,2020-03-27 22:53:45.399,2020-03-27 23:02:24.860,519.461,10.462
109,UVAGS,VCC-C,44430,2020-03-27 22:54:08.771,2020-03-27 23:02:58.324,529.553,11.031
110,VTGS,VCC-C,44430,2020-03-28 02:08:39.387,2020-03-28 02:17:46.626,547.239,13.041
111,UVAGS,VCC-C,44430,2020-03-28 02:08:44.202,2020-03-28 02:18:17.752,573.55,16.208
112,WFF,VCC-C,44430,2020-03-28 02:09:15.240,2020-03-28 02:18:59.638,584.398,18.561
113,ODUGS,VCC-C,44430,2020-03-28 02:09:20.836,2020-03-28 02:18:49.505,568.669,15.458
114,VTGS,VCC-A,44428,2020-03-28 02:48:04.178,2020-03-28 02:58:01.703,597.525,21.373
115,UVAGS,VCC-A,44428,2020-03-28 02:48:10.065,2020-03-28 02:58:25.901,615.836,27.246
116,WFF,VCC-A,44428,2020-03-28 02:48:40.484,2020-03-28 02:59:03.877,623.393,33.07
117,ODUGS,VCC-A,44428,2020-03-28 02:48:44.467,2020-03-28 02:58:59.685,615.218,26.994
118,VTGS,VCC-B,44431,2020-03-28 02:50:02.721,2020-03-28 03:00:02.445,599.724,22.032
119,UVAGS,VCC-B,44431,2020-03-28 02:50:08.684,2020-03-28 03:00:26.246,617.562,28.164
120,WFF,VCC-B,44431,2020-03-28 02:50:39.108,2020-03-28 03:01:03.949,624.841,34.343
121,ODUGS,VCC-B,44431,2020-03-28 02:50:42.999,2020-03-28 03:01:00.083,617.084,27.963
122,VTGS,VCC-C,44430,2020-03-28 03:44:39.850,2020-03-28 03:55:14.072,634.222,77.846
123,UVAGS,VCC-C,44430,2020-03-28 03:44:49.312,2020-03-28 03:55:25.142,635.83,75.324
124,WFF,VCC-C,44430,2020-03-28 03:45:22.196,2020-03-28 03:55:52.242,630.046,54.844
125,ODUGS,VCC-C,44430,2020-03-28 03:45:22.800,2020-03-28 03:55:57.928,635.128,70.303
126,VTGS,VCC-A,44428,2020-03-28 04:24:19.445,2020-03-28 04:34:43.225,623.78,39.471
127,UVAGS,VCC-A,44428,2020-03-28 04:24:32.550,2020-03-28 04:34:45.631,613.081,29.113
128,ODUGS,VCC-A,44428,2020-03-28 04:25:07.579,2020-03-28 04:35:15.651,608.072,26.652
129,WFF,VCC-A,44428,2020-03-28 04:25:09.877,2020-03-28 04:35:03.719,593.842,22.149
130,VTGS,VCC-B,44431,2020-03-28 04:26:18.829,2020-03-28 04:36:40.737,621.908,37.455
131,UVAGS,VCC-B,44431,2020-03-28 04:26:32.190,2020-03-28 04:36:42.622,610.432,27.762
132,ODUGS,VCC-B,44431,2020-03-28 04:27:07.360,2020-03-28 04:37:12.432,605.072,25.404
133,WFF,VCC-B,44431,2020-03-28 04:27:09.862,2020-03-28 04:37:00.120,590.258,21.157
134,VTGS,VCC-A,44428,2020-03-28 19:25:55.883,2020-03-28 19:35:15.739,559.856,15.728
135,ODUGS,VCC-A,44428,2020-03-28 19:26:05.441,2020-03-28 19:36:06.556,601.115,24.535
136,UVAGS,VCC-A,44428,2020-03-28 19:26:14.670,2020-03-28 19:35:48.188,573.518,17.516
137,WFF,VCC-A,44428,2020-03-28 19:26:25.458,2020-03-28 19:36:23.098,597.64,23.835
138,VTGS,VCC-B,44431,2020-03-28 19:27:51.186,2020-03-28 19:37:15.768,564.582,16.474
139,ODUGS,VCC-B,44431,2020-03-28 19:28:01.802,2020-03-28 19:38:05.920,604.118,25.724
140,UVAGS,VCC-B,44431,2020-03-28 19:28:10.282,2020-03-28 19:37:47.977,577.695,18.325
141,WFF,VCC-B,44431,2020-03-28 19:28:21.783,2020-03-28 19:38:22.462,600.679,24.959
142,VTGS,VCC-C,44430,2020-03-28 20:20:51.773,2020-03-28 20:31:23.499,631.726,75.314
143,UVAGS,VCC-C,44430,2020-03-28 20:21:16.950,2020-03-28 20:31:52.063,635.113,82.054
144,ODUGS,VCC-C,44430,2020-03-28 20:21:26.984,2020-03-28 20:32:01.562,634.578,65.273
145,WFF,VCC-C,44430,2020-03-28 20:21:44.994,2020-03-28 20:32:18.825,633.831,70.561
146,VTGS,VCC-A,44428,2020-03-28 21:01:28.308,2020-03-28 21:11:56.935,628.627,42.497
147,UVAGS,VCC-A,44428,2020-03-28 21:01:55.136,2020-03-28 21:12:25.428,630.292,40.649
148,ODUGS,VCC-A,44428,2020-03-28 21:02:15.190,2020-03-28 21:12:31.940,616.75,28.499
149,WFF,VCC-A,44428,2020-03-28 21:02:30.999,2020-03-28 21:12:50.366,619.367,30.982
150,VTGS,VCC-B,44431,2020-03-28 21:03:27.649,2020-03-28 21:13:55.038,627.389,40.667
151,UVAGS,VCC-B,44431,2020-03-28 21:03:54.521,2020-03-28 21:14:23.558,629.037,39.005
152,ODUGS,VCC-B,44431,2020-03-28 21:04:15.099,2020-03-28 21:14:29.939,614.84,27.5
153,WFF,VCC-B,44431,2020-03-28 21:04:30.757,2020-03-28 21:14:48.442,617.685,29.901
154,VTGS,VCC-C,44430,2020-03-28 21:58:02.267,2020-03-28 22:07:25.868,563.601,15.237
155,UVAGS,VCC-C,44430,2020-03-28 21:58:28.239,2020-03-28 22:07:56.794,568.555,15.522
156,ODUGS,VCC-C,44430,2020-03-28 21:59:03.698,2020-03-28 22:08:00.415,536.717,11.714
157,WFF,VCC-C,44430,2020-03-28 21:59:13.387,2020-03-28 22:08:21.935,548.548,13.099
158,VTGS,VCC-A,44428,2020-03-28 22:39:27.287,2020-03-28 22:48:03.991,516.704,10.065
159,UVAGS,VCC-A,44428,2020-03-28 22:39:50.150,2020-03-28 22:48:37.923,527.773,10.675
160,UVAGS,VCC-B,44431,2020-03-28 22:41:51.069,2020-03-28 22:50:36.489,525.42,10.488
161,UVAGS,VCC-C,44430,2020-03-29 01:13:43.181,2020-03-29 01:22:37.255,534.074,11.406
162,WFF,VCC-C,44430,2020-03-29 01:14:16.133,2020-03-29 01:23:20.733,544.6,12.614
163,ODUGS,VCC-C,44430,2020-03-29 01:14:22.867,2020-03-29 01:23:05.280,522.413,10.429
164,VTGS,VCC-A,44428,2020-03-29 01:54:24.384,2020-03-29 02:03:42.965,558.581,14.073
165,UVAGS,VCC-A,44428,2020-03-29 01:54:29.369,2020-03-29 02:04:13.089,583.72,17.499
166,WFF,VCC-A,44428,2020-03-29 01:55:00.284,2020-03-29 02:04:54.534,594.25,20.157
167,ODUGS,VCC-A,44428,2020-03-29 01:55:05.614,2020-03-29 02:04:45.316,579.702,16.791
168,VTGS,VCC-B,44431,2020-03-29 01:56:22.410,2020-03-29 02:05:43.669,561.259,14.421
169,UVAGS,VCC-B,44431,2020-03-29 01:56:27.438,2020-03-29 02:06:13.425,585.987,17.946
170,WFF,VCC-B,44431,2020-03-29 01:56:58.282,2020-03-29 02:06:54.693,596.411,20.726
171,ODUGS,VCC-B,44431,2020-03-29 01:57:03.531,2020-03-29 02:06:45.802,582.271,17.257
172,VTGS,VCC-C,44430,2020-03-29 02:49:40.873,2020-03-29 03:00:02.012,621.139,35.783
173,UVAGS,VCC-C,44430,2020-03-29 02:49:48.146,2020-03-29 03:00:20.059,631.913,48.688
174,WFF,VCC-C,44430,2020-03-29 02:50:19.101,2020-03-29 03:00:53.386,634.285,64.264
175,ODUGS,VCC-C,44430,2020-03-29 02:50:21.608,2020-03-29 03:00:53.964,632.356,50.082
176,VTGS,VCC-A,44428,2020-03-29 03:30:30.929,2020-03-29 03:41:08.833,637.904,88.909
177,UVAGS,VCC-A,44428,2020-03-29 03:30:40.846,2020-03-29 03:41:18.693,637.847,65.333
178,WFF,VCC-A,44428,2020-03-29 03:31:14.222,2020-03-29 03:41:44.652,630.43,47.554
179,ODUGS,VCC-A,44428,2020-03-29 03:31:14.470,2020-03-29 03:41:51.211,636.741,60.545
180,VTGS,VCC-B,44431,2020-03-29 03:32:29.182,2020-03-29 03:43:06.931,637.749,86.851
181,UVAGS,VCC-B,44431,2020-03-29 03:32:39.270,2020-03-29 03:43:16.339,637.069,61.863
182,WFF,VCC-B,44431,2020-03-29 03:33:12.835,2020-03-29 03:43:41.851,629.016,45.073
183,ODUGS,VCC-B,44431,2020-03-29 03:33:12.944,2020-03-29 03:43:48.734,635.79,57.206
184,VTGS,VCC-C,44430,2020-03-29 04:26:09.428,2020-03-29 04:35:45.080,575.652,18.798
185,UVAGS,VCC-C,44430,2020-03-29 04:26:27.479,2020-03-29 04:35:38.632,551.153,14.357
186,ODUGS,VCC-C,44430,2020-03-29 04:27:05.644,2020-03-29 04:36:04.492,538.848,12.902
187,WFF,VCC-C,44430,2020-03-29 04:27:12.011,2020-03-29 04:35:45.880,513.869,10.74
188,ODUGS,VCC-A,44428,2020-03-29 18:33:07.788,2020-03-29 18:41:56.083,528.295,11.714
189,WFF,VCC-A,44428,2020-03-29 18:33:28.230,2020-03-29 18:42:12.798,524.568,11.539
190,ODUGS,VCC-B,44431,2020-03-29 18:35:01.689,2020-03-29 18:43:56.134,534.445,12.31
191,WFF,VCC-B,44431,2020-03-29 18:35:22.114,2020-03-29 18:44:12.829,530.715,12.117
192,VTGS,VCC-C,44430,2020-03-29 19:26:04.886,2020-03-29 19:36:13.870,608.984,31.15
193,UVAGS,VCC-C,44430,2020-03-29 19:26:27.414,2020-03-29 19:36:43.708,616.294,34.507
194,ODUGS,VCC-C,44430,2020-03-29 19:26:28.051,2020-03-29 19:36:56.982,628.931,52.161
195,WFF,VCC-C,44430,2020-03-29 19:26:47.323,2020-03-29 19:37:13.681,626.358,49.365
196,VTGS,VCC-A,44428,2020-03-29 20:07:36.729,2020-03-29 20:18:13.008,636.279,88.545
197,UVAGS,VCC-A,44428,2020-03-29 20:08:02.304,2020-03-29 20:18:41.484,639.18,85.021
198,ODUGS,VCC-A,44428,2020-03-29 20:08:14.075,2020-03-29 20:18:50.414,636.339,55.625
199,WFF,VCC-A,44428,2020-03-29 20:08:31.789,2020-03-29 20:19:07.850,636.061,60.341
200,VTGS,VCC-B,44431,2020-03-29 20:09:34.501,2020-03-29 20:20:10.807,636.306,87.242
201,UVAGS,VCC-B,44431,2020-03-29 20:10:00.185,2020-03-29 20:20:39.259,639.074,81.071
202,ODUGS,VCC-B,44431,2020-03-29 20:10:12.498,2020-03-29 20:20:48.009,635.511,52.911
203,WFF,VCC-B,44431,2020-03-29 20:10:30.108,2020-03-29 20:21:05.500,635.392,57.441
204,VTGS,VCC-C,44430,2020-03-29 21:02:26.267,2020-03-29 21:12:27.943,601.676,24.221
205,UVAGS,VCC-C,44430,2020-03-29 21:02:53.293,2020-03-29 21:12:57.168,603.875,23.95
206,ODUGS,VCC-C,44430,2020-03-29 21:03:20.898,2020-03-29 21:13:01.949,581.051,17.763
207,WFF,VCC-C,44430,2020-03-29 21:03:34.204,2020-03-29 21:13:21.653,587.449,19.459
208,VTGS,VCC-A,44428,2020-03-29 21:45:00.744,2020-03-29 21:54:19.795,559.051,14.23
209,UVAGS,VCC-A,44428,2020-03-29 21:45:26.360,2020-03-29 21:54:51.180,564.82,14.584
210,ODUGS,VCC-A,44428,2020-03-29 21:46:03.186,2020-03-29 21:54:54.809,531.623,11.028
211,WFF,VCC-A,44428,2020-03-29 21:46:12.117,2020-03-29 21:55:16.697,544.58,12.391
212,VTGS,VCC-B,44431,2020-03-29 21:47:01.016,2020-03-29 21:56:17.308,556.292,13.887
213,UVAGS,VCC-B,44431,2020-03-29 21:47:26.495,2020-03-29 21:56:48.830,562.335,14.26
214,ODUGS,VCC-B,44431,2020-03-29 21:48:03.761,2020-03-29 21:56:52.439,528.678,10.783
215,WFF,VCC-B,44431,2020-03-29 21:48:12.430,2020-03-29 21:57:14.446,542.016,12.137
216,UVAGS,VCC-A,44428,2020-03-30 01:00:44.869,2020-03-30 01:09:51.072,546.203,12.329
217,WFF,VCC-A,44428,2020-03-30 01:01:17.397,2020-03-30 01:10:34.400,557.003,13.72
218,ODUGS,VCC-A,44428,2020-03-30 01:01:23.864,2020-03-30 01:10:20.081,536.217,11.389
219,VTGS,VCC-B,44431,2020-03-30 01:02:37.819,2020-03-30 01:11:16.214,518.395,10.168
220,UVAGS,VCC-B,44431,2020-03-30 01:02:42.622,2020-03-30 01:11:51.215,548.593,12.579
221,WFF,VCC-B,44431,2020-03-30 01:03:15.010,2020-03-30 01:12:34.479,559.469,14.027
222,ODUGS,VCC-B,44431,2020-03-30 01:03:21.414,2020-03-30 01:12:20.484,539.07,11.652
223,VTGS,VCC-C,44430,2020-03-30 01:54:42.794,2020-03-30 02:04:33.507,590.713,20.476
224,UVAGS,VCC-C,44430,2020-03-30 01:54:48.537,2020-03-30 02:04:58.157,609.62,26.064
225,WFF,VCC-C,44430,2020-03-30 01:55:18.897,2020-03-30 02:05:36.399,617.502,31.521
226,ODUGS,VCC-C,44430,2020-03-30 01:55:23.007,2020-03-30 02:05:31.841,608.834,25.764
227,VTGS,VCC-A,44428,2020-03-30 02:36:46.940,2020-03-30 02:47:16.056,629.116,41.483
228,UVAGS,VCC-A,44428,2020-03-30 02:36:54.637,2020-03-30 02:47:32.690,638.053,57.319
229,WFF,VCC-A,44428,2020-03-30 02:37:25.900,2020-03-30 02:48:04.870,638.97,76.205
230,ODUGS,VCC-A,44428,2020-03-30 02:37:28.043,2020-03-30 02:48:06.497,638.454,59.516
231,VTGS,VCC-B,44431,2020-03-30 02:38:44.367,2020-03-30 02:49:14.599,630.232,43.354
232,UVAGS,VCC-B,44431,2020-03-30 02:38:52.184,2020-03-30 02:49:30.813,638.629,60.184
233,WFF,VCC-B,44431,2020-03-30 02:39:23.540,2020-03-30 02:50:02.634,639.094,80.035
234,ODUGS,VCC-B,44431,2020-03-30 02:39:25.574,2020-03-30 02:50:04.572,638.998,62.657
235,VTGS,VCC-C,44430,2020-03-30 03:30:51.452,2020-03-30 03:41:12.867,621.415,41.503
236,UVAGS,VCC-C,44430,2020-03-30 03:31:04.310,2020-03-30 03:41:15.800,611.49,30.382
237,ODUGS,VCC-C,44430,2020-03-30 03:31:39.172,2020-03-30 03:41:45.995,606.823,27.813
238,WFF,VCC-C,44430,2020-03-30 03:31:41.292,2020-03-30 03:41:34.447,593.155,23.029
239,VTGS,VCC-A,44428,2020-03-30 04:13:26.640,2020-03-30 04:22:51.101,564.461,16.252
240,UVAGS,VCC-A,44428,2020-03-30 04:13:46.141,2020-03-30 04:22:42.368,536.227,12.38
241,ODUGS,VCC-A,44428,2020-03-30 04:14:25.387,2020-03-30 04:23:07.006,521.619,11.032
242,VTGS,VCC-B,44431,2020-03-30 04:15:25.940,2020-03-30 04:24:45.525,559.585,15.515
243,UVAGS,VCC-B,44431,2020-03-30 04:15:45.934,2020-03-30 04:24:36.053,530.119,11.791
244,ODUGS,VCC-B,44431,2020-03-30 04:16:25.540,2020-03-30 04:25:00.277,514.737,10.474
245,VTGS,VCC-C,44430,2020-03-30 18:31:41.112,2020-03-30 18:40:49.156,548.044,14.456
246,ODUGS,VCC-C,44430,2020-03-30 18:31:48.863,2020-03-30 18:41:41.121,592.258,22.599
247,UVAGS,VCC-C,44430,2020-03-30 18:31:59.338,2020-03-30 18:41:21.999,562.661,16.146
248,WFF,VCC-C,44430,2020-03-30 18:32:08.930,2020-03-30 18:41:57.636,588.706,21.992
249,VTGS,VCC-A,44428,2020-03-30 19:14:00.911,2020-03-30 19:24:21.641,620.73,38.085
250,UVAGS,VCC-A,44428,2020-03-30 19:14:24.200,2020-03-30 19:24:51.074,626.874,42.207
251,ODUGS,VCC-A,44428,2020-03-30 19:14:27.156,2020-03-30 19:25:03.319,636.163,65.024
252,WFF,VCC-A,44428,2020-03-30 19:14:46.193,2020-03-30 19:25:20.134,633.941,61.167
253,VTGS,VCC-B,44431,2020-03-30 19:15:56.993,2020-03-30 19:26:19.433,622.44,40.113
254,UVAGS,VCC-B,44431,2020-03-30 19:16:20.461,2020-03-30 19:26:48.775,628.314,44.462
255,ODUGS,VCC-B,44431,2020-03-30 19:16:24.002,2020-03-30 19:27:00.774,636.772,68.742
256,WFF,VCC-B,44431,2020-03-30 19:16:42.968,2020-03-30 19:27:17.619,634.651,64.591
257,VTGS,VCC-C,44430,2020-03-30 20:07:01.401,2020-03-30 20:17:27.956,626.555,45.365
258,UVAGS,VCC-C,44430,2020-03-30 20:07:28.134,2020-03-30 20:17:56.372,628.238,43.188
259,ODUGS,VCC-C,44430,2020-03-30 20:07:47.384,2020-03-30 20:18:03.048,615.664,29.932
260,WFF,VCC-C,44430,2020-03-30 20:08:03.391,2020-03-30 20:18:21.344,617.953,32.547
261,VTGS,VCC-A,44428,2020-03-30 20:50:39.982,2020-03-30 21:00:37.320,597.338,21.685
262,UVAGS,VCC-A,44428,2020-03-30 20:51:06.905,2020-03-30 21:01:06.899,599.994,21.597
263,ODUGS,VCC-A,44428,2020-03-30 20:51:36.371,2020-03-30 21:01:11.416,575.045,16.159
264,WFF,VCC-A,44428,2020-03-30 20:51:48.946,2020-03-30 21:01:31.505,582.559,17.76
265,VTGS,VCC-B,44431,2020-03-30 20:52:39.160,2020-03-30 21:02:34.226,595.066,21.046
266,UVAGS,VCC-B,44431,2020-03-30 20:53:06.045,2020-03-30 21:03:03.894,597.849,20.999
267,ODUGS,VCC-B,44431,2020-03-30 20:53:35.998,2020-03-30 21:03:08.329,572.331,15.735
268,WFF,VCC-B,44431,2020-03-30 20:53:48.365,2020-03-30 21:03:28.524,580.159,17.312
269,VTGS,VCC-C,44430,2020-03-30 21:44:51.998,2020-03-30 21:53:28.521,516.523,10.246
270,UVAGS,VCC-C,44430,2020-03-30 21:45:15.166,2020-03-30 21:54:02.149,526.983,10.828
271,WFF,VCC-A,44428,2020-03-31 00:07:29.003,2020-03-31 00:16:07.509,518.506,10.076
272,WFF,VCC-B,44431,2020-03-31 00:09:26.488,2020-03-31 00:18:07.285,520.797,10.252
273,VTGS,VCC-C,44430,2020-03-31 00:59:42.615,2020-03-31 01:08:51.847,549.232,13.312
274,UVAGS,VCC-C,44430,2020-03-31 00:59:47.445,2020-03-31 01:09:22.644,575.199,16.556
275,WFF,VCC-C,44430,2020-03-31 01:00:18.410,2020-03-31 01:10:04.379,585.969,19.004
276,ODUGS,VCC-C,44430,2020-03-31 01:00:23.937,2020-03-31 01:09:54.543,570.606,15.822
277,VTGS,VCC-A,44428,2020-03-31 01:43:04.396,2020-03-31 01:53:07.633,603.237,23.337
278,UVAGS,VCC-A,44428,2020-03-31 01:43:10.515,2020-03-31 01:53:30.675,620.16,30.012
279,WFF,VCC-A,44428,2020-03-31 01:43:40.955,2020-03-31 01:54:07.844,626.889,36.943
280,ODUGS,VCC-A,44428,2020-03-31 01:43:44.673,2020-03-31 01:54:04.579,619.906,29.92
281,VTGS,VCC-B,44431,2020-03-31 01:45:01.244,2020-03-31 01:55:06.512,605.268,24.082
282,UVAGS,VCC-B,44431,2020-03-31 01:45:07.447,2020-03-31 01:55:29.157,621.71,31.074
283,WFF,VCC-B,44431,2020-03-31 01:45:37.903,2020-03-31 01:56:06.045,628.142,38.445
284,ODUGS,VCC-B,44431,2020-03-31 01:45:41.528,2020-03-31 01:56:03.095,621.567,31.047
285,VTGS,VCC-C,44430,2020-03-31 02:35:42.892,2020-03-31 02:46:16.633,633.741,81.59
286,UVAGS,VCC-C,44430,2020-03-31 02:35:52.508,2020-03-31 02:46:27.277,634.769,71.656
287,WFF,VCC-C,44430,2020-03-31 02:36:25.549,2020-03-31 02:46:53.972,628.423,52.035
288,ODUGS,VCC-C,44430,2020-03-31 02:36:26.028,2020-03-31 02:46:59.960,633.932,66.67
289,VTGS,VCC-A,44428,2020-03-31 03:19:22.083,2020-03-31 03:29:39.447,617.364,33.931
290,UVAGS,VCC-A,44428,2020-03-31 03:19:35.957,2020-03-31 03:29:40.316,604.359,25.358
291,ODUGS,VCC-A,44428,2020-03-31 03:20:11.418,2020-03-31 03:30:09.697,598.279,23.178
292,WFF,VCC-A,44428,2020-03-31 03:20:14.328,2020-03-31 03:29:56.642,582.314,19.366
293,VTGS,VCC-B,44431,2020-03-31 03:21:19.908,2020-03-31 03:31:35.031,615.123,32.286
294,UVAGS,VCC-B,44431,2020-03-31 03:21:34.056,2020-03-31 03:31:35.367,601.311,24.224
295,ODUGS,VCC-B,44431,2020-03-31 03:22:09.678,2020-03-31 03:32:04.520,594.842,22.126
296,WFF,VCC-B,44431,2020-03-31 03:22:12.808,2020-03-31 03:31:51.072,578.264,18.513
297,ODUGS,VCC-C,44430,2020-03-31 17:37:36.706,2020-03-31 17:46:05.923,509.217,10.303
298,WFF,VCC-C,44430,2020-03-31 17:37:57.173,2020-03-31 17:46:22.675,505.502,10.161
299,VTGS,VCC-A,44428,2020-03-31 18:20:44.935,2020-03-31 18:30:18.163,573.228,17.988
300,ODUGS,VCC-A,44428,2020-03-31 18:20:57.506,2020-03-31 18:31:07.104,609.598,28.184
301,UVAGS,VCC-A,44428,2020-03-31 18:21:04.609,2020-03-31 18:30:49.937,585.328,19.969
302,WFF,VCC-A,44428,2020-03-31 18:21:17.412,2020-03-31 18:31:23.650,606.238,27.274
303,VTGS,VCC-B,44431,2020-03-31 18:22:39.070,2020-03-31 18:32:16.396,577.326,18.822
304,ODUGS,VCC-B,44431,2020-03-31 18:22:52.627,2020-03-31 18:33:04.749,612.122,29.573
305,UVAGS,VCC-B,44431,2020-03-31 18:22:59.027,2020-03-31 18:32:47.963,588.936,20.879
306,WFF,VCC-B,44431,2020-03-31 18:23:12.482,2020-03-31 18:33:21.301,608.819,28.576
307,VTGS,VCC-C,44430,2020-03-31 19:11:50.841,2020-03-31 19:22:22.849,632.008,79.048
308,UVAGS,VCC-C,44430,2020-03-31 19:12:16.136,2020-03-31 19:22:51.363,635.227,85.779
309,ODUGS,VCC-C,44430,2020-03-31 19:12:26.673,2020-03-31 19:23:00.684,634.011,62.223
310,WFF,VCC-C,44430,2020-03-31 19:12:44.596,2020-03-31 19:23:17.995,633.399,67.368
311,VTGS,VCC-A,44428,2020-03-31 19:56:28.769,2020-03-31 20:06:53.724,624.955,37.525
312,UVAGS,VCC-A,44428,2020-03-31 19:56:55.721,2020-03-31 20:07:22.305,626.584,36.168
313,ODUGS,VCC-A,44428,2020-03-31 19:57:17.281,2020-03-31 20:07:28.444,611.163,25.756
314,WFF,VCC-A,44428,2020-03-31 19:57:32.657,2020-03-31 20:07:47.086,614.429,28.016
315,VTGS,VCC-B,44431,2020-03-31 19:58:26.730,2020-03-31 20:08:50.261,623.531,36.031
316,UVAGS,VCC-B,44431,2020-03-31 19:58:53.712,2020-03-31 20:09:18.882,625.17,34.813
317,ODUGS,VCC-B,44431,2020-03-31 19:59:15.785,2020-03-31 20:09:24.898,609.113,24.911
318,WFF,VCC-B,44431,2020-03-31 19:59:31.007,2020-03-31 20:09:43.622,612.615,27.106
319,VTGS,VCC-C,44430,2020-03-31 20:49:03.495,2020-03-31 20:58:24.459,560.964,14.88
320,UVAGS,VCC-C,44430,2020-03-31 20:49:29.364,2020-03-31 20:58:55.497,566.133,15.184
321,ODUGS,VCC-C,44430,2020-03-31 20:50:05.251,2020-03-31 20:58:59.067,533.816,11.458
322,WFF,VCC-C,44430,2020-03-31 20:50:14.714,2020-03-31 20:59:20.700,545.986,12.833
323,UVAGS,VCC-A,44428,2020-03-31 21:34:54.962,2020-03-31 21:43:35.877,520.915,10.147
324,UVAGS,VCC-C,44430,2020-04-01 00:04:41.819,2020-04-01 00:13:37.500,535.681,11.585
325,WFF,VCC-C,44430,2020-04-01 00:05:14.626,2020-04-01 00:14:20.944,546.318,12.836
326,ODUGS,VCC-C,44430,2020-04-01 00:05:21.326,2020-04-01 00:14:05.770,524.444,10.619
327,VTGS,VCC-A,44428,2020-04-01 00:49:20.637,2020-04-01 00:58:46.350,565.713,15.086
328,UVAGS,VCC-A,44428,2020-04-01 00:49:25.739,2020-04-01 00:59:15.420,589.681,18.809
329,WFF,VCC-A,44428,2020-04-01 00:49:56.471,2020-04-01 00:59:56.325,599.854,21.834
330,ODUGS,VCC-A,44428,2020-04-01 00:50:01.574,2020-04-01 00:59:48.042,586.468,18.158
331,VTGS,VCC-B,44431,2020-04-01 00:51:17.145,2020-04-01 01:00:45.434,568.289,15.467
332,UVAGS,VCC-B,44431,2020-04-01 00:51:22.293,2020-04-01 01:01:14.138,591.845,19.305
333,WFF,VCC-B,44431,2020-04-01 00:51:52.973,2020-04-01 01:01:54.850,601.877,22.472
334,ODUGS,VCC-B,44431,2020-04-01 00:51:57.992,2020-04-01 01:01:46.886,588.894,18.675
335,VTGS,VCC-C,44430,2020-04-01 01:40:38.814,2020-04-01 01:51:00.620,621.806,37.081
336,UVAGS,VCC-C,44430,2020-04-01 01:40:46.187,2020-04-01 01:51:18.293,632.106,50.718
337,WFF,VCC-C,44430,2020-04-01 01:41:17.207,2020-04-01 01:51:51.309,634.102,67.217
338,ODUGS,VCC-C,44430,2020-04-01 01:41:19.622,2020-04-01 01:51:52.162,632.54,52.309
339,VTGS,VCC-A,44428,2020-04-01 02:25:27.767,2020-04-01 02:36:04.389,636.622,79.036
340,UVAGS,VCC-A,44428,2020-04-01 02:25:38.186,2020-04-01 02:36:12.935,634.749,55.774
341,ODUGS,VCC-A,44428,2020-04-01 02:26:11.968,2020-04-01 02:36:45.080,633.112,51.408
342,WFF,VCC-A,44428,2020-04-01 02:26:12.126,2020-04-01 02:36:37.579,625.453,40.783
343,VTGS,VCC-B,44431,2020-04-01 02:27:24.620,2020-04-01 02:38:00.805,636.185,75.009
344,UVAGS,VCC-B,44431,2020-04-01 02:27:35.219,2020-04-01 02:38:08.895,633.676,52.838
345,ODUGS,VCC-B,44431,2020-04-01 02:28:09.064,2020-04-01 02:38:40.906,631.842,48.643
346,WFF,VCC-B,44431,2020-04-01 02:28:09.367,2020-04-01 02:38:33.077,623.71,38.75
347,VTGS,VCC-C,44430,2020-04-01 03:17:08.572,2020-04-01 03:26:39.815,571.243,18.005
348,UVAGS,VCC-C,44430,2020-04-01 03:17:27.019,2020-04-01 03:26:32.750,545.731,13.739
349,ODUGS,VCC-C,44430,2020-04-01 03:18:05.462,2020-04-01 03:26:58.268,532.806,12.318
350,WFF,VCC-C,44430,2020-04-01 03:18:12.176,2020-04-01 03:26:39.167,506.991,10.23
351,ODUGS,VCC-A,44428,2020-04-01 17:27:50.326,2020-04-01 17:36:55.896,545.57,13.493
352,WFF,VCC-A,44428,2020-04-01 17:28:10.720,2020-04-01 17:37:12.544,541.824,13.264
353,ODUGS,VCC-B,44431,2020-04-01 17:29:43.336,2020-04-01 17:38:54.293,550.957,14.145
354,WFF,VCC-B,44431,2020-04-01 17:30:03.713,2020-04-01 17:39:10.922,547.209,13.895
355,VTGS,VCC-C,44430,2020-04-01 18:16:57.925,2020-04-01 18:27:08.881,610.956,32.527
356,UVAGS,VCC-C,44430,2020-04-01 18:17:20.631,2020-04-01 18:27:38.607,617.976,36.04
357,ODUGS,VCC-C,44430,2020-04-01 18:17:21.803,2020-04-01 18:27:51.639,629.836,54.801
358,WFF,VCC-C,44430,2020-04-01 18:17:41.022,2020-04-01 18:28:08.354,627.332,51.773
359,VTGS,VCC-A,44428,2020-04-01 19:02:30.040,2020-04-01 19:13:06.333,636.293,79.66
360,UVAGS,VCC-A,44428,2020-04-01 19:02:55.928,2020-04-01 19:13:34.738,638.81,73.988
361,ODUGS,VCC-A,44428,2020-04-01 19:03:09.249,2020-04-01 19:13:43.158,633.909,48.31
362,WFF,VCC-A,44428,2020-04-01 19:03:26.665,2020-04-01 19:14:00.746,634.081,52.489
363,VTGS,VCC-B,44431,2020-04-01 19:04:26.685,2020-04-01 19:15:02.746,636.061,75.781
364,UVAGS,VCC-B,44431,2020-04-01 19:04:52.666,2020-04-01 19:15:31.136,638.47,70.439
365,ODUGS,VCC-B,44431,2020-04-01 19:05:06.518,2020-04-01 19:15:39.390,632.872,46.1
366,WFF,VCC-B,44431,2020-04-01 19:05:23.829,2020-04-01 19:15:57.031,633.202,50.1
367,VTGS,VCC-C,44430,2020-04-01 19:53:21.905,2020-04-01 20:03:21.644,599.739,23.547
368,UVAGS,VCC-C,44430,2020-04-01 19:53:48.915,2020-04-01 20:03:50.934,602.019,23.321
369,ODUGS,VCC-C,44430,2020-04-01 19:54:16.960,2020-04-01 20:03:55.626,578.666,17.327
370,WFF,VCC-C,44430,2020-04-01 19:54:30.099,2020-04-01 20:04:15.413,585.314,18.997
371,VTGS,VCC-A,44428,2020-04-01 20:40:01.013,2020-04-01 20:49:12.109,551.096,13.277
372,UVAGS,VCC-A,44428,2020-04-01 20:40:26.241,2020-04-01 20:49:43.901,557.66,13.684
373,ODUGS,VCC-A,44428,2020-04-01 20:41:04.323,2020-04-01 20:49:47.456,523.133,10.343
374,WFF,VCC-A,44428,2020-04-01 20:41:12.500,2020-04-01 20:50:09.695,537.195,11.683
375,VTGS,VCC-B,44431,2020-04-01 20:42:00.026,2020-04-01 20:51:08.348,548.322,12.97
376,UVAGS,VCC-B,44431,2020-04-01 20:42:25.106,2020-04-01 20:51:40.290,555.184,13.395
377,ODUGS,VCC-B,44431,2020-04-01 20:43:03.609,2020-04-01 20:51:43.832,520.223,10.123
378,WFF,VCC-B,44431,2020-04-01 20:43:11.518,2020-04-01 20:52:06.195,534.677,11.455
379,VTGS,VCC-A,44428,2020-04-01 23:55:32.868,2020-04-02 00:04:15.782,522.914,10.543
380,UVAGS,VCC-A,44428,2020-04-01 23:55:37.641,2020-04-02 00:04:50.219,552.578,13.047
381,WFF,VCC-A,44428,2020-04-01 23:56:09.788,2020-04-02 00:05:33.336,563.548,14.606
382,ODUGS,VCC-A,44428,2020-04-01 23:56:16.077,2020-04-02 00:05:19.935,543.858,12.145
383,VTGS,VCC-B,44431,2020-04-01 23:57:29.292,2020-04-02 00:06:14.876,525.584,10.762
384,UVAGS,VCC-B,44431,2020-04-01 23:57:34.059,2020-04-02 00:06:49.005,554.946,13.321
385,WFF,VCC-B,44431,2020-04-01 23:58:06.080,2020-04-02 00:07:32.036,565.956,14.943
386,ODUGS,VCC-B,44431,2020-04-01 23:58:12.304,2020-04-02 00:07:18.958,546.654,12.432
387,VTGS,VCC-C,44430,2020-04-02 00:45:35.812,2020-04-02 00:55:27.917,592.105,20.974
388,UVAGS,VCC-C,44430,2020-04-02 00:45:41.614,2020-04-02 00:55:52.229,610.615,26.761
389,WFF,VCC-C,44430,2020-04-02 00:46:11.975,2020-04-02 00:56:30.241,618.266,32.489
390,ODUGS,VCC-C,44430,2020-04-02 00:46:16.011,2020-04-02 00:56:25.952,609.941,26.499
391,VTGS,VCC-A,44428,2020-04-02 01:31:38.693,2020-04-02 01:42:10.272,631.579,47.134
392,UVAGS,VCC-A,44428,2020-04-02 01:31:46.740,2020-04-02 01:42:25.701,638.961,65.93
393,WFF,VCC-A,44428,2020-04-02 01:32:18.282,2020-04-02 01:42:56.836,638.554,87.368
394,ODUGS,VCC-A,44428,2020-04-02 01:32:20.110,2020-04-02 01:42:59.351,639.241,68.951
395,VTGS,VCC-B,44431,2020-04-02 01:33:34.894,2020-04-02 01:44:07.366,632.472,49.381
396,UVAGS,VCC-B,44431,2020-04-02 01:33:43.068,2020-04-02 01:44:22.376,639.308,69.258
397,WFF,VCC-B,44431,2020-04-02 01:34:14.717,2020-04-02 01:44:53.141,638.424,88.55
398,ODUGS,VCC-B,44431,2020-04-02 01:34:16.432,2020-04-02 01:44:55.965,639.533,72.592
399,VTGS,VCC-C,44430,2020-04-02 02:21:44.865,2020-04-02 02:32:04.230,619.365,39.616
400,UVAGS,VCC-C,44430,2020-04-02 02:21:57.934,2020-04-02 02:32:06.723,608.789,29.122
401,ODUGS,VCC-C,44430,2020-04-02 02:22:32.912,2020-04-02 02:32:36.734,603.822,26.649
402,WFF,VCC-C,44430,2020-04-02 02:22:35.204,2020-04-02 02:32:24.864,589.66,22.108
403,VTGS,VCC-A,44428,2020-04-02 03:08:23.805,2020-04-02 03:17:33.092,549.287,14.192
404,UVAGS,VCC-A,44428,2020-04-02 03:08:44.790,2020-04-02 03:17:22.166,517.376,10.723
405,VTGS,VCC-B,44431,2020-04-02 03:10:22.101,2020-04-02 03:19:25.919,543.818,13.538
406,UVAGS,VCC-B,44431,2020-04-02 03:10:43.644,2020-04-02 03:19:14.196,510.552,10.191
407,VTGS,VCC-C,44430,2020-04-02 17:22:27.854,2020-04-02 17:31:40.181,552.327,15.033
408,ODUGS,VCC-C,44430,2020-04-02 17:22:36.527,2020-04-02 17:32:31.545,595.018,23.497
409,UVAGS,VCC-C,44430,2020-04-02 17:22:46.360,2020-04-02 17:32:12.802,566.442,16.769
410,WFF,VCC-C,44430,2020-04-02 17:22:56.566,2020-04-02 17:32:48.053,591.487,22.843
411,VTGS,VCC-A,44428,2020-04-02 18:08:46.592,2020-04-02 18:19:12.105,625.513,44.249
412,UVAGS,VCC-A,44428,2020-04-02 18:09:10.384,2020-04-02 18:19:41.275,630.891,49.046
413,ODUGS,VCC-A,44428,2020-04-02 18:09:14.996,2020-04-02 18:19:52.834,637.838,76.015
414,WFF,VCC-A,44428,2020-04-02 18:09:33.832,2020-04-02 18:20:09.731,635.899,71.345
415,VTGS,VCC-B,44431,2020-04-02 18:10:41.802,2020-04-02 18:21:08.676,626.874,46.678
416,UVAGS,VCC-B,44431,2020-04-02 18:11:05.756,2020-04-02 18:21:37.767,632.011,51.726
417,ODUGS,VCC-B,44431,2020-04-02 18:11:10.939,2020-04-02 18:21:49.094,638.155,80.073
418,WFF,VCC-B,44431,2020-04-02 18:11:29.701,2020-04-02 18:22:06.023,636.322,75.155
419,VTGS,VCC-C,44430,2020-04-02 18:57:51.327,2020-04-02 19:08:16.921,625.594,43.674
420,UVAGS,VCC-C,44430,2020-04-02 18:58:18.109,2020-04-02 19:08:45.346,627.237,41.674
421,ODUGS,VCC-C,44430,2020-04-02 18:58:37.794,2020-04-02 19:08:51.908,614.114,29.027
422,WFF,VCC-C,44430,2020-04-02 18:58:53.687,2020-04-02 19:09:10.263,616.576,31.565
423,VTGS,VCC-A,44428,2020-04-02 19:45:34.243,2020-04-02 19:55:25.085,590.842,19.944
424,UVAGS,VCC-A,44428,2020-04-02 19:46:01.039,2020-04-02 19:55:54.919,593.88,19.964
425,ODUGS,VCC-A,44428,2020-04-02 19:46:31.897,2020-04-02 19:55:59.209,567.312,14.995
426,WFF,VCC-A,44428,2020-04-02 19:46:43.881,2020-04-02 19:56:19.597,575.716,16.532
427,VTGS,VCC-B,44431,2020-04-02 19:47:32.431,2020-04-02 19:57:20.898,588.467,19.386
428,UVAGS,VCC-B,44431,2020-04-02 19:47:59.168,2020-04-02 19:57:50.831,591.663,19.44
429,ODUGS,VCC-B,44431,2020-04-02 19:48:30.507,2020-04-02 19:57:55.049,564.542,14.617
430,WFF,VCC-B,44431,2020-04-02 19:48:42.272,2020-04-02 19:58:15.545,573.273,16.135
431,VTGS,VCC-C,44430,2020-04-02 20:35:43.258,2020-04-02 20:44:17.271,514.013,10.065
432,UVAGS,VCC-C,44430,2020-04-02 20:36:06.252,2020-04-02 20:44:51.045,524.793,10.658
433,WFF,VCC-A,44428,2020-04-02 23:02:18.100,2020-04-02 23:11:02.740,524.64,10.575
434,WFF,VCC-B,44431,2020-04-02 23:04:14.439,2020-04-02 23:13:01.406,526.967,10.767
435,VTGS,VCC-C,44430,2020-04-02 23:50:30.863,2020-04-02 23:59:41.798,550.935,13.553
436,UVAGS,VCC-C,44430,2020-04-02 23:50:35.718,2020-04-03 00:00:12.306,576.588,16.868
437,WFF,VCC-C,44430,2020-04-02 23:51:06.619,2020-04-03 00:00:53.899,587.28,19.402
438,ODUGS,VCC-C,44430,2020-04-02 23:51:12.090,2020-04-03 00:00:44.325,572.235,16.148
439,VTGS,VCC-A,44428,2020-04-03 00:37:51.588,2020-04-03 00:47:59.952,608.364,25.513
440,UVAGS,VCC-A,44428,2020-04-03 00:37:57.945,2020-04-03 00:48:21.869,623.924,33.143
441,WFF,VCC-A,44428,2020-04-03 00:38:28.452,2020-04-03 00:48:58.216,629.764,41.417
442,ODUGS,VCC-A,44428,2020-04-03 00:38:31.902,2020-04-03 00:48:55.842,623.94,33.252
443,VTGS,VCC-B,44431,2020-04-03 00:39:47.391,2020-04-03 00:49:57.621,610.23,26.365
444,UVAGS,VCC-B,44431,2020-04-03 00:39:53.838,2020-04-03 00:50:19.140,625.302,34.382
445,WFF,VCC-B,44431,2020-04-03 00:40:24.372,2020-04-03 00:50:55.196,630.824,43.203
446,ODUGS,VCC-B,44431,2020-04-03 00:40:27.728,2020-04-03 00:50:53.132,625.404,34.576
447,VTGS,VCC-C,44430,2020-04-03 01:26:30.972,2020-04-03 01:37:04.190,633.218,84.915
448,UVAGS,VCC-C,44430,2020-04-03 01:26:40.720,2020-04-03 01:37:14.471,633.751,68.556
449,WFF,VCC-C,44430,2020-04-03 01:27:13.910,2020-04-03 01:37:40.800,626.89,49.724
450,ODUGS,VCC-C,44430,2020-04-03 01:27:14.278,2020-04-03 01:37:47.052,632.774,63.628
451,VTGS,VCC-A,44428,2020-04-03 02:14:11.973,2020-04-03 02:24:22.060,610.087,29.487
452,UVAGS,VCC-A,44428,2020-04-03 02:14:26.655,2020-04-03 02:24:21.393,594.738,22.26
453,ODUGS,VCC-A,44428,2020-04-03 02:15:02.604,2020-04-03 02:24:50.093,587.489,20.301
454,WFF,VCC-A,44428,2020-04-03 02:15:06.156,2020-04-03 02:24:35.901,569.745,17.014
455,VTGS,VCC-B,44431,2020-04-03 02:16:08.888,2020-04-03 02:26:16.357,607.469,28.113
456,UVAGS,VCC-B,44431,2020-04-03 02:16:23.871,2020-04-03 02:26:15.137,591.266,21.285
457,ODUGS,VCC-B,44431,2020-04-03 02:17:00.003,2020-04-03 02:26:43.589,583.586,19.394
458,WFF,VCC-B,44431,2020-04-03 02:17:03.796,2020-04-03 02:26:28.984,565.188,16.265
459,ODUGS,VCC-C,44430,2020-04-03 16:28:17.877,2020-04-03 16:36:52.600,514.723,10.74
460,WFF,VCC-C,44430,2020-04-03 16:28:38.341,2020-04-03 16:37:09.324,510.983,10.586
461,VTGS,VCC-A,44428,2020-04-03 17:15:22.156,2020-04-03 17:25:06.760,584.604,20.457
462,ODUGS,VCC-A,44428,2020-04-03 17:15:37.455,2020-04-03 17:25:54.087,616.632,32.346
463,UVAGS,VCC-A,44428,2020-04-03 17:15:42.611,2020-04-03 17:25:37.973,595.362,22.666
464,WFF,VCC-A,44428,2020-04-03 17:15:57.236,2020-04-03 17:26:10.651,613.415,31.165
465,VTGS,VCC-B,44431,2020-04-03 17:17:15.711,2020-04-03 17:27:03.889,588.178,21.402
466,ODUGS,VCC-B,44431,2020-04-03 17:17:31.931,2020-04-03 17:27:50.692,618.761,33.985
467,UVAGS,VCC-B,44431,2020-04-03 17:17:36.422,2020-04-03 17:27:34.923,598.501,23.702
468,WFF,VCC-B,44431,2020-04-03 17:17:51.665,2020-04-03 17:28:07.262,615.597,32.69
469,VTGS,VCC-C,44430,2020-04-03 18:02:34.983,2020-04-03 18:13:07.209,632.226,82.32
470,UVAGS,VCC-C,44430,2020-04-03 18:03:00.373,2020-04-03 18:13:35.692,635.319,89.004
471,ODUGS,VCC-C,44430,2020-04-03 18:03:11.345,2020-04-03 18:13:44.861,633.516,59.726
472,WFF,VCC-C,44430,2020-04-03 18:03:29.195,2020-04-03 18:14:02.204,633.009,64.736
473,VTGS,VCC-A,44428,2020-04-03 18:51:16.477,2020-04-03 19:01:37.428,620.951,33.552
474,UVAGS,VCC-A,44428,2020-04-03 18:51:43.516,2020-04-03 19:02:06.111,622.595,32.557
475,ODUGS,VCC-A,44428,2020-04-03 18:52:06.523,2020-04-03 19:02:11.912,605.389,23.487
476,WFF,VCC-A,44428,2020-04-03 18:52:21.457,2020-04-03 19:02:30.780,609.323,25.572
477,VTGS,VCC-B,44431,2020-04-03 18:53:13.693,2020-04-03 19:03:33.055,619.362,32.305
478,UVAGS,VCC-B,44431,2020-04-03 18:53:40.752,2020-04-03 19:04:01.792,621.04,31.419
479,ODUGS,VCC-B,44431,2020-04-03 18:54:04.260,2020-04-03 19:04:07.474,603.214,22.758
480,WFF,VCC-B,44431,2020-04-03 18:54:19.035,2020-04-03 19:04:26.426,607.391,24.79
481,VTGS,VCC-C,44430,2020-04-03 19:39:49.431,2020-04-03 19:49:08.143,558.712,14.583
482,UVAGS,VCC-C,44430,2020-04-03 19:40:15.214,2020-04-03 19:49:39.279,564.065,14.903
483,ODUGS,VCC-C,44430,2020-04-03 19:40:51.459,2020-04-03 19:49:42.808,531.349,11.245
484,WFF,VCC-C,44430,2020-04-03 19:41:00.727,2020-04-03 19:50:04.535,543.808,12.612
485,UVAGS,VCC-C,44430,2020-04-03 22:55:25.419,2020-04-03 23:04:22.481,537.062,11.743
486,WFF,VCC-C,44430,2020-04-03 22:55:58.104,2020-04-03 23:05:05.885,547.781,13.034
487,ODUGS,VCC-C,44430,2020-04-03 22:56:04.766,2020-04-03 23:04:50.953,526.187,10.788
488,VTGS,VCC-A,44428,2020-04-03 23:44:03.746,2020-04-03 23:53:36.176,572.43,16.17
489,UVAGS,VCC-A,44428,2020-04-03 23:44:08.977,2020-04-03 23:54:04.213,595.236,20.229
490,WFF,VCC-A,44428,2020-04-03 23:44:39.576,2020-04-03 23:54:44.550,604.974,23.672
491,ODUGS,VCC-A,44428,2020-04-03 23:44:44.450,2020-04-03 23:54:37.168,592.718,19.639
492,VTGS,VCC-B,44431,2020-04-03 23:45:59.390,2020-04-03 23:55:34.300,574.91,16.591
493,UVAGS,VCC-B,44431,2020-04-03 23:46:04.672,2020-04-03 23:56:01.967,597.295,20.782
494,WFF,VCC-B,44431,2020-04-03 23:46:35.231,2020-04-03 23:56:42.093,606.862,24.395
495,ODUGS,VCC-B,44431,2020-04-03 23:46:40.020,2020-04-03 23:56:35.032,595.012,20.217
496,VTGS,VCC-C,44430,2020-04-04 00:31:21.795,2020-04-04 00:41:44.100,622.305,38.261
497,UVAGS,VCC-C,44430,2020-04-04 00:31:29.258,2020-04-04 00:42:01.452,632.194,52.566
498,WFF,VCC-C,44430,2020-04-04 00:32:00.338,2020-04-04 00:42:34.190,633.852,69.877
499,ODUGS,VCC-C,44430,2020-04-04 00:32:02.670,2020-04-04 00:42:35.282,632.612,54.338
500,VTGS,VCC-A,44428,2020-04-04 01:20:11.731,2020-04-04 01:30:46.348,634.617,68.043
501,UVAGS,VCC-A,44428,2020-04-04 01:20:22.671,2020-04-04 01:30:53.611,630.94,47.934
502,ODUGS,VCC-A,44428,2020-04-04 01:20:56.650,2020-04-04 01:31:25.355,628.705,44.052
503,WFF,VCC-A,44428,2020-04-04 01:20:57.220,2020-04-04 01:31:16.927,619.707,35.358
504,VTGS,VCC-B,44431,2020-04-04 01:22:07.832,2020-04-04 01:32:41.733,633.901,64.412
505,UVAGS,VCC-B,44431,2020-04-04 01:22:18.964,2020-04-04 01:32:48.530,629.566,45.476
506,ODUGS,VCC-B,44431,2020-04-04 01:22:53.019,2020-04-04 01:33:20.131,627.112,41.767
507,WFF,VCC-B,44431,2020-04-04 01:22:53.743,2020-04-04 01:33:11.364,617.621,33.666
508,VTGS,VCC-C,44430,2020-04-04 02:07:52.597,2020-04-04 02:17:19.861,567.264,17.344
509,UVAGS,VCC-C,44430,2020-04-04 02:08:11.405,2020-04-04 02:17:12.247,540.842,13.221
510,ODUGS,VCC-C,44430,2020-04-04 02:08:50.095,2020-04-04 02:17:37.465,527.37,11.827
511,ODUGS,VCC-A,44428,2020-04-04 16:22:21.267,2020-04-04 16:31:41.635,560.368,15.391
512,UVAGS,VCC-A,44428,2020-04-04 16:22:38.934,2020-04-04 16:31:17.934,519.0,10.914
513,WFF,VCC-A,44428,2020-04-04 16:22:41.605,2020-04-04 16:31:58.229,556.624,15.099
514,ODUGS,VCC-B,44431,2020-04-04 16:24:13.966,2020-04-04 16:33:39.081,565.115,16.113
515,VTGS,VCC-B,44431,2020-04-04 16:24:15.361,2020-04-04 16:32:40.763,505.402,10.085
516,UVAGS,VCC-B,44431,2020-04-04 16:24:30.696,2020-04-04 16:33:16.008,525.312,11.461
517,WFF,VCC-B,44431,2020-04-04 16:24:34.275,2020-04-04 16:33:55.662,561.387,15.795
518,VTGS,VCC-C,44430,2020-04-04 17:07:36.193,2020-04-04 17:17:48.797,612.604,33.771
519,UVAGS,VCC-C,44430,2020-04-04 17:07:59.047,2020-04-04 17:18:18.435,619.388,37.426
520,ODUGS,VCC-C,44430,2020-04-04 17:08:00.674,2020-04-04 17:18:31.263,630.589,57.179
521,WFF,VCC-C,44430,2020-04-04 17:08:19.847,2020-04-04 17:18:47.990,628.143,53.944
522,VTGS,VCC-A,44428,2020-04-04 17:57:10.777,2020-04-04 18:07:46.430,635.653,69.208
523,UVAGS,VCC-A,44428,2020-04-04 17:57:36.929,2020-04-04 18:08:14.799,637.87,64.489
524,ODUGS,VCC-A,44428,2020-04-04 17:57:51.732,2020-04-04 18:08:22.760,631.028,42.511
525,WFF,VCC-A,44428,2020-04-04 17:58:08.836,2020-04-04 18:08:40.499,631.663,46.209
526,VTGS,VCC-B,44431,2020-04-04 17:59:06.916,2020-04-04 18:09:42.116,635.2,65.785
527,UVAGS,VCC-B,44431,2020-04-04 17:59:33.155,2020-04-04 18:10:10.477,637.322,61.417
528,ODUGS,VCC-B,44431,2020-04-04 17:59:48.481,2020-04-04 18:10:18.283,629.802,40.691
529,WFF,VCC-B,44431,2020-04-04 18:00:05.471,2020-04-04 18:10:36.079,630.608,44.232
530,VTGS,VCC-C,44430,2020-04-04 18:44:02.326,2020-04-04 18:54:00.430,598.104,22.995
531,UVAGS,VCC-C,44430,2020-04-04 18:44:29.319,2020-04-04 18:54:29.770,600.451,22.806
532,ODUGS,VCC-C,44430,2020-04-04 18:44:57.736,2020-04-04 18:54:34.380,576.644,16.969
533,WFF,VCC-C,44430,2020-04-04 18:45:10.731,2020-04-04 18:54:54.243,583.512,18.617
534,VTGS,VCC-A,44428,2020-04-04 19:34:48.101,2020-04-04 19:43:51.506,543.405,12.449
535,UVAGS,VCC-A,44428,2020-04-04 19:35:12.911,2020-04-04 19:44:23.715,550.804,12.903
536,WFF,VCC-A,44428,2020-04-04 19:35:59.593,2020-04-04 19:44:49.823,530.23,11.067
537,VTGS,VCC-B,44431,2020-04-04 19:36:46.509,2020-04-04 19:45:47.126,540.617,12.171
538,UVAGS,VCC-B,44431,2020-04-04 19:37:11.151,2020-04-04 19:46:19.491,548.34,12.642
539,WFF,VCC-B,44431,2020-04-04 19:37:57.964,2020-04-04 19:46:45.724,527.76,10.861
540,VTGS,VCC-A,44428,2020-04-04 22:50:12.399,2020-04-04 22:59:02.349,529.95,11.154
541,UVAGS,VCC-A,44428,2020-04-04 22:50:17.155,2020-04-04 22:59:35.919,558.764,13.812
542,WFF,VCC-A,44428,2020-04-04 22:50:48.968,2020-04-04 23:00:18.770,569.802,15.553
543,ODUGS,VCC-A,44428,2020-04-04 22:50:55.079,2020-04-04 23:00:06.259,551.18,12.948
544,VTGS,VCC-B,44431,2020-04-04 22:52:08.128,2020-04-04 23:01:00.750,532.622,11.393
545,UVAGS,VCC-B,44431,2020-04-04 22:52:12.892,2020-04-04 23:01:34.004,561.112,14.112
546,WFF,VCC-B,44431,2020-04-04 22:52:44.595,2020-04-04 23:02:16.746,572.151,15.923
547,ODUGS,VCC-B,44431,2020-04-04 22:52:50.635,2020-04-04 23:02:04.558,553.923,13.261
548,VTGS,VCC-C,44430,2020-04-04 23:36:13.850,2020-04-04 23:46:07.095,593.245,21.413
549,UVAGS,VCC-C,44430,2020-04-04 23:36:19.709,2020-04-04 23:46:31.114,611.405,27.38
550,WFF,VCC-C,44430,2020-04-04 23:36:50.070,2020-04-04 23:47:08.926,618.856,33.355
551,ODUGS,VCC-C,44430,2020-04-04 23:36:54.036,2020-04-04 23:47:04.866,610.83,27.153
552,VTGS,VCC-A,44428,2020-04-05 00:26:17.482,2020-04-05 00:36:50.880,633.398,53.72
553,UVAGS,VCC-A,44428,2020-04-05 00:26:25.882,2020-04-05 00:37:05.137,639.255,75.543
554,WFF,VCC-A,44428,2020-04-05 00:26:57.741,2020-04-05 00:37:35.226,637.485,81.411
555,ODUGS,VCC-A,44428,2020-04-05 00:26:59.254,2020-04-05 00:37:38.599,639.345,79.407
556,VTGS,VCC-B,44431,2020-04-05 00:28:13.106,2020-04-05 00:38:47.177,634.071,56.411
557,UVAGS,VCC-B,44431,2020-04-05 00:28:21.642,2020-04-05 00:39:01.019,639.377,79.283
558,WFF,VCC-B,44431,2020-04-05 00:28:53.621,2020-04-05 00:39:30.723,637.102,77.461
559,ODUGS,VCC-B,44431,2020-04-05 00:28:55.019,2020-04-05 00:39:34.404,639.385,83.406
560,VTGS,VCC-C,44430,2020-04-05 01:12:23.222,2020-04-05 01:22:40.716,617.494,38.083
561,UVAGS,VCC-C,44430,2020-04-05 01:12:36.481,2020-04-05 01:22:42.831,606.35,28.092
562,ODUGS,VCC-C,44430,2020-04-05 01:13:11.563,2020-04-05 01:23:12.681,601.118,25.696
563,WFF,VCC-C,44430,2020-04-05 01:13:14.007,2020-04-05 01:23:00.533,586.526,21.351
564,VTGS,VCC-A,44428,2020-04-05 02:03:08.441,2020-04-05 02:12:01.330,532.889,12.409
565,VTGS,VCC-B,44431,2020-04-05 02:05:06.413,2020-04-05 02:13:53.172,526.759,11.818
566,VTGS,VCC-C,44430,2020-04-05 16:13:00.048,2020-04-05 16:22:15.941,555.893,15.54
567,ODUGS,VCC-C,44430,2020-04-05 16:13:09.488,2020-04-05 16:23:06.807,597.319,24.293
568,UVAGS,VCC-C,44430,2020-04-05 16:13:18.787,2020-04-05 16:22:48.379,569.592,17.316
569,WFF,VCC-C,44430,2020-04-05 16:13:29.503,2020-04-05 16:23:23.316,593.813,23.597
570,VTGS,VCC-A,44428,2020-04-05 17:03:19.906,2020-04-05 17:13:49.166,629.26,51.379
571,UVAGS,VCC-A,44428,2020-04-05 17:03:44.144,2020-04-05 17:14:18.118,633.974,56.877
572,ODUGS,VCC-A,44428,2020-04-05 17:03:50.321,2020-04-05 17:14:29.051,638.73,87.359
573,WFF,VCC-A,44428,2020-04-05 17:04:08.950,2020-04-05 17:14:46.037,637.087,82.091
574,VTGS,VCC-B,44431,2020-04-05 17:05:14.863,2020-04-05 17:15:45.174,630.311,54.269
575,UVAGS,VCC-B,44431,2020-04-05 17:05:39.251,2020-04-05 17:16:14.056,634.805,60.016
576,ODUGS,VCC-B,44431,2020-04-05 17:05:45.985,2020-04-05 17:16:24.777,638.792,88.415
577,WFF,VCC-B,44431,2020-04-05 17:06:04.538,2020-04-05 17:16:41.799,637.261,86.099
578,VTGS,VCC-C,44430,2020-04-05 17:48:26.137,2020-04-05 17:58:50.926,624.789,42.315
579,UVAGS,VCC-C,44430,2020-04-05 17:48:52.958,2020-04-05 17:59:19.358,626.4,40.455
580,ODUGS,VCC-C,44430,2020-04-05 17:49:13.011,2020-04-05 17:59:25.821,612.81,28.295
581,WFF,VCC-C,44430,2020-04-05 17:49:28.806,2020-04-05 17:59:44.226,615.42,30.772
582,VTGS,VCC-A,44428,2020-04-05 18:40:15.506,2020-04-05 18:49:59.845,584.339,18.465
583,UVAGS,VCC-A,44428,2020-04-05 18:40:42.136,2020-04-05 18:50:29.959,587.823,18.573
584,ODUGS,VCC-A,44428,2020-04-05 18:41:14.310,2020-04-05 18:50:34.047,559.737,13.988
585,WFF,VCC-A,44428,2020-04-05 18:41:25.695,2020-04-05 18:50:54.732,569.037,15.474
586,VTGS,VCC-B,44431,2020-04-05 18:42:13.345,2020-04-05 18:51:55.223,581.878,17.969
587,UVAGS,VCC-B,44431,2020-04-05 18:42:39.898,2020-04-05 18:52:25.440,585.542,18.106
588,ODUGS,VCC-B,44431,2020-04-05 18:43:12.547,2020-04-05 18:52:29.464,556.917,13.647
589,WFF,VCC-B,44431,2020-04-05 18:43:23.705,2020-04-05 18:52:50.261,566.556,15.116
590,UVAGS,VCC-C,44430,2020-04-05 19:26:41.969,2020-04-05 19:35:24.950,522.981,10.519
591,UVAGS,VCC-A,44428,2020-04-05 21:56:19.645,2020-04-05 22:05:01.101,521.456,10.201
592,WFF,VCC-A,44428,2020-04-05 21:56:53.851,2020-04-05 22:05:44.589,530.738,11.106
593,UVAGS,VCC-B,44431,2020-04-05 21:58:15.683,2020-04-05 22:06:59.291,523.608,10.371
594,WFF,VCC-B,44431,2020-04-05 21:58:49.693,2020-04-05 22:07:42.804,533.111,11.317
595,VTGS,VCC-C,44430,2020-04-05 22:41:04.088,2020-04-05 22:50:16.441,552.353,13.763
596,UVAGS,VCC-C,44430,2020-04-05 22:41:08.962,2020-04-05 22:50:46.702,577.74,17.139
597,WFF,VCC-C,44430,2020-04-05 22:41:39.815,2020-04-05 22:51:28.171,588.356,19.749
598,ODUGS,VCC-C,44430,2020-04-05 22:41:45.233,2020-04-05 22:51:18.819,573.586,16.431
599,VTGS,VCC-A,44428,2020-04-05 23:32:25.730,2020-04-05 23:42:38.663,612.933,27.931
600,UVAGS,VCC-A,44428,2020-04-05 23:32:32.333,2020-04-05 23:42:59.477,627.144,36.695
601,WFF,VCC-A,44428,2020-04-05 23:33:02.933,2020-04-05 23:43:35.006,632.073,46.579
602,ODUGS,VCC-A,44428,2020-04-05 23:33:06.122,2020-04-05 23:43:33.476,627.354,37.056
603,VTGS,VCC-B,44431,2020-04-05 23:34:21.140,2020-04-05 23:44:35.782,614.642,28.912
604,UVAGS,VCC-B,44431,2020-04-05 23:34:27.833,2020-04-05 23:44:56.199,628.366,38.153
605,WFF,VCC-B,44431,2020-04-05 23:34:58.475,2020-04-05 23:45:31.418,632.943,48.713
606,ODUGS,VCC-B,44431,2020-04-05 23:35:01.570,2020-04-05 23:45:30.197,628.627,38.625
607,VTGS,VCC-C,44430,2020-04-06 00:17:04.034,2020-04-06 00:27:36.721,632.687,87.785
608,UVAGS,VCC-C,44430,2020-04-06 00:17:13.896,2020-04-06 00:27:46.691,632.795,66.009
609,WFF,VCC-C,44430,2020-04-06 00:17:47.214,2020-04-06 00:28:12.707,625.493,47.853
610,ODUGS,VCC-C,44430,2020-04-06 00:17:47.486,2020-04-06 00:28:19.181,631.695,61.148
611,VTGS,VCC-A,44428,2020-04-06 01:08:49.071,2020-04-06 01:18:51.085,602.014,25.866
612,UVAGS,VCC-A,44428,2020-04-06 01:09:04.605,2020-04-06 01:18:48.871,584.266,19.663
613,ODUGS,VCC-A,44428,2020-04-06 01:09:41.084,2020-04-06 01:19:16.852,575.768,17.881
614,WFF,VCC-A,44428,2020-04-06 01:09:45.331,2020-04-06 01:19:01.505,556.174,15.0
615,VTGS,VCC-B,44431,2020-04-06 01:10:45.740,2020-04-06 01:20:44.731,598.991,24.693
616,UVAGS,VCC-B,44431,2020-04-06 01:11:01.598,2020-04-06 01:20:41.937,580.339,18.808
617,ODUGS,VCC-B,44431,2020-04-06 01:11:38.290,2020-04-06 01:21:09.651,571.361,17.082
618,WFF,VCC-B,44431,2020-04-06 01:11:42.804,2020-04-06 01:20:53.864,551.06,14.328
619,ODUGS,VCC-C,44430,2020-04-06 15:18:44.627,2020-04-06 15:27:23.884,519.257,11.117
620,WFF,VCC-C,44430,2020-04-06 15:19:05.082,2020-04-06 15:27:40.588,515.506,10.954
621,VTGS,VCC-A,44428,2020-04-06 16:09:47.353,2020-04-06 16:19:41.631,594.278,23.167
622,ODUGS,VCC-A,44428,2020-04-06 16:10:05.133,2020-04-06 16:20:27.552,622.419,37.102
623,UVAGS,VCC-A,44428,2020-04-06 16:10:08.496,2020-04-06 16:20:12.364,603.868,25.642
624,WFF,VCC-A,44428,2020-04-06 16:10:24.785,2020-04-06 16:20:44.144,619.359,35.578
625,VTGS,VCC-B,44431,2020-04-06 16:11:40.923,2020-04-06 16:21:38.340,597.417,24.249
626,ODUGS,VCC-B,44431,2020-04-06 16:11:59.585,2020-04-06 16:22:23.783,624.198,39.055
627,UVAGS,VCC-B,44431,2020-04-06 16:12:02.307,2020-04-06 16:22:08.915,606.608,26.835
628,WFF,VCC-B,44431,2020-04-06 16:12:19.190,2020-04-06 16:22:40.385,621.195,37.381
629,VTGS,VCC-C,44430,2020-04-06 16:53:04.130,2020-04-06 17:03:36.539,632.409,85.074
630,UVAGS,VCC-C,44430,2020-04-06 16:53:29.601,2020-04-06 17:04:04.995,635.394,88.242
631,ODUGS,VCC-C,44430,2020-04-06 16:53:40.935,2020-04-06 17:04:14.040,633.105,57.722
632,WFF,VCC-C,44430,2020-04-06 16:53:58.721,2020-04-06 17:04:31.412,632.691,62.614
633,VTGS,VCC-A,44428,2020-04-06 17:45:51.337,2020-04-06 17:56:08.025,616.688,30.33
634,UVAGS,VCC-A,44428,2020-04-06 17:46:18.426,2020-04-06 17:56:36.844,618.418,29.609
635,ODUGS,VCC-A,44428,2020-04-06 17:46:42.806,2020-04-06 17:56:42.330,599.524,21.586
636,WFF,VCC-A,44428,2020-04-06 17:46:57.299,2020-04-06 17:57:01.427,604.128,23.533
637,VTGS,VCC-B,44431,2020-04-06 17:47:48.454,2020-04-06 17:58:03.398,614.944,29.268
638,UVAGS,VCC-B,44431,2020-04-06 17:48:15.545,2020-04-06 17:58:32.274,616.729,28.633
639,ODUGS,VCC-B,44431,2020-04-06 17:48:40.427,2020-04-06 17:58:37.652,597.225,20.946
640,WFF,VCC-B,44431,2020-04-06 17:48:54.751,2020-04-06 17:58:56.835,602.084,22.848
641,VTGS,VCC-C,44430,2020-04-06 18:30:20.013,2020-04-06 18:39:36.868,556.855,14.342
642,UVAGS,VCC-C,44430,2020-04-06 18:30:45.721,2020-04-06 18:40:08.088,562.367,14.675
643,ODUGS,VCC-C,44430,2020-04-06 18:31:22.269,2020-04-06 18:40:11.588,529.319,11.072
644,WFF,VCC-C,44430,2020-04-06 18:31:31.367,2020-04-06 18:40:33.389,542.022,12.432
645,UVAGS,VCC-C,44430,2020-04-06 21:45:53.928,2020-04-06 21:54:52.152,538.224,11.88
646,WFF,VCC-C,44430,2020-04-06 21:46:26.520,2020-04-06 21:55:35.516,548.996,13.203
647,ODUGS,VCC-C,44430,2020-04-06 21:46:33.149,2020-04-06 21:55:20.788,527.639,10.932
648,VTGS,VCC-A,44428,2020-04-06 22:38:33.696,2020-04-06 22:48:12.420,578.724,17.33
649,UVAGS,VCC-A,44428,2020-04-06 22:38:39.070,2020-04-06 22:48:39.445,600.375,21.766
650,WFF,VCC-A,44428,2020-04-06 22:39:09.571,2020-04-06 22:49:19.197,609.626,25.69
651,ODUGS,VCC-A,44428,2020-04-06 22:39:14.223,2020-04-06 22:49:12.671,598.448,21.245
652,VTGS,VCC-B,44431,2020-04-06 22:40:29.124,2020-04-06 22:50:10.241,581.117,17.796
653,UVAGS,VCC-B,44431,2020-04-06 22:40:34.559,2020-04-06 22:50:36.893,602.334,22.388
654,WFF,VCC-B,44431,2020-04-06 22:41:05.034,2020-04-06 22:51:16.418,611.384,26.514
655,ODUGS,VCC-B,44431,2020-04-06 22:41:09.597,2020-04-06 22:51:10.212,600.615,21.896
656,VTGS,VCC-C,44430,2020-04-06 23:21:49.761,2020-04-06 23:32:12.423,622.662,39.295
657,UVAGS,VCC-C,44430,2020-04-06 23:21:57.299,2020-04-06 23:32:29.502,632.203,54.189
658,WFF,VCC-C,44430,2020-04-06 23:22:28.435,2020-04-06 23:33:02.006,633.571,72.186
659,ODUGS,VCC-C,44430,2020-04-06 23:22:30.699,2020-04-06 23:33:03.298,632.599,56.122
660,VTGS,VCC-A,44428,2020-04-07 00:14:42.781,2020-04-07 00:25:14.736,631.955,58.572
661,UVAGS,VCC-A,44428,2020-04-07 00:14:54.251,2020-04-07 00:25:20.731,626.48,41.586
662,ODUGS,VCC-A,44428,2020-04-07 00:15:28.460,2020-04-07 00:25:52.055,623.595,38.159
663,WFF,VCC-A,44428,2020-04-07 00:15:29.461,2020-04-07 00:25:42.712,613.251,30.968
664,VTGS,VCC-B,44431,2020-04-07 00:16:38.785,2020-04-07 00:27:09.730,630.945,55.418
665,UVAGS,VCC-B,44431,2020-04-07 00:16:50.461,2020-04-07 00:27:15.254,624.793,39.521
666,ODUGS,VCC-B,44431,2020-04-07 00:17:24.758,2020-04-07 00:27:46.415,621.657,36.25
667,WFF,VCC-B,44431,2020-04-07 00:17:25.921,2020-04-07 00:27:36.738,610.817,29.534
668,VTGS,VCC-C,44430,2020-04-07 00:58:21.429,2020-04-07 01:07:45.209,563.78,16.806
669,UVAGS,VCC-C,44430,2020-04-07 00:58:40.545,2020-04-07 01:07:37.127,536.582,12.795
670,ODUGS,VCC-C,44430,2020-04-07 00:59:19.451,2020-04-07 01:08:02.082,522.631,11.424
671,VTGS,VCC-A,44428,2020-04-07 15:16:39.504,2020-04-07 15:25:16.758,517.254,11.008
672,ODUGS,VCC-A,44428,2020-04-07 15:16:40.376,2020-04-07 15:26:13.430,573.054,17.423
673,UVAGS,VCC-A,44428,2020-04-07 15:16:55.588,2020-04-07 15:25:51.366,535.778,12.444
674,WFF,VCC-A,44428,2020-04-07 15:17:00.648,2020-04-07 15:26:29.990,569.342,17.055
675,VTGS,VCC-B,44431,2020-04-07 15:18:31.197,2020-04-07 15:27:14.852,523.655,11.568
676,ODUGS,VCC-B,44431,2020-04-07 15:18:33.340,2020-04-07 15:28:10.624,577.284,18.232
677,UVAGS,VCC-B,44431,2020-04-07 15:18:47.689,2020-04-07 15:27:49.119,541.43,13.042
678,WFF,VCC-B,44431,2020-04-07 15:18:53.584,2020-04-07 15:28:27.174,573.59,17.831
679,VTGS,VCC-C,44430,2020-04-07 15:57:59.620,2020-04-07 16:08:13.591,613.971,34.855
680,UVAGS,VCC-C,44430,2020-04-07 15:58:22.597,2020-04-07 16:08:43.152,620.555,38.632
681,ODUGS,VCC-C,44430,2020-04-07 15:58:24.597,2020-04-07 16:08:55.809,631.212,59.238
682,WFF,VCC-C,44430,2020-04-07 15:58:43.733,2020-04-07 16:09:12.553,628.82,55.826
683,VTGS,VCC-A,44428,2020-04-07 16:51:38.818,2020-04-07 17:02:13.310,634.492,60.411
684,UVAGS,VCC-A,44428,2020-04-07 16:52:05.198,2020-04-07 17:02:41.664,636.466,56.614
685,ODUGS,VCC-A,44428,2020-04-07 16:52:21.409,2020-04-07 17:02:49.207,627.798,37.884
686,WFF,VCC-A,44428,2020-04-07 16:52:38.204,2020-04-07 17:03:07.106,628.902,41.178
687,VTGS,VCC-B,44431,2020-04-07 16:53:35.094,2020-04-07 17:04:08.921,633.827,57.475
688,UVAGS,VCC-B,44431,2020-04-07 16:54:01.550,2020-04-07 17:04:37.275,635.725,54.0
689,ODUGS,VCC-B,44431,2020-04-07 16:54:18.281,2020-04-07 17:04:44.674,626.393,36.358
690,WFF,VCC-B,44431,2020-04-07 16:54:34.954,2020-04-07 17:05:02.636,627.682,39.518
691,VTGS,VCC-C,44430,2020-04-07 17:34:27.469,2020-04-07 17:44:24.235,596.766,22.554
692,UVAGS,VCC-C,44430,2020-04-07 17:34:54.449,2020-04-07 17:44:53.621,599.172,22.394
693,ODUGS,VCC-C,44430,2020-04-07 17:35:23.176,2020-04-07 17:44:58.170,574.994,16.681
694,WFF,VCC-C,44430,2020-04-07 17:35:36.049,2020-04-07 17:45:18.093,582.044,18.312
695,VTGS,VCC-A,44428,2020-04-07 18:29:21.939,2020-04-07 18:38:17.963,536.024,11.726
696,UVAGS,VCC-A,44428,2020-04-07 18:29:46.298,2020-04-07 18:38:50.587,544.289,12.223
697,WFF,VCC-A,44428,2020-04-07 18:30:33.326,2020-04-07 18:39:17.033,523.707,10.531
698,VTGS,VCC-B,44431,2020-04-07 18:31:20.385,2020-04-07 18:40:13.617,533.232,11.473
699,UVAGS,VCC-B,44431,2020-04-07 18:31:44.565,2020-04-07 18:40:46.407,541.842,11.986
700,WFF,VCC-B,44431,2020-04-07 18:32:31.703,2020-04-07 18:41:12.990,521.287,10.344
701,VTGS,VCC-A,44428,2020-04-07 21:44:38.633,2020-04-07 21:53:35.426,536.793,11.8
702,UVAGS,VCC-A,44428,2020-04-07 21:44:43.405,2020-04-07 21:54:08.132,564.727,14.624
703,WFF,VCC-A,44428,2020-04-07 21:45:14.935,2020-04-07 21:54:50.671,575.736,16.56
704,ODUGS,VCC-A,44428,2020-04-07 21:45:20.858,2020-04-07 21:54:39.020,558.162,13.796
705,VTGS,VCC-B,44431,2020-04-07 21:46:34.332,2020-04-07 21:55:33.791,539.459,12.061
706,UVAGS,VCC-B,44431,2020-04-07 21:46:39.118,2020-04-07 21:56:06.166,567.048,14.953
707,WFF,VCC-B,44431,2020-04-07 21:47:10.550,2020-04-07 21:56:48.580,578.03,16.97
708,ODUGS,VCC-B,44431,2020-04-07 21:47:16.399,2020-04-07 21:56:37.252,560.853,14.14
709,VTGS,VCC-C,44430,2020-04-07 22:26:36.858,2020-04-07 22:36:31.006,594.148,21.788
710,UVAGS,VCC-C,44430,2020-04-07 22:26:42.761,2020-04-07 22:36:54.785,612.024,27.909
711,WFF,VCC-C,44430,2020-04-07 22:27:13.127,2020-04-07 22:37:32.422,619.295,34.1
712,ODUGS,VCC-C,44430,2020-04-07 22:27:17.039,2020-04-07 22:37:28.556,611.517,27.713
713,VTGS,VCC-A,44428,2020-04-07 23:20:43.268,2020-04-07 23:31:17.885,634.617,61.288
