vcc_sched/network/output/VCC_Combined_Passes_20200107_20200121.csv

Pass #,GS Name,SC Name,SC NORAD ID,Start Time (UTCG),Stop Time (UTCG),Duration (sec),Max El (deg)
0,VTGS,VCC-C,44430,2020-01-07 03:47:04.814,2020-01-07 03:56:01.864,537.05,12.63
1,ODUGS,VCC-C,44430,2020-01-07 03:47:09.005,2020-01-07 03:56:56.221,587.216,19.754
2,UVAGS,VCC-C,44430,2020-01-07 03:47:21.969,2020-01-07 03:56:35.617,553.648,14.175
3,WFF,VCC-C,44430,2020-01-07 03:47:29.209,2020-01-07 03:57:12.779,583.57,19.294
4,VTGS,VCC-A,44428,2020-01-07 04:37:44.565,2020-01-07 04:48:14.932,630.367,43.908
5,UVAGS,VCC-A,44428,2020-01-07 04:38:08.353,2020-01-07 04:48:44.147,635.794,48.616
6,ODUGS,VCC-A,44428,2020-01-07 04:38:12.808,2020-01-07 04:48:55.771,642.963,74.924
7,WFF,VCC-A,44428,2020-01-07 04:38:31.700,2020-01-07 04:49:12.673,640.973,70.394
8,VTGS,VCC-B,44431,2020-01-07 04:40:17.835,2020-01-07 04:50:50.012,632.177,47.076
9,UVAGS,VCC-B,44431,2020-01-07 04:40:41.839,2020-01-07 04:51:19.113,637.274,52.107
10,ODUGS,VCC-B,44431,2020-01-07 04:40:47.047,2020-01-07 04:51:30.440,643.393,80.196
11,WFF,VCC-B,44431,2020-01-07 04:41:05.841,2020-01-07 04:51:47.383,641.542,75.338
12,VTGS,VCC-C,44430,2020-01-07 05:22:19.666,2020-01-07 05:32:55.874,636.208,53.468
13,UVAGS,VCC-C,44430,2020-01-07 05:22:46.253,2020-01-07 05:33:24.269,638.016,50.471
14,ODUGS,VCC-C,44430,2020-01-07 05:23:03.780,2020-01-07 05:33:31.480,627.7,34.403
15,WFF,VCC-C,44430,2020-01-07 05:23:20.278,2020-01-07 05:33:49.548,629.27,37.375
16,VTGS,VCC-A,44428,2020-01-07 06:14:37.742,2020-01-07 06:24:34.660,596.918,20.389
17,UVAGS,VCC-A,44428,2020-01-07 06:15:04.607,2020-01-07 06:25:04.489,599.882,20.399
18,ODUGS,VCC-A,44428,2020-01-07 06:15:35.261,2020-01-07 06:25:08.915,573.654,15.347
19,WFF,VCC-A,44428,2020-01-07 06:15:47.366,2020-01-07 06:25:29.245,581.879,16.902
20,VTGS,VCC-B,44431,2020-01-07 06:17:14.921,2020-01-07 06:27:08.707,593.786,19.642
21,UVAGS,VCC-B,44431,2020-01-07 06:17:41.704,2020-01-07 06:27:38.664,596.96,19.697
22,ODUGS,VCC-B,44431,2020-01-07 06:18:12.991,2020-01-07 06:27:42.997,570.006,14.841
23,WFF,VCC-B,44431,2020-01-07 06:18:24.812,2020-01-07 06:28:03.468,578.656,16.37
24,VTGS,VCC-C,44430,2020-01-07 07:00:11.958,2020-01-07 07:09:04.841,532.883,11.233
25,UVAGS,VCC-C,44430,2020-01-07 07:00:35.890,2020-01-07 07:09:37.888,541.998,11.772
26,WFF,VCC-C,44430,2020-01-07 07:01:23.161,2020-01-07 07:10:04.787,521.626,10.199
27,WFF,VCC-A,44428,2020-01-07 09:31:35.336,2020-01-07 09:40:24.790,529.454,10.729
28,UVAGS,VCC-B,44431,2020-01-07 09:33:35.442,2020-01-07 09:42:19.061,523.619,10.133
29,WFF,VCC-B,44431,2020-01-07 09:34:10.055,2020-01-07 09:43:02.477,532.422,10.982
30,VTGS,VCC-C,44430,2020-01-07 10:15:29.466,2020-01-07 10:24:36.906,547.44,12.658
31,UVAGS,VCC-C,44430,2020-01-07 10:15:34.378,2020-01-07 10:25:08.653,574.275,15.685
32,WFF,VCC-C,44430,2020-01-07 10:16:05.728,2020-01-07 10:25:50.818,585.09,17.854
33,ODUGS,VCC-C,44430,2020-01-07 10:16:11.407,2020-01-07 10:25:40.074,568.667,14.892
34,VTGS,VCC-A,44428,2020-01-07 11:07:15.763,2020-01-07 11:17:28.173,612.41,25.7
35,UVAGS,VCC-A,44428,2020-01-07 11:07:22.173,2020-01-07 11:17:50.090,627.917,33.327
36,WFF,VCC-A,44428,2020-01-07 11:07:52.761,2020-01-07 11:18:26.460,633.699,41.564
37,ODUGS,VCC-A,44428,2020-01-07 11:07:56.196,2020-01-07 11:18:24.079,627.883,33.426
38,VTGS,VCC-B,44431,2020-01-07 11:09:49.745,2020-01-07 11:20:04.509,614.764,26.827
39,UVAGS,VCC-B,44431,2020-01-07 11:09:56.266,2020-01-07 11:20:25.907,629.641,34.967
40,WFF,VCC-B,44431,2020-01-07 11:10:26.887,2020-01-07 11:21:01.888,635.001,43.928
41,ODUGS,VCC-B,44431,2020-01-07 11:10:30.202,2020-01-07 11:20:59.914,629.712,35.178
42,VTGS,VCC-C,44430,2020-01-07 11:51:38.386,2020-01-07 12:02:16.836,638.45,70.46
43,UVAGS,VCC-C,44430,2020-01-07 11:51:47.564,2020-01-07 12:02:28.793,641.229,83.426
44,WFF,VCC-C,44430,2020-01-07 11:52:20.187,2020-01-07 12:02:56.753,636.566,61.553
45,ODUGS,VCC-C,44430,2020-01-07 11:52:21.057,2020-01-07 12:03:01.805,640.748,78.514
46,VTGS,VCC-A,44428,2020-01-07 12:43:42.688,2020-01-07 12:53:56.729,614.041,29.802
47,UVAGS,VCC-A,44428,2020-01-07 12:43:57.333,2020-01-07 12:53:56.126,598.793,22.524
48,ODUGS,VCC-A,44428,2020-01-07 12:44:33.308,2020-01-07 12:54:24.868,591.56,20.55
49,WFF,VCC-A,44428,2020-01-07 12:44:36.803,2020-01-07 12:54:10.731,573.928,17.239
50,VTGS,VCC-B,44431,2020-01-07 12:46:18.091,2020-01-07 12:56:28.577,610.486,27.99
51,UVAGS,VCC-B,44431,2020-01-07 12:46:33.124,2020-01-07 12:56:27.248,594.124,21.235
52,ODUGS,VCC-B,44431,2020-01-07 12:47:09.347,2020-01-07 12:56:55.664,586.317,19.35
53,WFF,VCC-B,44431,2020-01-07 12:47:13.160,2020-01-07 12:56:40.983,567.823,16.244
54,VTGS,VCC-A,44428,2020-01-08 03:45:51.005,2020-01-08 03:55:43.035,592.03,21.21
55,ODUGS,VCC-A,44428,2020-01-08 03:46:06.880,2020-01-08 03:56:30.055,623.175,33.491
56,UVAGS,VCC-A,44428,2020-01-08 03:46:11.652,2020-01-08 03:56:14.164,602.512,23.477
57,WFF,VCC-A,44428,2020-01-08 03:46:26.661,2020-01-08 03:56:46.645,619.984,32.253
58,VTGS,VCC-B,44431,2020-01-08 03:48:21.695,2020-01-08 03:58:18.256,596.561,22.501
59,ODUGS,VCC-B,44431,2020-01-08 03:48:38.758,2020-01-08 03:59:04.602,625.844,35.744
60,UVAGS,VCC-B,44431,2020-01-08 03:48:42.668,2020-01-08 03:58:49.151,606.483,24.894
61,WFF,VCC-B,44431,2020-01-08 03:48:58.476,2020-01-08 03:59:21.205,622.729,34.344
62,VTGS,VCC-C,44430,2020-01-08 04:29:13.579,2020-01-08 04:39:51.355,637.776,70.428
63,UVAGS,VCC-C,44430,2020-01-08 04:29:38.644,2020-01-08 04:40:19.997,641.353,76.992
64,ODUGS,VCC-C,44430,2020-01-08 04:29:47.970,2020-01-08 04:40:29.770,641.8,70.261
65,WFF,VCC-C,44430,2020-01-08 04:30:06.143,2020-01-08 04:40:46.986,640.843,75.631
66,VTGS,VCC-A,44428,2020-01-08 05:21:53.743,2020-01-08 05:32:19.328,625.585,33.281
67,UVAGS,VCC-A,44428,2020-01-08 05:22:20.840,2020-01-08 05:32:48.067,627.227,32.337
68,ODUGS,VCC-A,44428,2020-01-08 05:22:44.062,2020-01-08 05:32:53.884,609.822,23.429
69,WFF,VCC-A,44428,2020-01-08 05:22:58.963,2020-01-08 05:33:12.785,613.822,25.499
70,VTGS,VCC-B,44431,2020-01-08 05:24:29.157,2020-01-08 05:34:52.595,623.438,31.698
71,UVAGS,VCC-B,44431,2020-01-08 05:24:56.268,2020-01-08 05:35:21.398,625.13,30.889
72,ODUGS,VCC-B,44431,2020-01-08 05:25:20.154,2020-01-08 05:35:27.070,606.916,22.493
73,WFF,VCC-B,44431,2020-01-08 05:25:34.842,2020-01-08 05:35:46.081,611.239,24.496
74,VTGS,VCC-C,44430,2020-01-08 06:06:28.684,2020-01-08 06:16:02.644,573.96,16.058
75,UVAGS,VCC-C,44430,2020-01-08 06:06:54.863,2020-01-08 06:16:33.419,578.556,16.316
76,ODUGS,VCC-C,44430,2020-01-08 06:07:29.621,2020-01-08 06:16:37.285,547.664,12.346
77,WFF,VCC-C,44430,2020-01-08 06:07:39.731,2020-01-08 06:16:58.594,558.863,13.759
78,UVAGS,VCC-C,44430,2020-01-08 09:22:29.272,2020-01-08 09:31:27.047,537.775,11.404
79,WFF,VCC-C,44430,2020-01-08 09:23:02.552,2020-01-08 09:32:10.514,547.962,12.565
80,ODUGS,VCC-C,44430,2020-01-08 09:23:09.213,2020-01-08 09:31:54.829,525.616,10.401
81,VTGS,VCC-A,44428,2020-01-08 10:15:00.245,2020-01-08 10:24:39.089,578.844,16.681
82,UVAGS,VCC-A,44428,2020-01-08 10:15:05.603,2020-01-08 10:25:06.808,601.205,20.857
83,WFF,VCC-A,44428,2020-01-08 10:15:36.276,2020-01-08 10:25:46.981,610.705,24.436
84,ODUGS,VCC-A,44428,2020-01-08 10:15:41.050,2020-01-08 10:25:39.859,598.809,20.278
85,VTGS,VCC-B,44431,2020-01-08 10:17:33.453,2020-01-08 10:27:15.413,581.96,17.252
86,UVAGS,VCC-B,44431,2020-01-08 10:17:38.879,2020-01-08 10:27:42.648,603.769,21.612
87,WFF,VCC-B,44431,2020-01-08 10:18:09.503,2020-01-08 10:28:22.540,613.037,25.426
88,ODUGS,VCC-B,44431,2020-01-08 10:18:14.168,2020-01-08 10:28:15.837,601.669,21.067
89,VTGS,VCC-C,44430,2020-01-08 10:58:36.206,2020-01-08 11:09:00.921,624.715,34.709
90,UVAGS,VCC-C,44430,2020-01-08 10:58:43.429,2020-01-08 11:09:19.367,635.938,46.848
91,WFF,VCC-C,44430,2020-01-08 10:59:14.397,2020-01-08 11:09:53.036,638.639,61.35
92,ODUGS,VCC-C,44430,2020-01-08 10:59:16.996,2020-01-08 11:09:53.310,636.314,48.034
93,VTGS,VCC-A,44428,2020-01-08 11:51:15.426,2020-01-08 12:01:53.460,638.034,65.527
94,UVAGS,VCC-A,44428,2020-01-08 11:51:26.510,2020-01-08 12:02:00.389,633.879,46.376
95,ODUGS,VCC-A,44428,2020-01-08 11:52:00.600,2020-01-08 12:02:32.045,631.445,42.623
96,WFF,VCC-A,44428,2020-01-08 11:52:01.265,2020-01-08 12:02:23.379,622.114,34.365
97,VTGS,VCC-B,44431,2020-01-08 11:53:49.222,2020-01-08 12:04:26.101,636.879,60.984
98,UVAGS,VCC-B,44431,2020-01-08 11:54:00.562,2020-01-08 12:04:32.420,631.858,43.323
99,ODUGS,VCC-B,44431,2020-01-08 11:54:34.756,2020-01-08 12:05:03.877,629.121,39.787
100,WFF,VCC-B,44431,2020-01-08 11:54:35.628,2020-01-08 12:04:54.773,619.145,32.25
101,VTGS,VCC-C,44430,2020-01-08 12:35:11.391,2020-01-08 12:44:55.757,584.366,19.907
102,UVAGS,VCC-C,44430,2020-01-08 12:35:28.973,2020-01-08 12:44:50.035,561.062,15.237
103,ODUGS,VCC-C,44430,2020-01-08 12:36:06.886,2020-01-08 12:45:16.283,549.397,13.73
104,WFF,VCC-C,44430,2020-01-08 12:36:12.819,2020-01-08 12:44:58.257,525.438,11.471
105,ODUGS,VCC-A,44428,2020-01-09 02:54:20.534,2020-01-09 03:03:52.923,572.389,16.594
106,VTGS,VCC-A,44428,2020-01-09 02:54:21.272,2020-01-09 03:02:55.089,513.817,10.454
107,UVAGS,VCC-A,44428,2020-01-09 02:54:36.854,2020-01-09 03:03:30.178,533.324,11.851
108,WFF,VCC-A,44428,2020-01-09 02:54:40.862,2020-01-09 03:04:09.531,568.669,16.265
109,VTGS,VCC-B,44431,2020-01-09 02:56:48.623,2020-01-09 03:05:31.192,522.569,11.165
110,ODUGS,VCC-B,44431,2020-01-09 02:56:49.599,2020-01-09 03:06:27.789,578.19,17.604
111,UVAGS,VCC-B,44431,2020-01-09 02:57:04.763,2020-01-09 03:06:05.800,541.037,12.608
112,WFF,VCC-B,44431,2020-01-09 02:57:09.893,2020-01-09 03:06:44.380,574.487,17.236
113,VTGS,VCC-C,44430,2020-01-09 03:36:23.744,2020-01-09 03:46:38.996,615.252,31.134
114,UVAGS,VCC-C,44430,2020-01-09 03:36:46.270,2020-01-09 03:47:08.881,622.611,34.449
115,ODUGS,VCC-C,44430,2020-01-09 03:36:46.767,2020-01-09 03:47:22.211,635.444,51.701
116,WFF,VCC-C,44430,2020-01-09 03:37:06.095,2020-01-09 03:47:38.925,632.83,49.0
117,VTGS,VCC-A,44428,2020-01-09 04:29:21.159,2020-01-09 04:40:01.721,640.562,65.063
118,UVAGS,VCC-A,44428,2020-01-09 04:29:47.462,2020-01-09 04:40:30.113,642.651,60.838
119,ODUGS,VCC-A,44428,2020-01-09 04:30:02.939,2020-01-09 04:40:37.917,634.978,40.561
120,WFF,VCC-A,44428,2020-01-09 04:30:19.935,2020-01-09 04:40:55.740,635.805,44.055
121,VTGS,VCC-B,44431,2020-01-09 04:31:54.565,2020-01-09 04:42:34.373,639.808,60.962
122,UVAGS,VCC-B,44431,2020-01-09 04:32:20.977,2020-01-09 04:43:02.760,641.783,57.17
123,ODUGS,VCC-B,44431,2020-01-09 04:32:37.132,2020-01-09 04:43:10.368,633.236,38.393
124,WFF,VCC-B,44431,2020-01-09 04:32:53.972,2020-01-09 04:43:28.270,634.298,41.701
125,VTGS,VCC-C,44430,2020-01-09 05:12:52.379,2020-01-09 05:23:01.575,609.196,24.855
126,UVAGS,VCC-C,44430,2020-01-09 05:13:19.467,2020-01-09 05:23:30.807,611.34,24.565
127,ODUGS,VCC-C,44430,2020-01-09 05:13:46.867,2020-01-09 05:23:35.744,588.877,18.253
128,WFF,VCC-C,44430,2020-01-09 05:14:00.302,2020-01-09 05:23:55.395,595.093,19.975
129,VTGS,VCC-A,44428,2020-01-09 06:07:07.900,2020-01-09 06:16:13.625,545.725,12.306
130,UVAGS,VCC-A,44428,2020-01-09 06:07:32.561,2020-01-09 06:16:46.038,553.477,12.785
131,WFF,VCC-A,44428,2020-01-09 06:08:19.396,2020-01-09 06:17:12.435,533.039,11.008
132,VTGS,VCC-B,44431,2020-01-09 06:09:44.148,2020-01-09 06:18:46.210,542.062,11.956
133,UVAGS,VCC-B,44431,2020-01-09 06:10:08.583,2020-01-09 06:19:18.832,550.249,12.457
134,WFF,VCC-B,44431,2020-01-09 06:10:55.574,2020-01-09 06:19:45.400,529.826,10.749
135,VTGS,VCC-A,44428,2020-01-09 09:22:42.227,2020-01-09 09:31:41.442,539.215,11.709
136,UVAGS,VCC-A,44428,2020-01-09 09:22:47.133,2020-01-09 09:32:14.435,567.302,14.477
137,WFF,VCC-A,44428,2020-01-09 09:23:18.899,2020-01-09 09:32:57.093,578.194,16.335
138,ODUGS,VCC-A,44428,2020-01-09 09:23:24.829,2020-01-09 09:32:45.130,560.301,13.624
139,VTGS,VCC-B,44431,2020-01-09 09:25:14.837,2020-01-09 09:34:17.431,542.594,12.039
140,UVAGS,VCC-B,44431,2020-01-09 09:25:19.755,2020-01-09 09:34:49.999,570.244,14.891
141,WFF,VCC-B,44431,2020-01-09 09:25:51.383,2020-01-09 09:35:32.502,581.119,16.85
142,ODUGS,VCC-B,44431,2020-01-09 09:25:57.223,2020-01-09 09:35:20.962,563.739,14.058
143,VTGS,VCC-C,44430,2020-01-09 10:05:34.943,2020-01-09 10:15:31.083,596.14,20.751
144,UVAGS,VCC-C,44430,2020-01-09 10:05:40.779,2020-01-09 10:15:55.688,614.909,26.367
145,WFF,VCC-C,44430,2020-01-09 10:06:11.257,2020-01-09 10:16:33.922,622.665,31.836
146,ODUGS,VCC-C,44430,2020-01-09 10:06:15.331,2020-01-09 10:16:29.388,614.057,26.059
147,VTGS,VCC-A,44428,2020-01-09 10:58:54.293,2020-01-09 11:09:32.869,638.576,58.229
148,UVAGS,VCC-A,44428,2020-01-09 10:59:02.932,2020-01-09 11:09:46.469,643.537,81.456
149,WFF,VCC-A,44428,2020-01-09 10:59:35.041,2020-01-09 11:10:15.974,640.933,75.479
150,ODUGS,VCC-A,44428,2020-01-09 10:59:36.374,2020-01-09 11:10:19.834,643.46,85.689
151,VTGS,VCC-B,44431,2020-01-09 11:01:26.776,2020-01-09 11:12:05.966,639.19,62.119
152,UVAGS,VCC-B,44431,2020-01-09 11:01:35.596,2020-01-09 11:12:19.012,643.416,86.5
153,WFF,VCC-B,44431,2020-01-09 11:02:07.873,2020-01-09 11:12:48.007,640.134,70.558
154,ODUGS,VCC-B,44431,2020-01-09 11:02:09.052,2020-01-09 11:12:52.272,643.22,88.91
155,VTGS,VCC-C,44430,2020-01-09 11:41:52.132,2020-01-09 11:52:18.320,626.188,41.819
156,UVAGS,VCC-C,44430,2020-01-09 11:42:04.980,2020-01-09 11:52:21.277,616.297,30.684
157,ODUGS,VCC-C,44430,2020-01-09 11:42:39.901,2020-01-09 11:52:51.497,611.596,28.101
158,WFF,VCC-C,44430,2020-01-09 11:42:41.983,2020-01-09 11:52:39.974,597.991,23.295
159,VTGS,VCC-A,44428,2020-01-09 12:35:55.418,2020-01-09 12:44:42.826,527.408,11.641
160,VTGS,VCC-B,44431,2020-01-09 12:38:31.120,2020-01-09 12:47:09.845,518.725,10.902
161,VTGS,VCC-C,44430,2020-01-10 02:43:54.599,2020-01-10 02:53:13.780,559.181,15.258
162,ODUGS,VCC-C,44430,2020-01-10 02:44:03.330,2020-01-10 02:54:05.119,601.789,23.742
163,UVAGS,VCC-C,44430,2020-01-10 02:44:13.157,2020-01-10 02:53:46.421,573.264,17.002
164,WFF,VCC-C,44430,2020-01-10 02:44:23.406,2020-01-10 02:54:21.663,598.257,23.091
165,VTGS,VCC-A,44428,2020-01-10 03:37:02.319,2020-01-10 03:47:39.377,637.058,58.095
166,UVAGS,VCC-A,44428,2020-01-10 03:37:26.916,2020-01-10 03:48:08.215,641.299,64.056
167,ODUGS,VCC-A,44428,2020-01-10 03:37:34.284,2020-01-10 03:48:18.707,644.423,83.984
168,WFF,VCC-A,44428,2020-01-10 03:37:52.777,2020-01-10 03:48:35.784,643.007,89.27
169,VTGS,VCC-B,44431,2020-01-10 03:39:33.499,2020-01-10 03:50:11.594,638.095,62.356
170,UVAGS,VCC-B,44431,2020-01-10 03:39:58.279,2020-01-10 03:50:40.359,642.08,68.578
171,ODUGS,VCC-B,44431,2020-01-10 03:40:06.362,2020-01-10 03:50:50.587,644.225,78.849
172,WFF,VCC-B,44431,2020-01-10 03:40:24.747,2020-01-10 03:51:07.717,642.97,84.305
173,VTGS,VCC-C,44430,2020-01-10 04:19:26.310,2020-01-10 04:29:59.071,632.761,44.424
174,UVAGS,VCC-C,44430,2020-01-10 04:19:53.133,2020-01-10 04:30:27.530,634.397,42.398
175,ODUGS,VCC-C,44430,2020-01-10 04:20:12.726,2020-01-10 04:30:34.193,621.467,29.622
176,WFF,VCC-C,44430,2020-01-10 04:20:28.694,2020-01-10 04:30:52.540,623.846,32.186
177,VTGS,VCC-A,44428,2020-01-10 05:14:10.570,2020-01-10 05:23:55.539,584.969,17.704
178,UVAGS,VCC-A,44428,2020-01-10 05:14:37.091,2020-01-10 05:24:25.904,588.813,17.874
179,ODUGS,VCC-A,44428,2020-01-10 05:15:10.190,2020-01-10 05:24:30.004,559.814,13.514
180,WFF,VCC-A,44428,2020-01-10 05:15:21.160,2020-01-10 05:24:50.891,569.731,14.978
181,VTGS,VCC-B,44431,2020-01-10 05:16:45.333,2020-01-10 05:26:26.990,581.657,17.109
182,UVAGS,VCC-B,44431,2020-01-10 05:17:11.744,2020-01-10 05:26:57.503,585.759,17.312
183,ODUGS,VCC-B,44431,2020-01-10 05:17:45.445,2020-01-10 05:27:01.528,556.083,13.099
184,WFF,VCC-B,44431,2020-01-10 05:17:56.120,2020-01-10 05:27:22.569,566.449,14.545
185,VTGS,VCC-C,44430,2020-01-10 05:57:26.366,2020-01-10 06:06:08.569,522.203,10.35
186,UVAGS,VCC-C,44430,2020-01-10 05:57:49.490,2020-01-10 06:06:42.312,532.822,10.948
187,UVAGS,VCC-A,44428,2020-01-10 08:30:24.348,2020-01-10 08:39:16.441,532.093,10.799
188,WFF,VCC-A,44428,2020-01-10 08:30:58.258,2020-01-10 08:39:59.931,541.673,11.804
189,UVAGS,VCC-B,44431,2020-01-10 08:32:56.495,2020-01-10 08:41:51.350,534.855,11.039
190,WFF,VCC-B,44431,2020-01-10 08:33:30.173,2020-01-10 08:42:34.843,544.67,12.102
191,ODUGS,VCC-B,44431,2020-01-10 08:33:36.899,2020-01-10 08:42:18.516,521.617,10.006
192,VTGS,VCC-C,44430,2020-01-10 09:12:32.106,2020-01-10 09:21:50.078,557.972,13.873
193,UVAGS,VCC-C,44430,2020-01-10 09:12:37.122,2020-01-10 09:22:20.437,583.315,17.23
194,WFF,VCC-C,44430,2020-01-10 09:13:08.159,2020-01-10 09:23:01.977,593.818,19.799
195,ODUGS,VCC-C,44430,2020-01-10 09:13:13.531,2020-01-10 09:22:52.519,578.988,16.503
196,VTGS,VCC-A,44428,2020-01-10 10:06:36.230,2020-01-10 10:16:57.608,621.378,30.63
197,UVAGS,VCC-A,44428,2020-01-10 10:06:43.114,2020-01-10 10:17:17.455,634.341,40.599
198,WFF,VCC-A,44428,2020-01-10 10:07:13.906,2020-01-10 10:17:52.250,638.344,52.134
199,ODUGS,VCC-A,44428,2020-01-10 10:07:16.846,2020-01-10 10:17:51.465,634.619,41.236
200,VTGS,VCC-B,44431,2020-01-10 10:09:07.596,2020-01-10 10:19:30.906,623.31,32.1
201,UVAGS,VCC-B,44431,2020-01-10 10:09:14.607,2020-01-10 10:19:50.226,635.619,42.816
202,WFF,VCC-B,44431,2020-01-10 10:09:45.463,2020-01-10 10:20:24.618,639.155,55.386
203,ODUGS,VCC-B,44431,2020-01-10 10:09:48.279,2020-01-10 10:20:24.228,635.949,43.637
204,VTGS,VCC-C,44430,2020-01-10 10:48:41.426,2020-01-10 10:59:20.170,638.744,85.811
205,UVAGS,VCC-C,44430,2020-01-10 10:48:51.229,2020-01-10 10:59:30.373,639.144,68.123
206,WFF,VCC-C,44430,2020-01-10 10:49:24.509,2020-01-10 10:59:56.648,632.139,49.606
207,ODUGS,VCC-C,44430,2020-01-10 10:49:24.863,2020-01-10 11:00:02.956,638.093,63.258
208,VTGS,VCC-A,44428,2020-01-10 11:43:09.398,2020-01-10 11:53:08.117,598.719,23.4
209,UVAGS,VCC-A,44428,2020-01-10 11:43:25.682,2020-01-10 11:53:04.559,578.877,17.886
210,ODUGS,VCC-A,44428,2020-01-10 11:44:02.721,2020-01-10 11:53:31.910,569.189,16.22
211,WFF,VCC-A,44428,2020-01-10 11:44:07.558,2020-01-10 11:53:15.557,547.999,13.612
212,VTGS,VCC-B,44431,2020-01-10 11:45:42.502,2020-01-10 11:55:36.687,594.185,22.051
213,UVAGS,VCC-B,44431,2020-01-10 11:45:59.243,2020-01-10 11:55:32.341,573.098,16.876
214,ODUGS,VCC-B,44431,2020-01-10 11:46:36.594,2020-01-10 11:55:59.308,562.714,15.273
215,WFF,VCC-B,44431,2020-01-10 11:46:41.814,2020-01-10 11:55:42.349,540.535,12.804
216,ODUGS,VCC-C,44430,2020-01-11 01:51:43.413,2020-01-11 02:00:32.086,528.673,11.533
217,WFF,VCC-C,44430,2020-01-11 01:52:03.884,2020-01-11 02:00:48.830,524.946,11.365
218,VTGS,VCC-A,44428,2020-01-11 02:45:00.031,2020-01-11 02:55:09.066,609.035,26.886
219,ODUGS,VCC-A,44428,2020-01-11 02:45:20.458,2020-01-11 02:55:53.604,633.146,43.643
220,UVAGS,VCC-A,44428,2020-01-11 02:45:21.908,2020-01-11 02:55:39.368,617.46,29.729
221,WFF,VCC-A,44428,2020-01-11 02:45:39.981,2020-01-11 02:56:10.260,630.279,41.634
222,VTGS,VCC-B,44431,2020-01-11 02:47:28.675,2020-01-11 02:57:41.136,612.461,28.552
223,ODUGS,VCC-B,44431,2020-01-11 02:47:50.178,2020-01-11 02:58:25.123,634.945,46.739
224,UVAGS,VCC-B,44431,2020-01-11 02:47:50.827,2020-01-11 02:58:11.265,620.438,31.574
225,WFF,VCC-B,44431,2020-01-11 02:48:09.630,2020-01-11 02:58:41.802,632.172,44.474
226,VTGS,VCC-C,44430,2020-01-11 03:26:13.078,2020-01-11 03:36:52.613,639.535,86.278
227,UVAGS,VCC-C,44430,2020-01-11 03:26:38.630,2020-01-11 03:37:21.101,642.471,87.271
228,ODUGS,VCC-C,44430,2020-01-11 03:26:50.106,2020-01-11 03:37:30.141,640.035,57.433
229,WFF,VCC-C,44430,2020-01-11 03:27:07.906,2020-01-11 03:37:47.545,639.639,62.229
230,VTGS,VCC-A,44428,2020-01-11 04:21:21.008,2020-01-11 04:31:38.299,617.291,27.714
231,UVAGS,VCC-A,44428,2020-01-11 04:21:48.147,2020-01-11 04:32:07.323,619.176,27.223
232,ODUGS,VCC-A,44428,2020-01-11 04:22:13.954,2020-01-11 04:32:12.598,598.644,20.08
233,WFF,VCC-A,44428,2020-01-11 04:22:27.988,2020-01-11 04:32:31.946,603.958,21.916
234,VTGS,VCC-B,44431,2020-01-11 04:23:53.978,2020-01-11 04:34:08.789,614.811,26.545
235,UVAGS,VCC-B,44431,2020-01-11 04:24:21.109,2020-01-11 04:34:37.900,616.791,26.141
236,ODUGS,VCC-B,44431,2020-01-11 04:24:47.557,2020-01-11 04:34:43.048,595.491,19.349
237,WFF,VCC-B,44431,2020-01-11 04:25:01.358,2020-01-11 04:35:02.514,601.156,21.137
238,VTGS,VCC-C,44430,2020-01-11 05:03:38.446,2020-01-11 05:13:02.243,563.797,14.56
239,UVAGS,VCC-C,44430,2020-01-11 05:04:04.179,2020-01-11 05:13:33.530,569.351,14.903
240,ODUGS,VCC-C,44430,2020-01-11 05:04:40.719,2020-01-11 05:13:37.255,536.536,11.285
241,WFF,VCC-C,44430,2020-01-11 05:04:49.850,2020-01-11 05:13:59.033,549.183,12.658
242,UVAGS,VCC-C,44430,2020-01-11 08:19:29.924,2020-01-11 08:28:36.878,546.954,12.288
243,WFF,VCC-C,44430,2020-01-11 08:20:02.605,2020-01-11 08:29:20.182,557.577,13.652
244,ODUGS,VCC-C,44430,2020-01-11 08:20:09.059,2020-01-11 08:29:05.747,536.688,11.336
245,VTGS,VCC-A,44428,2020-01-11 09:14:18.819,2020-01-11 09:24:09.984,591.165,19.122
246,UVAGS,VCC-A,44428,2020-01-11 09:14:24.480,2020-01-11 09:24:35.760,611.28,24.116
247,WFF,VCC-A,44428,2020-01-11 09:14:55.016,2020-01-11 09:25:14.762,619.746,28.75
248,ODUGS,VCC-A,44428,2020-01-11 09:14:59.351,2020-01-11 09:25:09.273,609.922,23.687
249,VTGS,VCC-B,44431,2020-01-11 09:16:49.229,2020-01-11 09:26:43.226,593.997,19.812
250,UVAGS,VCC-B,44431,2020-01-11 09:16:54.975,2020-01-11 09:27:08.510,613.535,25.055
251,WFF,VCC-B,44431,2020-01-11 09:17:25.489,2020-01-11 09:27:47.198,621.709,30.017
252,ODUGS,VCC-B,44431,2020-01-11 09:17:29.711,2020-01-11 09:27:42.114,612.403,24.672
253,VTGS,VCC-C,44430,2020-01-11 09:55:35.174,2020-01-11 10:06:04.841,629.667,40.768
254,UVAGS,VCC-C,44430,2020-01-11 09:55:42.840,2020-01-11 10:06:21.649,638.809,56.168
255,WFF,VCC-C,44430,2020-01-11 09:56:14.114,2020-01-11 10:06:53.966,639.852,74.571
256,ODUGS,VCC-C,44430,2020-01-11 09:56:16.303,2020-01-11 10:06:55.452,639.149,58.236
257,VTGS,VCC-A,44428,2020-01-11 10:50:36.871,2020-01-11 11:01:09.488,632.617,49.41
258,UVAGS,VCC-A,44428,2020-01-11 10:50:49.009,2020-01-11 11:01:13.971,624.962,35.715
259,ODUGS,VCC-A,44428,2020-01-11 10:51:23.584,2020-01-11 11:01:44.782,621.198,32.75
260,WFF,VCC-A,44428,2020-01-11 10:51:25.088,2020-01-11 11:01:34.362,609.274,26.921
261,VTGS,VCC-B,44431,2020-01-11 10:53:08.106,2020-01-11 11:03:38.847,630.741,46.093
262,UVAGS,VCC-B,44431,2020-01-11 10:53:20.531,2020-01-11 11:03:42.701,622.17,33.54
263,ODUGS,VCC-B,44431,2020-01-11 10:53:55.246,2020-01-11 11:04:13.281,618.035,30.743
264,WFF,VCC-B,44431,2020-01-11 10:53:56.981,2020-01-11 11:04:02.406,605.425,25.371
265,VTGS,VCC-C,44430,2020-01-11 11:32:16.887,2020-01-11 11:41:44.065,567.178,16.61
266,UVAGS,VCC-C,44430,2020-01-11 11:32:36.179,2020-01-11 11:41:35.655,539.476,12.666
267,ODUGS,VCC-C,44430,2020-01-11 11:33:15.310,2020-01-11 11:42:00.451,525.141,11.301
268,VTGS,VCC-A,44428,2020-01-12 01:53:18.992,2020-01-12 02:02:25.510,546.518,13.473
269,ODUGS,VCC-A,44428,2020-01-12 01:53:24.670,2020-01-12 02:03:18.855,594.185,20.984
270,UVAGS,VCC-A,44428,2020-01-12 01:53:36.626,2020-01-12 02:02:58.896,562.27,15.078
271,WFF,VCC-A,44428,2020-01-12 01:53:44.851,2020-01-12 02:03:35.417,590.566,20.473
272,VTGS,VCC-B,44431,2020-01-12 01:55:44.550,2020-01-12 02:04:57.972,553.422,14.301
273,ODUGS,VCC-B,44431,2020-01-12 01:55:51.672,2020-01-12 02:05:50.363,598.691,22.238
274,UVAGS,VCC-B,44431,2020-01-12 01:56:02.627,2020-01-12 02:05:31.003,568.376,15.968
275,WFF,VCC-B,44431,2020-01-12 01:56:11.809,2020-01-12 02:06:06.915,595.106,21.667
276,VTGS,VCC-C,44430,2020-01-12 02:33:15.363,2020-01-12 02:43:39.225,623.862,37.89
277,UVAGS,VCC-C,44430,2020-01-12 02:33:38.647,2020-01-12 02:44:08.677,630.03,41.962
278,ODUGS,VCC-C,44430,2020-01-12 02:33:41.492,2020-01-12 02:44:20.968,639.476,64.371
279,WFF,VCC-C,44430,2020-01-12 02:34:00.568,2020-01-12 02:44:37.779,637.211,60.602
280,VTGS,VCC-A,44428,2020-01-12 03:28:42.058,2020-01-12 03:39:19.563,637.505,50.638
281,UVAGS,VCC-A,44428,2020-01-12 03:29:08.738,2020-01-12 03:39:47.985,639.247,47.968
282,ODUGS,VCC-A,44428,2020-01-12 03:29:26.882,2020-01-12 03:39:55.048,628.166,32.993
283,WFF,VCC-A,44428,2020-01-12 03:29:43.241,2020-01-12 03:40:13.199,629.958,35.832
284,VTGS,VCC-B,44431,2020-01-12 03:31:12.992,2020-01-12 03:41:49.251,636.259,47.721
285,UVAGS,VCC-B,44431,2020-01-12 03:31:39.752,2020-01-12 03:42:17.690,637.938,45.365
286,ODUGS,VCC-B,44431,2020-01-12 03:31:58.557,2020-01-12 03:42:24.578,626.021,31.444
287,WFF,VCC-B,44431,2020-01-12 03:32:14.741,2020-01-12 03:42:42.816,628.075,34.153
288,VTGS,VCC-C,44430,2020-01-12 04:09:56.530,2020-01-12 04:19:57.746,601.216,22.019
289,UVAGS,VCC-C,44430,2020-01-12 04:10:23.508,2020-01-12 04:20:27.301,603.793,21.919
290,ODUGS,VCC-C,44430,2020-01-12 04:10:52.831,2020-01-12 04:20:31.896,579.065,16.414
291,WFF,VCC-C,44430,2020-01-12 04:11:05.498,2020-01-12 04:20:51.937,586.439,18.026
292,VTGS,VCC-A,44428,2020-01-12 05:06:39.666,2020-01-12 05:15:31.721,532.055,11.036
293,UVAGS,VCC-A,44428,2020-01-12 05:07:03.395,2020-01-12 05:16:04.972,541.577,11.595
294,WFF,VCC-A,44428,2020-01-12 05:07:50.768,2020-01-12 05:16:32.108,521.34,10.074
295,VTGS,VCC-B,44431,2020-01-12 05:09:13.088,2020-01-12 05:18:01.563,528.475,10.746
296,UVAGS,VCC-B,44431,2020-01-12 05:09:36.560,2020-01-12 05:18:35.041,538.481,11.324
297,WFF,VCC-C,44430,2020-01-12 07:26:51.937,2020-01-12 07:35:32.375,520.438,10.129
298,VTGS,VCC-A,44428,2020-01-12 08:21:59.733,2020-01-12 08:31:12.691,552.958,13.113
299,UVAGS,VCC-A,44428,2020-01-12 08:22:04.725,2020-01-12 08:31:43.965,579.24,16.247
300,WFF,VCC-A,44428,2020-01-12 08:22:36.010,2020-01-12 08:32:25.934,589.924,18.542
301,ODUGS,VCC-A,44428,2020-01-12 08:22:41.566,2020-01-12 08:32:15.627,574.061,15.472
302,VTGS,VCC-B,44431,2020-01-12 08:24:29.354,2020-01-12 08:33:45.571,556.217,13.498
303,UVAGS,VCC-B,44431,2020-01-12 08:24:34.375,2020-01-12 08:34:16.406,582.031,16.738
304,WFF,VCC-B,44431,2020-01-12 08:25:05.556,2020-01-12 08:34:58.179,592.623,19.159
305,ODUGS,VCC-B,44431,2020-01-12 08:25:11.016,2020-01-12 08:34:48.281,577.265,15.983
306,VTGS,VCC-C,44430,2020-01-12 09:02:30.491,2020-01-12 09:12:34.898,604.407,23.329
307,UVAGS,VCC-C,44430,2020-01-12 09:02:36.634,2020-01-12 09:12:57.965,621.331,29.974
308,WFF,VCC-C,44430,2020-01-12 09:03:07.137,2020-01-12 09:13:35.143,628.006,36.852
309,ODUGS,VCC-C,44430,2020-01-12 09:03:10.858,2020-01-12 09:13:31.844,620.986,29.868
310,VTGS,VCC-A,44428,2020-01-12 09:58:11.843,2020-01-12 10:08:52.326,640.483,75.3
311,UVAGS,VCC-A,44428,2020-01-12 09:58:21.227,2020-01-12 10:09:03.714,642.487,78.332
312,WFF,VCC-A,44428,2020-01-12 09:58:54.069,2020-01-12 10:09:31.146,637.077,57.48
313,ODUGS,VCC-A,44428,2020-01-12 09:58:54.780,2020-01-12 10:09:36.606,641.826,73.385
314,VTGS,VCC-B,44431,2020-01-12 10:00:41.561,2020-01-12 10:11:22.086,640.525,80.206
315,UVAGS,VCC-B,44431,2020-01-12 10:00:51.143,2020-01-12 10:11:32.916,641.773,73.426
316,WFF,VCC-B,44431,2020-01-12 10:01:24.192,2020-01-12 10:11:59.811,635.619,53.645
317,ODUGS,VCC-B,44431,2020-01-12 10:01:24.736,2020-01-12 10:12:05.675,640.939,68.483
318,VTGS,VCC-C,44430,2020-01-12 10:38:50.999,2020-01-12 10:49:09.485,618.486,34.182
319,UVAGS,VCC-C,44430,2020-01-12 10:39:04.843,2020-01-12 10:49:10.420,605.577,25.541
320,ODUGS,VCC-C,44430,2020-01-12 10:39:40.332,2020-01-12 10:49:39.804,599.472,23.345
321,WFF,VCC-C,44430,2020-01-12 10:39:43.202,2020-01-12 10:49:26.803,583.601,19.507
322,ODUGS,VCC-A,44428,2020-01-13 01:01:53.059,2020-01-13 01:10:27.699,514.64,10.267
323,WFF,VCC-A,44428,2020-01-13 01:02:13.564,2020-01-13 01:10:44.525,510.961,10.134
324,ODUGS,VCC-B,44431,2020-01-13 01:04:16.594,2020-01-13 01:12:59.927,523.333,10.958
325,WFF,VCC-B,44431,2020-01-13 01:04:37.085,2020-01-13 01:13:16.711,519.626,10.806
326,VTGS,VCC-C,44430,2020-01-13 01:40:36.989,2020-01-13 01:50:14.515,577.526,18.259
327,ODUGS,VCC-C,44430,2020-01-13 01:40:49.766,2020-01-13 01:51:03.331,613.565,28.551
328,UVAGS,VCC-C,44430,2020-01-13 01:40:56.748,2020-01-13 01:50:46.253,589.505,20.256
329,WFF,VCC-C,44430,2020-01-13 01:41:09.686,2020-01-13 01:51:19.886,610.2,27.629
330,VTGS,VCC-A,44428,2020-01-13 02:36:16.083,2020-01-13 02:46:56.973,640.89,76.561
331,UVAGS,VCC-A,44428,2020-01-13 02:36:41.366,2020-01-13 02:47:25.560,644.194,83.155
332,ODUGS,VCC-A,44428,2020-01-13 02:36:51.539,2020-01-13 02:47:35.043,643.504,65.007
333,WFF,VCC-A,44428,2020-01-13 02:37:09.587,2020-01-13 02:47:52.339,642.752,70.173
334,VTGS,VCC-B,44431,2020-01-13 02:38:44.758,2020-01-13 02:49:26.021,641.263,81.623
335,UVAGS,VCC-B,44431,2020-01-13 02:39:10.198,2020-01-13 02:49:54.556,644.358,88.125
336,ODUGS,VCC-B,44431,2020-01-13 02:39:21.056,2020-01-13 02:50:03.806,642.75,60.966
337,WFF,VCC-B,44431,2020-01-13 02:39:38.983,2020-01-13 02:50:21.160,642.177,65.942
338,VTGS,VCC-C,44430,2020-01-13 03:16:24.135,2020-01-13 03:26:52.449,628.314,37.62
339,UVAGS,VCC-C,44430,2020-01-13 03:16:51.125,2020-01-13 03:27:21.033,629.908,36.273
340,ODUGS,VCC-C,44430,2020-01-13 03:17:12.724,2020-01-13 03:27:27.199,614.475,25.883
341,WFF,VCC-C,44430,2020-01-13 03:17:28.120,2020-01-13 03:27:45.834,617.714,28.144
342,VTGS,VCC-A,44428,2020-01-13 04:13:38.260,2020-01-13 04:23:10.612,572.352,15.541
343,UVAGS,VCC-A,44428,2020-01-13 04:14:04.301,2020-01-13 04:23:41.592,577.291,15.834
344,ODUGS,VCC-A,44428,2020-01-13 04:14:39.729,2020-01-13 04:23:45.459,545.73,11.999
345,WFF,VCC-A,44428,2020-01-13 04:14:49.497,2020-01-13 04:24:06.934,557.437,13.399
346,VTGS,VCC-B,44431,2020-01-13 04:16:10.202,2020-01-13 04:25:39.135,568.933,15.058
347,UVAGS,VCC-B,44431,2020-01-13 04:16:36.094,2020-01-13 04:26:10.279,574.185,15.379
348,ODUGS,VCC-B,44431,2020-01-13 04:17:12.096,2020-01-13 04:26:14.099,542.003,11.656
349,WFF,VCC-B,44431,2020-01-13 04:17:21.542,2020-01-13 04:26:35.722,554.18,13.043
350,UVAGS,VCC-C,44430,2020-01-13 04:54:53.301,2020-01-13 05:03:37.489,524.188,10.249
351,UVAGS,VCC-A,44428,2020-01-13 07:29:41.485,2020-01-13 07:38:45.250,543.765,11.836
352,WFF,VCC-A,44428,2020-01-13 07:30:14.553,2020-01-13 07:39:28.657,554.104,13.08
353,ODUGS,VCC-A,44428,2020-01-13 07:30:21.095,2020-01-13 07:39:13.522,532.427,10.85
354,UVAGS,VCC-B,44431,2020-01-13 07:32:10.455,2020-01-13 07:41:17.037,546.582,12.118
355,WFF,VCC-B,44431,2020-01-13 07:32:43.337,2020-01-13 07:42:00.383,557.046,13.428
356,ODUGS,VCC-B,44431,2020-01-13 07:32:49.809,2020-01-13 07:41:45.649,535.84,11.149
357,VTGS,VCC-C,44430,2020-01-13 08:09:24.877,2020-01-13 08:18:52.992,568.115,15.244
358,UVAGS,VCC-C,44430,2020-01-13 08:09:30.047,2020-01-13 08:19:21.946,591.899,18.998
359,WFF,VCC-C,44430,2020-01-13 08:10:00.843,2020-01-13 08:20:02.775,601.932,22.052
360,ODUGS,VCC-C,44430,2020-01-13 08:10:05.910,2020-01-13 08:19:54.570,588.66,18.344
361,VTGS,VCC-A,44428,2020-01-13 09:05:50.834,2020-01-13 09:16:19.626,628.792,37.187
362,UVAGS,VCC-A,44428,2020-01-13 09:05:58.256,2020-01-13 09:16:37.392,639.136,50.579
363,WFF,VCC-A,44428,2020-01-13 09:06:29.366,2020-01-13 09:17:10.511,641.145,66.639
364,ODUGS,VCC-A,44428,2020-01-13 09:06:31.794,2020-01-13 09:17:11.294,639.5,52.094
365,VTGS,VCC-B,44431,2020-01-13 09:08:19.250,2020-01-13 09:18:49.523,630.273,39.156
366,UVAGS,VCC-B,44431,2020-01-13 09:08:26.809,2020-01-13 09:19:06.758,639.949,53.61
367,WFF,VCC-B,44431,2020-01-13 09:08:58.022,2020-01-13 09:19:39.447,641.425,70.926
368,ODUGS,VCC-B,44431,2020-01-13 09:09:00.316,2020-01-13 09:19:40.618,640.302,55.412
369,VTGS,VCC-C,44430,2020-01-13 09:45:35.151,2020-01-13 09:56:12.828,637.677,78.193
370,UVAGS,VCC-C,44430,2020-01-13 09:45:45.623,2020-01-13 09:56:21.272,635.649,55.203
371,ODUGS,VCC-C,44430,2020-01-13 09:46:19.465,2020-01-13 09:56:53.367,633.902,50.873
372,WFF,VCC-C,44430,2020-01-13 09:46:19.651,2020-01-13 09:56:45.799,626.148,40.414
373,VTGS,VCC-A,44428,2020-01-13 10:42:31.615,2020-01-13 10:52:10.990,579.375,18.54
374,UVAGS,VCC-A,44428,2020-01-13 10:42:49.863,2020-01-13 10:52:04.198,554.335,14.19
375,ODUGS,VCC-A,44428,2020-01-13 10:43:28.260,2020-01-13 10:52:29.889,541.629,12.743
376,WFF,VCC-A,44428,2020-01-13 10:43:34.744,2020-01-13 10:52:11.029,516.285,10.616
377,VTGS,VCC-B,44431,2020-01-13 10:45:02.122,2020-01-13 10:54:35.884,573.762,17.496
378,UVAGS,VCC-B,44431,2020-01-13 10:45:20.914,2020-01-13 10:54:28.230,547.316,13.373
379,ODUGS,VCC-B,44431,2020-01-13 10:45:59.704,2020-01-13 10:54:53.453,533.749,11.971
380,ODUGS,VCC-C,44430,2020-01-14 00:48:19.732,2020-01-14 00:57:31.780,552.048,13.94
381,WFF,VCC-C,44430,2020-01-14 00:48:40.134,2020-01-14 00:57:48.439,548.305,13.7
382,VTGS,VCC-A,44428,2020-01-14 01:44:05.631,2020-01-14 01:54:27.630,621.999,34.366
383,UVAGS,VCC-A,44428,2020-01-14 01:44:28.561,2020-01-14 01:54:57.300,628.739,38.028
384,ODUGS,VCC-A,44428,2020-01-14 01:44:30.216,2020-01-14 01:55:10.102,639.886,57.641
385,WFF,VCC-A,44428,2020-01-14 01:44:49.438,2020-01-14 01:55:26.873,637.435,54.452
386,VTGS,VCC-B,44431,2020-01-14 01:46:31.793,2020-01-14 01:56:56.275,624.482,36.586
387,UVAGS,VCC-B,44431,2020-01-14 01:46:54.956,2020-01-14 01:57:25.811,630.855,40.495
388,ODUGS,VCC-B,44431,2020-01-14 01:46:57.360,2020-01-14 01:57:38.290,640.93,61.794
389,WFF,VCC-B,44431,2020-01-14 01:47:16.499,2020-01-14 01:57:55.088,638.589,58.256
390,VTGS,VCC-C,44430,2020-01-14 02:23:03.994,2020-01-14 02:33:43.839,639.845,78.064
391,UVAGS,VCC-C,44430,2020-01-14 02:23:29.957,2020-01-14 02:34:12.239,642.282,72.576
392,ODUGS,VCC-C,44430,2020-01-14 02:23:43.509,2020-01-14 02:34:20.609,637.1,47.6
393,WFF,VCC-C,44430,2020-01-14 02:24:00.906,2020-01-14 02:34:38.214,637.308,51.693
394,VTGS,VCC-A,44428,2020-01-14 03:20:43.486,2020-01-14 03:30:51.189,607.703,23.532
395,UVAGS,VCC-A,44428,2020-01-14 03:21:10.549,2020-01-14 03:31:20.585,610.036,23.34
396,ODUGS,VCC-A,44428,2020-01-14 03:21:38.865,2020-01-14 03:31:25.395,586.53,17.429
397,WFF,VCC-A,44428,2020-01-14 03:21:51.958,2020-01-14 03:31:45.222,593.264,19.099
398,VTGS,VCC-B,44431,2020-01-14 03:23:13.612,2020-01-14 03:33:18.568,604.956,22.642
399,UVAGS,VCC-B,44431,2020-01-14 03:23:40.636,2020-01-14 03:33:48.067,607.431,22.508
400,ODUGS,VCC-B,44431,2020-01-14 03:24:09.567,2020-01-14 03:33:52.770,583.203,16.847
401,WFF,VCC-B,44431,2020-01-14 03:24:22.410,2020-01-14 03:34:12.727,590.317,18.483
402,VTGS,VCC-C,44430,2020-01-14 04:00:38.804,2020-01-14 04:09:52.398,553.594,13.288
403,UVAGS,VCC-C,44430,2020-01-14 04:01:04.016,2020-01-14 04:10:24.234,560.218,13.703
404,ODUGS,VCC-C,44430,2020-01-14 04:01:42.227,2020-01-14 04:10:27.889,525.662,10.375
405,WFF,VCC-C,44430,2020-01-14 04:01:50.351,2020-01-14 04:10:50.131,539.78,11.717
406,WFF,VCC-B,44431,2020-01-14 06:40:16.339,2020-01-14 06:48:57.469,521.13,10.087
407,VTGS,VCC-C,44430,2020-01-14 07:16:15.700,2020-01-14 07:25:02.472,526.772,10.744
408,UVAGS,VCC-C,44430,2020-01-14 07:16:20.563,2020-01-14 07:25:36.680,556.117,13.283
409,WFF,VCC-C,44430,2020-01-14 07:16:52.730,2020-01-14 07:26:19.698,566.968,14.876
410,ODUGS,VCC-C,44430,2020-01-14 07:16:58.942,2020-01-14 07:26:06.502,547.56,12.381
411,VTGS,VCC-A,44428,2020-01-14 08:13:31.262,2020-01-14 08:23:33.745,602.483,22.12
412,UVAGS,VCC-A,44428,2020-01-14 08:13:37.286,2020-01-14 08:23:57.553,620.267,28.239
413,WFF,VCC-A,44428,2020-01-14 08:14:07.801,2020-01-14 08:24:35.257,627.456,34.382
414,ODUGS,VCC-A,44428,2020-01-14 08:14:11.684,2020-01-14 08:24:31.367,619.683,28.025
415,VTGS,VCC-B,44431,2020-01-14 08:15:58.545,2020-01-14 08:26:03.519,604.974,22.967
416,UVAGS,VCC-B,44431,2020-01-14 08:16:04.660,2020-01-14 08:26:26.840,622.18,29.43
417,WFF,VCC-B,44431,2020-01-14 08:16:35.182,2020-01-14 08:27:04.202,629.02,36.047
418,ODUGS,VCC-B,44431,2020-01-14 08:16:38.953,2020-01-14 08:27:00.705,621.752,29.285
419,VTGS,VCC-C,44430,2020-01-14 08:52:24.650,2020-01-14 09:02:58.178,633.528,48.45
420,UVAGS,VCC-C,44430,2020-01-14 08:52:32.790,2020-01-14 09:03:13.370,640.58,67.803
421,WFF,VCC-C,44430,2020-01-14 08:53:04.443,2020-01-14 09:03:44.277,639.834,89.354
422,ODUGS,VCC-C,44430,2020-01-14 08:53:06.209,2020-01-14 09:03:46.958,640.749,70.979
423,VTGS,VCC-A,44428,2020-01-14 09:49:53.192,2020-01-14 10:00:17.536,624.344,37.776
424,UVAGS,VCC-A,44428,2020-01-14 09:50:06.527,2020-01-14 10:00:19.477,612.95,28.014
425,ODUGS,VCC-A,44428,2020-01-14 09:50:41.741,2020-01-14 10:00:49.297,607.556,25.638
426,WFF,VCC-A,44428,2020-01-14 09:50:44.203,2020-01-14 10:00:37.036,592.833,21.36
427,VTGS,VCC-B,44431,2020-01-14 09:52:21.535,2020-01-14 10:02:43.247,621.712,35.437
428,UVAGS,VCC-B,44431,2020-01-14 09:52:35.198,2020-01-14 10:02:44.538,609.34,26.426
429,ODUGS,VCC-B,44431,2020-01-14 09:53:10.595,2020-01-14 10:03:14.086,603.491,24.169
430,WFF,VCC-B,44431,2020-01-14 09:53:13.311,2020-01-14 10:03:01.346,588.035,20.183
431,VTGS,VCC-C,44430,2020-01-14 10:29:13.836,2020-01-14 10:38:21.139,547.303,13.865
432,UVAGS,VCC-C,44430,2020-01-14 10:29:35.115,2020-01-14 10:38:09.794,514.679,10.46
433,VTGS,VCC-A,44428,2020-01-15 00:52:14.519,2020-01-15 01:01:47.181,572.662,17.056
434,ODUGS,VCC-A,44428,2020-01-15 00:52:25.706,2020-01-15 01:02:36.971,611.265,26.548
435,UVAGS,VCC-A,44428,2020-01-15 00:52:33.822,2020-01-15 01:02:19.272,585.45,18.945
436,WFF,VCC-A,44428,2020-01-15 00:52:45.699,2020-01-15 01:02:53.532,607.833,25.75
437,VTGS,VCC-B,44431,2020-01-15 00:54:37.737,2020-01-15 01:04:15.834,578.097,18.045
438,ODUGS,VCC-B,44431,2020-01-15 00:54:50.180,2020-01-15 01:05:04.857,614.677,28.154
439,UVAGS,VCC-B,44431,2020-01-15 00:54:57.407,2020-01-15 01:04:47.650,590.243,20.019
440,WFF,VCC-B,44431,2020-01-15 00:55:10.127,2020-01-15 01:05:21.419,611.292,27.262
441,VTGS,VCC-C,44430,2020-01-15 01:29:58.704,2020-01-15 01:40:29.106,630.402,46.397
442,UVAGS,VCC-C,44430,2020-01-15 01:30:22.658,2020-01-15 01:40:58.212,635.554,51.375
443,ODUGS,VCC-C,44430,2020-01-15 01:30:27.730,2020-01-15 01:41:09.590,641.86,79.234
444,WFF,VCC-C,44430,2020-01-15 01:30:46.530,2020-01-15 01:41:26.517,639.987,74.411
445,VTGS,VCC-A,44428,2020-01-15 02:27:58.464,2020-01-15 02:38:31.051,632.587,40.402
446,UVAGS,VCC-A,44428,2020-01-15 02:28:25.413,2020-01-15 02:38:59.592,634.179,38.799
447,ODUGS,VCC-A,44428,2020-01-15 02:28:46.168,2020-01-15 02:39:05.986,619.818,27.486
448,WFF,VCC-A,44428,2020-01-15 02:29:01.828,2020-01-15 02:39:24.501,622.673,29.868
449,VTGS,VCC-B,44431,2020-01-15 02:30:26.517,2020-01-15 02:40:57.442,630.925,38.357
450,UVAGS,VCC-B,44431,2020-01-15 02:30:53.515,2020-01-15 02:41:26.024,632.509,36.952
451,ODUGS,VCC-B,44431,2020-01-15 02:31:14.909,2020-01-15 02:41:32.264,617.355,26.344
452,WFF,VCC-B,44431,2020-01-15 02:31:30.380,2020-01-15 02:41:50.870,620.49,28.635
453,VTGS,VCC-C,44430,2020-01-15 03:06:51.530,2020-01-15 03:16:44.303,592.773,19.7
454,UVAGS,VCC-C,44430,2020-01-15 03:07:18.323,2020-01-15 03:17:14.220,595.897,19.746
455,ODUGS,VCC-C,44430,2020-01-15 03:07:49.510,2020-01-15 03:17:18.526,569.016,14.865
456,WFF,VCC-C,44430,2020-01-15 03:08:01.373,2020-01-15 03:17:38.970,577.597,16.394
457,UVAGS,VCC-A,44428,2020-01-15 04:06:28.299,2020-01-15 04:15:18.544,530.245,10.611
458,UVAGS,VCC-B,44431,2020-01-15 04:08:58.192,2020-01-15 04:17:45.539,527.347,10.389
459,UVAGS,VCC-C,44430,2020-01-15 06:23:05.509,2020-01-15 06:31:46.149,520.64,10.005
460,WFF,VCC-C,44430,2020-01-15 06:23:40.172,2020-01-15 06:32:29.529,529.357,10.837
461,VTGS,VCC-A,44428,2020-01-15 07:21:10.820,2020-01-15 07:30:37.186,566.366,14.774
462,UVAGS,VCC-A,44428,2020-01-15 07:21:15.964,2020-01-15 07:31:06.671,590.707,18.372
463,WFF,VCC-A,44428,2020-01-15 07:21:46.895,2020-01-15 07:31:47.788,600.893,21.229
464,ODUGS,VCC-A,44428,2020-01-15 07:21:52.061,2020-01-15 07:31:39.110,587.049,17.685
465,VTGS,VCC-B,44431,2020-01-15 07:23:37.119,2020-01-15 07:33:06.564,569.445,15.226
466,UVAGS,VCC-B,44431,2020-01-15 07:23:42.311,2020-01-15 07:33:35.600,593.289,18.957
467,WFF,VCC-B,44431,2020-01-15 07:24:13.167,2020-01-15 07:34:16.484,603.317,21.979
468,ODUGS,VCC-B,44431,2020-01-15 07:24:18.233,2020-01-15 07:34:08.205,589.972,18.295
469,VTGS,VCC-C,44430,2020-01-15 07:59:16.393,2020-01-15 08:09:28.242,611.849,26.377
470,UVAGS,VCC-C,44430,2020-01-15 07:59:22.866,2020-01-15 08:09:49.780,626.914,34.357
471,WFF,VCC-C,44430,2020-01-15 07:59:53.467,2020-01-15 08:10:25.841,632.374,43.11
472,ODUGS,VCC-C,44430,2020-01-15 07:59:56.823,2020-01-15 08:10:23.746,626.923,34.534
473,VTGS,VCC-A,44428,2020-01-15 08:57:23.896,2020-01-15 09:08:04.088,640.192,84.414
474,UVAGS,VCC-A,44428,2020-01-15 08:57:34.105,2020-01-15 09:08:13.225,639.12,60.056
475,WFF,VCC-A,44428,2020-01-15 08:58:07.838,2020-01-15 09:08:38.465,630.627,43.867
476,ODUGS,VCC-A,44428,2020-01-15 08:58:07.876,2020-01-15 09:08:45.532,637.656,55.493
477,VTGS,VCC-B,44431,2020-01-15 08:59:50.510,2020-01-15 09:10:30.151,639.641,79.32
478,UVAGS,VCC-B,44431,2020-01-15 09:00:00.937,2020-01-15 09:10:38.724,637.787,56.142
479,ODUGS,VCC-B,44431,2020-01-15 09:00:34.778,2020-01-15 09:11:10.871,636.093,51.774
480,WFF,VCC-B,44431,2020-01-15 09:00:34.919,2020-01-15 09:11:03.394,628.475,41.117
481,VTGS,VCC-C,44430,2020-01-15 09:35:40.811,2020-01-15 09:45:49.820,609.009,28.33
482,UVAGS,VCC-C,44430,2020-01-15 09:35:55.757,2020-01-15 09:45:48.662,592.905,21.452
483,ODUGS,VCC-C,44430,2020-01-15 09:36:31.919,2020-01-15 09:46:17.124,585.205,19.547
484,WFF,VCC-C,44430,2020-01-15 09:36:35.669,2020-01-15 09:46:02.581,566.912,16.397
485,ODUGS,VCC-A,44428,2020-01-16 00:00:42.782,2020-01-16 00:09:50.254,547.472,13.229
486,WFF,VCC-A,44428,2020-01-16 00:01:03.216,2020-01-16 00:10:06.949,543.733,13.014
487,ODUGS,VCC-B,44431,2020-01-16 00:03:04.038,2020-01-16 00:12:18.378,554.34,14.028
488,WFF,VCC-B,44431,2020-01-16 00:03:24.447,2020-01-16 00:12:35.044,550.597,13.787
489,VTGS,VCC-C,44430,2020-01-16 00:37:11.659,2020-01-16 00:47:04.330,592.671,21.739
490,ODUGS,VCC-C,44430,2020-01-16 00:37:28.077,2020-01-16 00:47:51.030,622.953,34.456
491,UVAGS,VCC-C,44430,2020-01-16 00:37:32.448,2020-01-16 00:47:35.342,602.894,24.062
492,WFF,VCC-C,44430,2020-01-16 00:37:47.822,2020-01-16 00:48:07.617,619.795,33.142
493,VTGS,VCC-A,44428,2020-01-16 01:35:25.674,2020-01-16 01:46:07.866,642.192,82.966
494,UVAGS,VCC-A,44428,2020-01-16 01:35:51.534,2020-01-16 01:46:36.305,644.771,77.136
495,ODUGS,VCC-A,44428,2020-01-16 01:36:04.422,2020-01-16 01:46:44.889,640.467,50.624
496,WFF,VCC-A,44428,2020-01-16 01:36:21.971,2020-01-16 01:47:02.438,640.467,54.928
497,VTGS,VCC-B,44431,2020-01-16 01:37:51.441,2020-01-16 01:48:33.424,641.983,78.113
498,UVAGS,VCC-B,44431,2020-01-16 01:38:17.425,2020-01-16 01:49:01.836,644.411,72.658
499,ODUGS,VCC-B,44431,2020-01-16 01:38:30.973,2020-01-16 01:49:10.220,639.247,47.756
500,WFF,VCC-B,44431,2020-01-16 01:38:48.385,2020-01-16 01:49:27.829,639.444,51.841
501,VTGS,VCC-C,44430,2020-01-16 02:13:13.028,2020-01-16 02:23:36.041,623.013,32.42
502,UVAGS,VCC-C,44430,2020-01-16 02:13:40.127,2020-01-16 02:24:04.792,624.665,31.542
503,ODUGS,VCC-C,44430,2020-01-16 02:14:03.670,2020-01-16 02:24:10.512,606.842,22.892
504,WFF,VCC-C,44430,2020-01-16 02:14:18.460,2020-01-16 02:24:29.463,611.003,24.927
505,VTGS,VCC-A,44428,2020-01-16 03:13:00.641,2020-01-16 03:22:19.957,559.316,13.769
506,UVAGS,VCC-A,44428,2020-01-16 03:13:26.056,2020-01-16 03:22:51.628,565.572,14.163
507,ODUGS,VCC-A,44428,2020-01-16 03:14:03.699,2020-01-16 03:22:55.372,531.673,10.738
508,WFF,VCC-A,44428,2020-01-16 03:14:12.186,2020-01-16 03:23:17.443,545.257,12.093
509,VTGS,VCC-B,44431,2020-01-16 03:15:29.349,2020-01-16 03:24:45.219,555.87,13.374
510,UVAGS,VCC-B,44431,2020-01-16 03:15:54.584,2020-01-16 03:25:17.061,562.477,13.791
511,ODUGS,VCC-B,44431,2020-01-16 03:16:32.756,2020-01-16 03:25:20.790,528.034,10.453
512,WFF,VCC-B,44431,2020-01-16 03:16:40.915,2020-01-16 03:25:43.011,542.096,11.8
513,VTGS,VCC-A,44428,2020-01-16 06:28:47.034,2020-01-16 06:37:33.170,526.136,10.579
514,UVAGS,VCC-A,44428,2020-01-16 06:28:51.968,2020-01-16 06:38:07.687,555.719,13.065
515,WFF,VCC-A,44428,2020-01-16 06:29:24.329,2020-01-16 06:38:50.797,566.468,14.59
516,ODUGS,VCC-A,44428,2020-01-16 06:29:30.578,2020-01-16 06:38:37.266,546.688,12.144
517,VTGS,VCC-B,44431,2020-01-16 06:31:12.526,2020-01-16 06:40:01.800,529.274,10.843
518,UVAGS,VCC-B,44431,2020-01-16 06:31:17.444,2020-01-16 06:40:35.944,558.5,13.394
519,WFF,VCC-B,44431,2020-01-16 06:31:49.649,2020-01-16 06:41:18.948,569.299,14.997
520,ODUGS,VCC-B,44431,2020-01-16 06:31:55.819,2020-01-16 06:41:05.813,549.994,12.49
521,VTGS,VCC-C,44430,2020-01-16 07:06:07.825,2020-01-16 07:15:45.592,577.767,16.795
522,UVAGS,VCC-C,44430,2020-01-16 07:06:13.178,2020-01-16 07:16:13.129,599.951,21.028
523,WFF,VCC-C,44430,2020-01-16 07:06:43.811,2020-01-16 07:16:53.171,609.36,24.683
524,ODUGS,VCC-C,44430,2020-01-16 07:06:48.563,2020-01-16 07:16:46.196,597.633,20.461
525,VTGS,VCC-A,44428,2020-01-16 08:04:59.656,2020-01-16 08:15:34.185,634.529,46.149
526,UVAGS,VCC-A,44428,2020-01-16 08:05:07.664,2020-01-16 08:15:49.847,642.183,64.255
527,WFF,VCC-A,44428,2020-01-16 08:05:39.225,2020-01-16 08:16:21.180,641.955,85.085
528,ODUGS,VCC-A,44428,2020-01-16 08:05:41.116,2020-01-16 08:16:23.517,642.401,67.078
529,VTGS,VCC-B,44431,2020-01-16 08:07:24.781,2020-01-16 08:18:00.307,635.526,48.838
530,UVAGS,VCC-B,44431,2020-01-16 08:07:32.946,2020-01-16 08:18:15.450,642.504,68.261
531,WFF,VCC-B,44431,2020-01-16 08:08:04.633,2020-01-16 08:18:46.329,641.696,89.641
532,ODUGS,VCC-B,44431,2020-01-16 08:08:06.386,2020-01-16 08:18:49.047,642.661,71.461
533,VTGS,VCC-C,44430,2020-01-16 08:42:19.568,2020-01-16 08:52:54.813,635.245,63.66
534,UVAGS,VCC-C,44430,2020-01-16 08:42:30.754,2020-01-16 08:53:01.498,630.744,45.028
535,ODUGS,VCC-C,44430,2020-01-16 08:43:04.882,2020-01-16 08:53:33.040,628.158,41.354
536,WFF,VCC-C,44430,2020-01-16 08:43:05.634,2020-01-16 08:53:24.207,618.573,33.382
537,VTGS,VCC-A,44428,2020-01-16 09:41:49.648,2020-01-16 09:51:05.097,555.449,14.701
538,UVAGS,VCC-A,44428,2020-01-16 09:42:10.276,2020-01-16 09:50:54.678,524.402,11.144
539,VTGS,VCC-B,44431,2020-01-16 09:44:17.263,2020-01-16 09:53:25.901,548.638,13.865
540,UVAGS,VCC-B,44431,2020-01-16 09:44:38.571,2020-01-16 09:53:14.509,515.938,10.465
541,ODUGS,VCC-C,44430,2020-01-16 23:44:48.688,2020-01-16 23:54:20.195,571.507,16.653
542,VTGS,VCC-C,44430,2020-01-16 23:44:49.265,2020-01-16 23:53:22.485,513.22,10.487
543,UVAGS,VCC-C,44430,2020-01-16 23:45:04.887,2020-01-16 23:53:57.510,532.623,11.888
544,WFF,VCC-C,44430,2020-01-16 23:45:08.998,2020-01-16 23:54:36.786,567.788,16.319
545,VTGS,VCC-A,44428,2020-01-17 00:43:07.522,2020-01-17 00:53:38.987,631.465,44.52
546,UVAGS,VCC-A,44428,2020-01-17 00:43:31.355,2020-01-17 00:54:08.171,636.816,49.286
547,ODUGS,VCC-A,44428,2020-01-17 00:43:35.952,2020-01-17 00:54:19.740,643.788,75.901
548,WFF,VCC-A,44428,2020-01-17 00:43:54.830,2020-01-17 00:54:36.649,641.819,71.313
549,VTGS,VCC-B,44431,2020-01-17 00:45:30.771,2020-01-17 00:56:03.910,633.139,47.525
550,UVAGS,VCC-B,44431,2020-01-17 00:45:54.809,2020-01-17 00:56:32.995,638.186,52.595
551,ODUGS,VCC-B,44431,2020-01-17 00:46:00.104,2020-01-17 00:56:44.285,644.181,80.84
552,WFF,VCC-B,44431,2020-01-17 00:46:18.891,2020-01-17 00:57:01.231,642.34,75.963
553,VTGS,VCC-C,44430,2020-01-17 01:19:46.199,2020-01-17 01:30:25.082,638.883,64.468
554,UVAGS,VCC-C,44430,2020-01-17 01:20:12.507,2020-01-17 01:30:53.454,640.947,60.284
555,ODUGS,VCC-C,44430,2020-01-17 01:20:28.070,2020-01-17 01:31:01.220,633.15,40.173
556,WFF,VCC-C,44430,2020-01-17 01:20:45.036,2020-01-17 01:31:19.041,634.005,43.643
557,VTGS,VCC-A,44428,2020-01-17 02:20:01.029,2020-01-17 02:29:58.081,597.052,20.289
558,UVAGS,VCC-A,44428,2020-01-17 02:20:27.884,2020-01-17 02:30:27.923,600.039,20.306
559,ODUGS,VCC-A,44428,2020-01-17 02:20:58.649,2020-01-17 02:30:32.346,573.697,15.286
560,WFF,VCC-A,44428,2020-01-17 02:21:10.715,2020-01-17 02:30:52.692,581.977,16.836
561,VTGS,VCC-B,44431,2020-01-17 02:22:27.904,2020-01-17 02:32:22.018,594.114,19.595
562,UVAGS,VCC-B,44431,2020-01-17 02:22:54.688,2020-01-17 02:32:51.979,597.291,19.653
563,ODUGS,VCC-B,44431,2020-01-17 02:23:26.040,2020-01-17 02:32:56.312,570.272,14.814
564,WFF,VCC-B,44431,2020-01-17 02:23:37.845,2020-01-17 02:33:16.789,578.944,16.341
565,VTGS,VCC-C,44430,2020-01-17 02:57:29.647,2020-01-17 03:06:33.116,543.469,12.2
566,UVAGS,VCC-C,44430,2020-01-17 02:57:54.267,2020-01-17 03:07:05.540,551.273,12.679
567,WFF,VCC-C,44430,2020-01-17 02:58:41.136,2020-01-17 03:07:31.900,530.764,10.913
568,WFF,VCC-A,44428,2020-01-17 05:36:57.666,2020-01-17 05:45:47.713,530.047,10.775
569,UVAGS,VCC-B,44431,2020-01-17 05:38:47.579,2020-01-17 05:47:31.566,523.987,10.158
570,WFF,VCC-B,44431,2020-01-17 05:39:22.196,2020-01-17 05:48:14.958,532.762,11.011
571,VTGS,VCC-C,44430,2020-01-17 06:12:56.358,2020-01-17 06:21:53.369,537.011,11.638
572,UVAGS,VCC-C,44430,2020-01-17 06:13:01.220,2020-01-17 06:22:26.364,565.144,14.4
573,WFF,VCC-C,44430,2020-01-17 06:13:32.959,2020-01-17 06:23:08.996,576.037,16.256
574,ODUGS,VCC-C,44430,2020-01-17 06:13:38.913,2020-01-17 06:22:57.025,558.112,13.55
575,VTGS,VCC-A,44428,2020-01-17 07:12:37.667,2020-01-17 07:22:50.286,612.619,25.875
576,UVAGS,VCC-A,44428,2020-01-17 07:12:44.105,2020-01-17 07:23:12.108,628.003,33.583
577,WFF,VCC-A,44428,2020-01-17 07:13:14.712,2020-01-17 07:23:48.389,633.677,41.936
578,ODUGS,VCC-A,44428,2020-01-17 07:13:18.128,2020-01-17 07:23:46.075,627.947,33.698
579,VTGS,VCC-B,44431,2020-01-17 07:15:01.480,2020-01-17 07:25:16.223,614.743,26.936
580,UVAGS,VCC-B,44431,2020-01-17 07:15:08.021,2020-01-17 07:25:37.555,629.534,35.13
581,WFF,VCC-B,44431,2020-01-17 07:15:38.664,2020-01-17 07:26:13.472,634.808,44.169
582,ODUGS,VCC-B,44431,2020-01-17 07:15:41.965,2020-01-17 07:26:11.540,629.575,35.351
583,VTGS,VCC-C,44430,2020-01-17 07:49:04.646,2020-01-17 07:59:40.929,636.283,58.178
584,UVAGS,VCC-C,44430,2020-01-17 07:49:13.285,2020-01-17 07:59:54.508,641.223,81.545
585,WFF,VCC-C,44430,2020-01-17 07:49:45.391,2020-01-17 08:00:23.972,638.581,75.265
586,ODUGS,VCC-C,44430,2020-01-17 07:49:46.722,2020-01-17 08:00:27.833,641.111,85.78
587,VTGS,VCC-A,44428,2020-01-17 08:49:04.525,2020-01-17 08:59:17.506,612.981,29.454
588,UVAGS,VCC-A,44428,2020-01-17 08:49:19.244,2020-01-17 08:59:16.772,597.528,22.273
589,ODUGS,VCC-A,44428,2020-01-17 08:49:55.278,2020-01-17 08:59:45.434,590.156,20.313
590,WFF,VCC-A,44428,2020-01-17 08:49:58.830,2020-01-17 08:59:31.206,572.376,17.041
591,VTGS,VCC-B,44431,2020-01-17 08:51:29.651,2020-01-17 09:01:39.196,609.545,27.772
592,UVAGS,VCC-B,44431,2020-01-17 08:51:44.741,2020-01-17 09:01:37.781,593.04,21.073
593,ODUGS,VCC-B,44431,2020-01-17 08:52:21.006,2020-01-17 09:02:06.132,585.126,19.196
594,WFF,VCC-B,44431,2020-01-17 08:52:24.859,2020-01-17 09:01:51.394,566.535,16.114
595,VTGS,VCC-C,44430,2020-01-17 09:26:02.359,2020-01-17 09:34:46.857,524.498,11.53
596,VTGS,VCC-A,44428,2020-01-17 23:51:07.219,2020-01-18 00:01:00.699,593.48,21.432
597,ODUGS,VCC-A,44428,2020-01-17 23:51:23.278,2020-01-18 00:01:47.610,624.332,33.852
598,UVAGS,VCC-A,44428,2020-01-17 23:51:27.920,2020-01-18 00:01:31.792,603.872,23.718
599,WFF,VCC-A,44428,2020-01-17 23:51:43.053,2020-01-18 00:02:04.203,621.15,32.591
600,VTGS,VCC-B,44431,2020-01-17 23:53:27.615,2020-01-18 00:03:25.313,597.698,22.647
601,ODUGS,VCC-B,44431,2020-01-17 23:53:44.782,2020-01-18 00:04:11.597,626.815,35.975
602,UVAGS,VCC-B,44431,2020-01-17 23:53:48.615,2020-01-18 00:03:56.190,607.575,25.052
603,WFF,VCC-B,44431,2020-01-17 23:54:04.498,2020-01-18 00:04:28.202,623.704,34.562
604,VTGS,VCC-C,44430,2020-01-18 00:26:33.608,2020-01-18 00:37:08.729,635.121,57.032
605,UVAGS,VCC-C,44430,2020-01-18 00:26:58.146,2020-01-18 00:37:37.575,639.429,62.942
606,ODUGS,VCC-C,44430,2020-01-18 00:27:05.343,2020-01-18 00:37:48.127,642.784,85.189
607,WFF,VCC-C,44430,2020-01-18 00:27:23.851,2020-01-18 00:38:05.188,641.337,89.285
608,VTGS,VCC-A,44428,2020-01-18 01:27:10.245,2020-01-18 01:37:36.266,626.021,33.106
609,UVAGS,VCC-A,44428,2020-01-18 01:27:37.353,2020-01-18 01:38:05.010,627.657,32.18
610,ODUGS,VCC-A,44428,2020-01-18 01:28:00.661,2020-01-18 01:38:10.813,610.152,23.338
611,WFF,VCC-A,44428,2020-01-18 01:28:15.541,2020-01-18 01:38:29.724,614.183,25.401
612,VTGS,VCC-B,44431,2020-01-18 01:29:35.018,2020-01-18 01:39:59.031,624.013,31.64
613,UVAGS,VCC-B,44431,2020-01-18 01:30:02.143,2020-01-18 01:40:27.835,625.692,30.838
614,ODUGS,VCC-B,44431,2020-01-18 01:30:26.068,2020-01-18 01:40:33.503,607.435,22.47
615,WFF,VCC-B,44431,2020-01-18 01:30:40.751,2020-01-18 01:40:52.516,611.765,24.469
616,VTGS,VCC-C,44430,2020-01-18 02:03:37.278,2020-01-18 02:13:21.266,583.988,17.774
617,UVAGS,VCC-C,44430,2020-01-18 02:04:03.811,2020-01-18 02:13:51.577,587.766,17.934
618,ODUGS,VCC-C,44430,2020-01-18 02:04:36.787,2020-01-18 02:13:55.645,558.858,13.547
619,WFF,VCC-C,44430,2020-01-18 02:04:47.814,2020-01-18 02:14:16.505,568.691,15.012
620,UVAGS,VCC-C,44430,2020-01-18 05:19:44.349,2020-01-18 05:28:33.251,528.902,10.646
621,WFF,VCC-C,44430,2020-01-18 05:20:18.306,2020-01-18 05:29:16.720,538.414,11.631
622,VTGS,VCC-A,44428,2020-01-18 06:20:15.581,2020-01-18 06:29:54.794,579.213,16.752
623,UVAGS,VCC-A,44428,2020-01-18 06:20:20.956,2020-01-18 06:30:22.438,601.482,20.95
624,WFF,VCC-A,44428,2020-01-18 06:20:51.642,2020-01-18 06:31:02.553,610.911,24.555
625,ODUGS,VCC-A,44428,2020-01-18 06:20:56.402,2020-01-18 06:30:55.485,599.083,20.373
626,VTGS,VCC-B,44431,2020-01-18 06:22:38.225,2020-01-18 06:32:20.277,582.052,17.284
627,UVAGS,VCC-B,44431,2020-01-18 06:22:43.668,2020-01-18 06:32:47.470,603.802,21.655
628,WFF,VCC-B,44431,2020-01-18 06:23:14.304,2020-01-18 06:33:27.320,613.016,25.48
629,ODUGS,VCC-B,44431,2020-01-18 06:23:18.963,2020-01-18 06:33:20.642,601.679,21.11
630,VTGS,VCC-C,44430,2020-01-18 06:55:52.667,2020-01-18 07:06:11.093,618.426,30.021
631,UVAGS,VCC-C,44430,2020-01-18 06:55:59.491,2020-01-18 07:06:31.111,631.62,39.748
632,WFF,VCC-C,44430,2020-01-18 06:56:30.245,2020-01-18 07:07:06.015,635.77,50.967
633,ODUGS,VCC-C,44430,2020-01-18 06:56:33.240,2020-01-18 07:07:05.083,631.843,40.326
634,VTGS,VCC-A,44428,2020-01-18 07:56:30.537,2020-01-18 08:07:08.102,637.565,64.913
635,UVAGS,VCC-A,44428,2020-01-18 07:56:41.660,2020-01-18 08:07:14.949,633.289,45.947
636,ODUGS,VCC-A,44428,2020-01-18 07:57:15.780,2020-01-18 08:07:46.558,630.778,42.219
637,WFF,VCC-A,44428,2020-01-18 07:57:16.471,2020-01-18 08:07:37.839,621.368,34.059
638,VTGS,VCC-B,44431,2020-01-18 07:58:53.707,2020-01-18 08:09:30.107,636.4,60.694
639,UVAGS,VCC-B,44431,2020-01-18 07:59:05.069,2020-01-18 08:09:36.386,631.317,43.116
640,ODUGS,VCC-B,44431,2020-01-18 07:59:39.288,2020-01-18 08:10:07.806,628.518,39.589
641,WFF,VCC-B,44431,2020-01-18 07:59:40.173,2020-01-18 08:09:58.677,618.504,32.095
642,VTGS,VCC-C,44430,2020-01-18 08:32:21.610,2020-01-18 08:42:19.300,597.69,23.741
643,UVAGS,VCC-C,44430,2020-01-18 08:32:37.774,2020-01-18 08:42:15.972,578.198,18.12
644,ODUGS,VCC-C,44430,2020-01-18 08:33:14.720,2020-01-18 08:42:43.401,568.681,16.435
645,WFF,VCC-C,44430,2020-01-18 08:33:19.468,2020-01-18 08:42:27.222,547.754,13.787
646,ODUGS,VCC-A,44428,2020-01-18 22:59:30.265,2020-01-18 23:09:04.058,573.793,16.73
647,VTGS,VCC-A,44428,2020-01-18 22:59:30.795,2020-01-18 23:08:06.381,515.586,10.554
648,UVAGS,VCC-A,44428,2020-01-18 22:59:46.443,2020-01-18 23:08:41.410,534.967,11.958
649,WFF,VCC-A,44428,2020-01-18 22:59:50.590,2020-01-18 23:09:20.667,570.077,16.397
650,VTGS,VCC-B,44431,2020-01-18 23:01:47.642,2020-01-18 23:10:31.361,523.719,11.219
651,ODUGS,VCC-B,44431,2020-01-18 23:01:48.701,2020-01-18 23:11:27.893,579.192,17.676
652,UVAGS,VCC-B,44431,2020-01-18 23:02:03.811,2020-01-18 23:11:05.947,542.136,12.666
653,WFF,VCC-B,44431,2020-01-18 23:02:08.996,2020-01-18 23:11:44.486,575.49,17.307
654,VTGS,VCC-C,44430,2020-01-18 23:33:38.346,2020-01-18 23:43:43.438,605.092,25.844
655,ODUGS,VCC-C,44430,2020-01-18 23:33:58.088,2020-01-18 23:44:28.318,630.23,41.801
656,UVAGS,VCC-C,44430,2020-01-18 23:34:00.031,2020-01-18 23:44:13.846,613.815,28.583
657,WFF,VCC-C,44430,2020-01-18 23:34:17.638,2020-01-18 23:44:44.961,627.323,39.931
658,VTGS,VCC-A,44428,2020-01-19 00:34:30.940,2020-01-19 00:45:12.183,641.243,64.7
659,UVAGS,VCC-A,44428,2020-01-19 00:34:57.265,2020-01-19 00:45:40.566,643.301,60.52
660,ODUGS,VCC-A,44428,2020-01-19 00:35:12.803,2020-01-19 00:45:48.359,635.556,40.4
661,WFF,VCC-A,44428,2020-01-19 00:35:29.789,2020-01-19 00:46:06.187,636.398,43.875
662,VTGS,VCC-B,44431,2020-01-19 00:36:53.388,2020-01-19 00:47:33.927,640.539,60.906
663,UVAGS,VCC-B,44431,2020-01-19 00:37:19.808,2020-01-19 00:48:02.312,642.504,57.126
664,ODUGS,VCC-B,44431,2020-01-19 00:37:35.979,2020-01-19 00:48:09.919,633.94,38.393
665,WFF,VCC-B,44431,2020-01-19 00:37:52.821,2020-01-19 00:48:27.820,634.999,41.696
666,VTGS,VCC-C,44430,2020-01-19 01:09:52.894,2020-01-19 01:20:09.871,616.977,28.359
667,UVAGS,VCC-C,44430,2020-01-19 01:10:20.021,2020-01-19 01:20:38.829,618.808,27.811
668,ODUGS,VCC-C,44430,2020-01-19 01:10:45.449,2020-01-19 01:20:44.154,598.705,20.452
669,WFF,VCC-C,44430,2020-01-19 01:10:59.613,2020-01-19 01:21:03.431,603.818,22.315
670,VTGS,VCC-A,44428,2020-01-19 02:12:17.547,2020-01-19 02:21:23.664,546.117,12.301
671,UVAGS,VCC-A,44428,2020-01-19 02:12:42.194,2020-01-19 02:21:56.088,553.894,12.782
672,WFF,VCC-A,44428,2020-01-19 02:13:29.052,2020-01-19 02:22:22.500,533.448,11.008
673,VTGS,VCC-B,44431,2020-01-19 02:14:42.604,2020-01-19 02:23:45.315,542.711,11.976
674,UVAGS,VCC-B,44431,2020-01-19 02:15:07.049,2020-01-19 02:24:17.929,550.88,12.476
675,WFF,VCC-B,44431,2020-01-19 02:15:54.050,2020-01-19 02:24:44.501,530.451,10.767
676,VTGS,VCC-A,44428,2020-01-19 05:27:50.992,2020-01-19 05:36:50.648,539.656,11.743
677,UVAGS,VCC-A,44428,2020-01-19 05:27:55.918,2020-01-19 05:37:23.585,567.667,14.518
678,WFF,VCC-A,44428,2020-01-19 05:28:27.692,2020-01-19 05:38:06.206,578.514,16.383
679,ODUGS,VCC-A,44428,2020-01-19 05:28:33.611,2020-01-19 05:37:54.288,560.677,13.665
680,VTGS,VCC-B,44431,2020-01-19 05:30:12.632,2020-01-19 05:39:15.367,542.735,12.048
681,UVAGS,VCC-B,44431,2020-01-19 05:30:17.563,2020-01-19 05:39:47.912,570.349,14.902
682,WFF,VCC-B,44431,2020-01-19 05:30:49.212,2020-01-19 05:40:30.385,581.173,16.861
683,ODUGS,VCC-B,44431,2020-01-19 05:30:55.048,2020-01-19 05:40:18.856,563.808,14.066
684,VTGS,VCC-C,44430,2020-01-19 06:02:40.979,2020-01-19 06:12:27.825,586.846,18.554
685,UVAGS,VCC-C,44430,2020-01-19 06:02:46.555,2020-01-19 06:12:53.955,607.4,23.374
686,WFF,VCC-C,44430,2020-01-19 06:03:17.089,2020-01-19 06:13:33.141,616.052,27.785
687,ODUGS,VCC-C,44430,2020-01-19 06:03:21.516,2020-01-19 06:13:27.356,605.84,22.914
688,VTGS,VCC-A,44428,2020-01-19 07:04:02.770,2020-01-19 07:14:41.217,638.447,58.54
689,UVAGS,VCC-A,44428,2020-01-19 07:04:11.433,2020-01-19 07:14:54.767,643.334,81.877
690,WFF,VCC-A,44428,2020-01-19 07:04:43.569,2020-01-19 07:15:24.205,640.636,75.046
691,ODUGS,VCC-A,44428,2020-01-19 07:04:44.890,2020-01-19 07:15:28.098,643.208,86.135
692,VTGS,VCC-B,44431,2020-01-19 07:06:24.261,2020-01-19 07:17:03.209,638.948,62.17
693,UVAGS,VCC-B,44431,2020-01-19 07:06:33.089,2020-01-19 07:17:16.238,643.149,86.597
694,WFF,VCC-B,44431,2020-01-19 07:07:05.387,2020-01-19 07:17:45.206,639.819,70.461
695,ODUGS,VCC-B,44431,2020-01-19 07:07:06.564,2020-01-19 07:17:49.474,642.91,88.841
696,VTGS,VCC-C,44430,2020-01-19 07:38:54.689,2020-01-19 07:49:26.120,631.431,51.752
697,UVAGS,VCC-C,44430,2020-01-19 07:39:06.648,2020-01-19 07:49:31.030,624.382,37.185
698,ODUGS,VCC-C,44430,2020-01-19 07:39:41.121,2020-01-19 07:50:01.955,620.834,34.096
699,WFF,VCC-C,44430,2020-01-19 07:39:42.486,2020-01-19 07:49:51.849,609.363,27.924
700,VTGS,VCC-A,44428,2020-01-19 08:41:03.871,2020-01-19 08:49:50.081,526.21,11.559
701,VTGS,VCC-B,44431,2020-01-19 08:43:28.345,2020-01-19 08:52:06.368,518.023,10.871
702,VTGS,VCC-C,44430,2020-01-19 22:41:05.758,2020-01-19 22:50:03.230,537.472,12.633
703,ODUGS,VCC-C,44430,2020-01-19 22:41:09.917,2020-01-19 22:50:57.604,587.687,19.753
704,UVAGS,VCC-C,44430,2020-01-19 22:41:22.904,2020-01-19 22:50:36.994,554.09,14.179
705,WFF,VCC-C,44430,2020-01-19 22:41:30.125,2020-01-19 22:51:14.165,584.04,19.294
706,VTGS,VCC-A,44428,2020-01-19 23:42:05.474,2020-01-19 23:52:43.341,637.867,58.365
707,UVAGS,VCC-A,44428,2020-01-19 23:42:30.082,2020-01-19 23:53:12.178,642.096,64.337
708,ODUGS,VCC-A,44428,2020-01-19 23:42:37.492,2020-01-19 23:53:22.654,645.162,83.721
709,WFF,VCC-A,44428,2020-01-19 23:42:55.982,2020-01-19 23:53:39.737,643.755,89.145
710,VTGS,VCC-B,44431,2020-01-19 23:44:25.389,2020-01-19 23:55:04.234,638.845,62.323
711,UVAGS,VCC-B,44431,2020-01-19 23:44:50.170,2020-01-19 23:55:33.001,642.831,68.534
712,ODUGS,VCC-B,44431,2020-01-19 23:44:58.241,2020-01-19 23:55:43.233,644.992,78.969
713,WFF,VCC-B,44431,2020-01-19 23:45:16.632,2020-01-19 23:56:00.362,643.73,84.414
