vcc_sched/network/dec16-jan6/access_uvags_wj2xmr_vcc-a_44428.csv

"Access","Start Time (UTCG)","Stop Time (UTCG)","Duration (sec)"
1,16 Dec 2019 17:24:24.653,16 Dec 2019 17:32:33.380,488.728
2,16 Dec 2019 19:01:10.916,16 Dec 2019 19:10:58.192,587.276
3,16 Dec 2019 20:37:29.277,16 Dec 2019 20:48:13.332,644.055
4,16 Dec 2019 22:15:13.058,16 Dec 2019 22:22:14.311,421.253
5,17 Dec 2019 11:41:27.214,17 Dec 2019 11:49:25.723,478.508
6,17 Dec 2019 13:16:02.856,17 Dec 2019 13:26:47.181,644.325
7,17 Dec 2019 14:53:32.595,17 Dec 2019 15:03:04.367,571.772
8,17 Dec 2019 16:31:55.525,17 Dec 2019 16:40:00.337,484.812
9,17 Dec 2019 18:09:05.930,17 Dec 2019 18:18:17.981,552.052
10,17 Dec 2019 19:45:23.228,17 Dec 2019 19:56:06.762,643.534
11,17 Dec 2019 21:22:21.088,17 Dec 2019 21:31:24.383,543.294
12,18 Dec 2019 10:51:14.305,18 Dec 2019 10:56:00.743,286.438
13,18 Dec 2019 12:24:04.806,18 Dec 2019 12:34:37.430,632.625
14,18 Dec 2019 14:00:55.555,18 Dec 2019 14:11:00.273,604.717
15,18 Dec 2019 15:39:17.620,18 Dec 2019 15:47:35.526,497.906
16,18 Dec 2019 17:16:55.443,18 Dec 2019 17:25:34.097,518.654
17,18 Dec 2019 18:53:19.493,18 Dec 2019 19:03:46.460,626.968
18,18 Dec 2019 20:29:52.822,18 Dec 2019 20:40:00.840,608.017
19,19 Dec 2019 11:32:23.654,19 Dec 2019 11:42:18.866,595.212
20,19 Dec 2019 13:08:26.354,19 Dec 2019 13:18:56.553,630.200
21,19 Dec 2019 14:46:34.114,19 Dec 2019 14:55:18.661,524.547
22,19 Dec 2019 16:24:37.047,19 Dec 2019 16:32:50.946,493.900
23,19 Dec 2019 18:01:15.745,19 Dec 2019 18:11:14.775,599.030
24,19 Dec 2019 19:37:36.336,19 Dec 2019 19:48:15.026,638.691
25,19 Dec 2019 21:15:48.572,19 Dec 2019 21:21:36.268,347.696
26,20 Dec 2019 10:41:05.068,20 Dec 2019 10:49:45.281,520.212
27,20 Dec 2019 12:16:07.628,20 Dec 2019 12:26:50.959,643.331
28,20 Dec 2019 13:53:49.382,20 Dec 2019 14:03:07.852,558.469
29,20 Dec 2019 15:32:09.075,20 Dec 2019 15:40:12.790,483.715
30,20 Dec 2019 17:09:09.767,20 Dec 2019 17:18:34.446,564.679
31,20 Dec 2019 18:45:26.341,20 Dec 2019 18:56:11.727,645.386
32,20 Dec 2019 20:22:37.544,20 Dec 2019 20:31:04.127,506.584
33,21 Dec 2019 09:50:24.140,21 Dec 2019 09:56:41.059,376.919
34,21 Dec 2019 11:24:01.758,21 Dec 2019 11:34:41.093,639.335
35,21 Dec 2019 13:01:07.749,21 Dec 2019 13:11:00.660,592.910
36,21 Dec 2019 14:39:31.647,21 Dec 2019 14:47:42.442,490.795
37,21 Dec 2019 16:16:59.170,21 Dec 2019 16:25:48.952,529.782
38,21 Dec 2019 17:53:19.620,21 Dec 2019 18:03:53.776,634.156
39,21 Dec 2019 19:30:00.145,21 Dec 2019 19:39:48.619,588.474
40,22 Dec 2019 10:32:11.510,22 Dec 2019 10:42:23.869,612.359
41,22 Dec 2019 12:08:32.840,22 Dec 2019 12:18:54.673,621.833
42,22 Dec 2019 13:46:47.215,22 Dec 2019 13:55:20.418,513.202
43,22 Dec 2019 15:24:41.492,22 Dec 2019 15:33:02.541,501.049
44,22 Dec 2019 17:01:13.721,22 Dec 2019 17:11:23.525,609.804
45,22 Dec 2019 18:37:37.681,22 Dec 2019 18:48:07.866,630.186
46,22 Dec 2019 20:16:34.027,22 Dec 2019 20:20:34.059,240.032
47,23 Dec 2019 09:40:41.310,23 Dec 2019 09:49:54.379,553.069
48,23 Dec 2019 11:16:07.530,23 Dec 2019 11:26:47.633,640.104
49,23 Dec 2019 12:53:59.898,23 Dec 2019 13:03:05.272,545.374
50,23 Dec 2019 14:32:14.662,23 Dec 2019 14:40:19.677,485.016
51,23 Dec 2019 16:09:06.400,23 Dec 2019 16:18:43.532,577.132
52,23 Dec 2019 17:45:23.324,23 Dec 2019 17:56:08.160,644.835
53,23 Dec 2019 19:22:51.369,23 Dec 2019 19:30:32.175,460.805
54,24 Dec 2019 08:49:41.109,24 Dec 2019 08:57:02.114,441.004
55,24 Dec 2019 10:23:54.235,24 Dec 2019 10:34:37.229,642.994
56,24 Dec 2019 12:01:14.163,24 Dec 2019 12:10:54.661,580.498
57,24 Dec 2019 13:39:38.026,24 Dec 2019 13:47:43.872,485.846
58,24 Dec 2019 15:16:55.347,24 Dec 2019 15:25:56.996,541.649
59,24 Dec 2019 16:53:13.295,24 Dec 2019 17:03:52.841,639.546
60,24 Dec 2019 18:30:02.753,24 Dec 2019 18:39:26.686,563.933
61,25 Dec 2019 07:59:57.945,25 Dec 2019 08:02:59.532,181.587
62,25 Dec 2019 09:31:55.504,25 Dec 2019 09:42:20.695,625.191
63,25 Dec 2019 11:08:33.948,25 Dec 2019 11:18:46.109,612.161
64,25 Dec 2019 12:46:53.219,25 Dec 2019 12:55:16.504,503.286
65,25 Dec 2019 14:24:38.072,25 Dec 2019 14:33:07.933,509.861
66,25 Dec 2019 16:01:04.935,25 Dec 2019 16:11:24.333,619.398
67,25 Dec 2019 17:37:33.479,25 Dec 2019 17:47:51.719,618.240
68,26 Dec 2019 08:40:14.927,26 Dec 2019 08:49:53.986,579.059
69,26 Dec 2019 10:16:02.387,26 Dec 2019 10:26:37.311,634.924
70,26 Dec 2019 11:54:03.898,26 Dec 2019 12:02:56.724,532.825
71,26 Dec 2019 13:32:12.265,26 Dec 2019 13:40:20.850,488.586
72,26 Dec 2019 15:08:55.966,26 Dec 2019 15:18:45.079,589.113
73,26 Dec 2019 16:45:14.281,26 Dec 2019 16:55:55.998,641.718
74,26 Dec 2019 18:23:04.246,26 Dec 2019 18:29:46.901,402.655
75,27 Dec 2019 07:48:59.640,27 Dec 2019 07:57:09.442,489.803
76,27 Dec 2019 09:23:42.027,27 Dec 2019 09:34:26.003,643.976
77,27 Dec 2019 11:01:14.589,27 Dec 2019 11:10:42.373,567.784
78,27 Dec 2019 12:39:36.615,27 Dec 2019 12:47:39.791,483.176
79,27 Dec 2019 14:16:44.102,27 Dec 2019 14:25:58.020,553.917
80,27 Dec 2019 15:53:00.601,27 Dec 2019 16:03:43.584,642.983
81,27 Dec 2019 17:30:01.094,27 Dec 2019 17:38:54.646,533.551
82,28 Dec 2019 06:58:32.193,28 Dec 2019 07:03:43.963,311.770
83,28 Dec 2019 08:31:35.295,28 Dec 2019 08:42:09.626,634.330
84,28 Dec 2019 10:08:29.485,28 Dec 2019 10:18:30.962,601.478
85,28 Dec 2019 11:46:51.896,28 Dec 2019 11:55:06.972,495.076
86,28 Dec 2019 13:24:26.908,28 Dec 2019 13:33:06.893,519.985
87,28 Dec 2019 15:00:49.489,28 Dec 2019 15:11:17.105,627.616
88,28 Dec 2019 16:37:23.926,28 Dec 2019 16:47:26.451,602.525
89,29 Dec 2019 07:39:45.259,29 Dec 2019 07:49:44.742,599.483
90,29 Dec 2019 09:15:52.030,29 Dec 2019 09:26:20.117,628.087
91,29 Dec 2019 10:54:01.168,29 Dec 2019 11:02:42.281,521.113
92,29 Dec 2019 12:32:01.913,29 Dec 2019 12:40:16.134,494.221
93,29 Dec 2019 14:08:38.563,29 Dec 2019 14:18:38.940,600.378
94,29 Dec 2019 15:44:59.334,29 Dec 2019 15:55:35.167,635.833
95,29 Dec 2019 17:23:19.606,29 Dec 2019 17:28:44.913,325.306
96,30 Dec 2019 06:48:17.313,30 Dec 2019 06:57:05.435,528.122
97,30 Dec 2019 08:23:24.935,30 Dec 2019 08:34:07.566,642.631
98,30 Dec 2019 10:01:08.826,30 Dec 2019 10:10:23.888,555.062
99,30 Dec 2019 11:39:27.317,30 Dec 2019 11:47:30.123,482.806
100,30 Dec 2019 13:16:25.567,30 Dec 2019 13:25:51.812,566.245
101,30 Dec 2019 14:52:41.644,30 Dec 2019 15:03:25.939,644.294
102,30 Dec 2019 16:29:55.793,30 Dec 2019 16:38:11.906,496.113
103,31 Dec 2019 05:57:25.242,31 Dec 2019 06:03:57.373,392.132
104,31 Dec 2019 07:31:10.626,31 Dec 2019 07:41:50.902,640.276
105,31 Dec 2019 09:08:19.285,31 Dec 2019 09:18:09.322,590.037
106,31 Dec 2019 10:46:43.068,31 Dec 2019 10:54:51.856,488.788
107,31 Dec 2019 12:24:08.105,31 Dec 2019 12:32:59.192,531.087
108,31 Dec 2019 14:00:27.470,31 Dec 2019 14:11:01.753,634.283
109,31 Dec 2019 15:37:09.259,31 Dec 2019 15:46:51.855,582.596
110,1 Jan 2020 06:39:11.824,1 Jan 2020 06:49:27.098,615.275
111,1 Jan 2020 08:15:36.291,1 Jan 2020 08:25:56.135,619.845
112,1 Jan 2020 09:53:51.487,1 Jan 2020 10:02:22.038,510.551
113,1 Jan 2020 11:31:43.661,1 Jan 2020 11:40:05.327,501.666
114,1 Jan 2020 13:08:14.303,1 Jan 2020 13:18:24.991,610.688
115,1 Jan 2020 14:44:38.609,1 Jan 2020 14:55:05.571,626.961
116,1 Jan 2020 16:23:47.865,1 Jan 2020 16:27:15.812,207.947
117,2 Jan 2020 05:47:32.803,2 Jan 2020 05:56:51.390,558.588
118,2 Jan 2020 07:23:02.799,2 Jan 2020 07:33:42.041,639.242
119,2 Jan 2020 09:00:56.667,2 Jan 2020 09:09:59.291,542.624
120,2 Jan 2020 10:39:10.084,2 Jan 2020 10:47:14.759,484.675
121,2 Jan 2020 12:15:59.863,2 Jan 2020 12:25:38.212,578.350
122,2 Jan 2020 13:52:16.499,2 Jan 2020 14:02:59.854,643.355
123,2 Jan 2020 15:29:47.843,2 Jan 2020 15:37:17.526,449.682
124,3 Jan 2020 04:56:22.959,3 Jan 2020 05:03:53.835,450.875
125,3 Jan 2020 06:30:41.270,3 Jan 2020 06:41:24.707,643.437
126,3 Jan 2020 08:08:03.169,3 Jan 2020 08:17:41.271,578.101
127,3 Jan 2020 09:46:26.571,3 Jan 2020 09:54:31.150,484.579
128,3 Jan 2020 11:23:41.800,3 Jan 2020 11:32:44.614,542.814
129,3 Jan 2020 12:59:58.969,3 Jan 2020 13:10:38.210,639.241
130,3 Jan 2020 14:36:49.785,3 Jan 2020 14:46:07.667,557.882
131,4 Jan 2020 04:06:22.574,4 Jan 2020 04:09:53.625,211.051
132,4 Jan 2020 05:38:34.252,4 Jan 2020 05:49:01.391,627.139
133,4 Jan 2020 07:15:15.022,4 Jan 2020 07:25:25.465,610.443
134,4 Jan 2020 08:53:34.636,4 Jan 2020 09:01:56.039,501.403
135,4 Jan 2020 10:31:17.607,4 Jan 2020 10:39:48.213,510.606
136,4 Jan 2020 12:07:43.273,4 Jan 2020 12:18:03.128,619.856
137,4 Jan 2020 13:44:12.255,4 Jan 2020 13:54:27.102,614.847
138,5 Jan 2020 04:46:45.264,5 Jan 2020 04:56:28.120,582.856
139,5 Jan 2020 06:22:35.447,5 Jan 2020 06:33:09.531,634.084
140,5 Jan 2020 08:00:37.903,5 Jan 2020 08:09:28.669,530.767
141,5 Jan 2020 09:38:44.909,5 Jan 2020 09:46:53.564,488.655
142,5 Jan 2020 11:15:27.088,5 Jan 2020 11:25:17.067,589.980
143,5 Jan 2020 12:51:45.271,5 Jan 2020 13:02:25.268,639.997
144,5 Jan 2020 14:29:38.945,5 Jan 2020 14:36:09.836,390.891
145,6 Jan 2020 03:55:21.184,6 Jan 2020 04:03:37.491,496.307
146,6 Jan 2020 05:30:07.043,6 Jan 2020 05:40:51.186,644.143
147,6 Jan 2020 07:07:40.944,6 Jan 2020 07:17:06.892,565.948
148,6 Jan 2020 08:46:02.294,6 Jan 2020 08:54:04.820,482.526
149,6 Jan 2020 10:23:08.103,6 Jan 2020 10:32:22.965,554.862
150,6 Jan 2020 11:59:24.054,6 Jan 2020 12:10:06.419,642.365
151,6 Jan 2020 13:36:25.924,6 Jan 2020 13:45:13.507,527.583

