vcc_sched/network/dec16-jan6/access_uvags_wj2xmr_vcc-c_44430.csv

"Access","Start Time (UTCG)","Stop Time (UTCG)","Duration (sec)"
1,16 Dec 2019 16:47:09.546,16 Dec 2019 16:55:14.098,484.552
2,16 Dec 2019 18:24:24.040,16 Dec 2019 18:33:25.554,541.514
3,16 Dec 2019 20:00:39.728,16 Dec 2019 20:11:18.796,639.067
4,16 Dec 2019 21:37:27.697,16 Dec 2019 21:46:49.359,561.662
5,17 Dec 2019 11:07:03.857,17 Dec 2019 11:10:05.694,181.837
6,17 Dec 2019 12:39:00.123,17 Dec 2019 12:49:24.241,624.118
7,17 Dec 2019 14:15:36.709,17 Dec 2019 14:25:47.522,610.812
8,17 Dec 2019 15:53:53.878,17 Dec 2019 16:02:15.878,502.000
9,17 Dec 2019 17:31:36.363,17 Dec 2019 17:40:05.357,508.995
10,17 Dec 2019 19:08:00.957,17 Dec 2019 19:18:19.652,618.695
11,17 Dec 2019 20:44:27.433,17 Dec 2019 20:54:44.820,617.387
12,18 Dec 2019 11:46:49.539,18 Dec 2019 11:56:26.491,576.952
13,18 Dec 2019 13:22:34.185,18 Dec 2019 13:33:08.050,633.865
14,18 Dec 2019 15:00:33.244,18 Dec 2019 15:09:25.249,532.005
15,18 Dec 2019 16:38:39.608,18 Dec 2019 16:46:46.907,487.299
16,18 Dec 2019 18:15:21.311,18 Dec 2019 18:25:09.095,587.783
17,18 Dec 2019 19:51:37.373,18 Dec 2019 20:02:18.499,641.127
18,18 Dec 2019 21:29:24.237,18 Dec 2019 21:36:08.778,404.541
19,19 Dec 2019 10:55:05.084,19 Dec 2019 11:03:09.781,484.698
20,19 Dec 2019 12:29:43.016,19 Dec 2019 12:40:25.671,642.654
21,19 Dec 2019 14:07:12.386,19 Dec 2019 14:16:39.939,567.553
22,19 Dec 2019 15:45:32.395,19 Dec 2019 15:53:34.455,482.060
23,19 Dec 2019 17:22:38.381,19 Dec 2019 17:31:50.217,551.835
24,19 Dec 2019 18:58:52.725,19 Dec 2019 19:09:34.646,641.921
25,19 Dec 2019 20:35:49.959,19 Dec 2019 20:44:45.761,535.802
26,20 Dec 2019 10:04:11.984,20 Dec 2019 10:09:08.315,296.331
27,20 Dec 2019 11:37:05.778,20 Dec 2019 11:47:37.678,631.900
28,20 Dec 2019 13:13:55.734,20 Dec 2019 13:23:57.329,601.596
29,20 Dec 2019 14:52:15.577,20 Dec 2019 15:00:30.308,494.731
30,20 Dec 2019 16:29:49.596,20 Dec 2019 16:38:26.984,517.388
31,20 Dec 2019 18:06:10.388,20 Dec 2019 18:16:36.039,625.650
32,20 Dec 2019 19:42:41.697,20 Dec 2019 19:52:45.873,604.176
33,21 Dec 2019 10:44:45.784,21 Dec 2019 10:54:40.358,594.574
34,21 Dec 2019 12:20:46.870,21 Dec 2019 12:31:14.918,628.047
35,21 Dec 2019 13:58:52.455,21 Dec 2019 14:07:34.246,521.791
36,21 Dec 2019 15:36:52.359,21 Dec 2019 15:45:04.080,491.722
37,21 Dec 2019 17:13:27.883,21 Dec 2019 17:23:25.167,597.284
38,21 Dec 2019 18:49:45.822,21 Dec 2019 19:00:22.144,636.322
39,21 Dec 2019 20:27:57.168,21 Dec 2019 20:33:38.551,341.383
40,22 Dec 2019 09:52:49.005,22 Dec 2019 10:01:27.180,518.175
41,22 Dec 2019 11:27:48.648,22 Dec 2019 11:38:30.301,641.653
42,22 Dec 2019 13:05:27.689,22 Dec 2019 13:14:44.282,556.593
43,22 Dec 2019 14:43:44.833,22 Dec 2019 14:51:46.083,481.249
44,22 Dec 2019 16:20:42.815,22 Dec 2019 16:30:04.943,562.128
45,22 Dec 2019 17:56:56.552,22 Dec 2019 18:07:39.795,643.243
46,22 Dec 2019 19:34:04.824,22 Dec 2019 19:42:29.995,505.172
47,23 Dec 2019 09:01:31.732,23 Dec 2019 09:07:41.293,369.561
48,23 Dec 2019 10:35:03.621,23 Dec 2019 10:45:40.919,637.298
49,23 Dec 2019 12:12:05.910,23 Dec 2019 12:21:57.805,591.895
50,23 Dec 2019 13:50:27.139,23 Dec 2019 13:58:36.015,488.876
51,23 Dec 2019 15:27:52.645,23 Dec 2019 15:36:39.081,526.436
52,23 Dec 2019 17:04:10.428,23 Dec 2019 17:14:41.876,631.448
53,23 Dec 2019 18:40:47.550,23 Dec 2019 18:50:35.659,588.110
54,24 Dec 2019 09:42:34.770,24 Dec 2019 09:52:43.442,608.672
55,24 Dec 2019 11:18:50.986,24 Dec 2019 11:29:12.232,621.246
56,24 Dec 2019 12:57:01.933,24 Dec 2019 13:05:34.373,512.440
57,24 Dec 2019 14:34:54.713,24 Dec 2019 14:43:12.140,497.427
58,24 Dec 2019 16:11:24.847,24 Dec 2019 16:21:30.899,606.052
59,24 Dec 2019 17:47:45.409,24 Dec 2019 17:58:14.878,629.469
60,24 Dec 2019 19:26:31.588,24 Dec 2019 19:30:47.377,255.790
61,25 Dec 2019 08:50:26.978,25 Dec 2019 08:59:32.465,545.486
62,25 Dec 2019 10:25:45.968,25 Dec 2019 10:36:25.157,639.190
63,25 Dec 2019 12:03:33.656,25 Dec 2019 12:12:39.539,545.883
64,25 Dec 2019 13:41:46.849,25 Dec 2019 13:49:48.888,482.039
65,25 Dec 2019 15:18:37.394,25 Dec 2019 15:28:09.616,572.222
66,25 Dec 2019 16:54:51.240,25 Dec 2019 17:05:34.215,642.974
67,25 Dec 2019 18:32:12.747,25 Dec 2019 18:40:01.629,468.882
68,26 Dec 2019 07:58:51.786,26 Dec 2019 08:05:55.873,424.088
69,26 Dec 2019 09:32:53.451,26 Dec 2019 09:43:34.080,640.629
70,26 Dec 2019 11:10:07.094,26 Dec 2019 11:19:48.980,581.886
71,26 Dec 2019 12:48:28.467,26 Dec 2019 12:56:32.972,484.505
72,26 Dec 2019 14:25:45.582,26 Dec 2019 14:34:41.507,535.924
73,26 Dec 2019 16:02:01.117,26 Dec 2019 16:12:37.136,636.020
74,26 Dec 2019 17:38:45.122,26 Dec 2019 17:48:14.080,568.959
75,27 Dec 2019 07:09:03.959,27 Dec 2019 07:10:38.359,94.399
76,27 Dec 2019 08:40:16.199,27 Dec 2019 08:50:35.970,619.771
77,27 Dec 2019 10:16:46.393,27 Dec 2019 10:27:00.050,613.657
78,27 Dec 2019 11:55:01.527,27 Dec 2019 12:03:25.628,504.101
79,27 Dec 2019 13:32:46.737,27 Dec 2019 13:41:10.937,504.200
80,27 Dec 2019 15:09:12.245,27 Dec 2019 15:19:26.237,613.992
81,27 Dec 2019 16:45:36.188,27 Dec 2019 16:55:56.670,620.482
82,27 Dec 2019 18:25:30.571,27 Dec 2019 18:27:12.197,101.626
83,28 Dec 2019 07:47:58.343,28 Dec 2019 07:57:26.219,567.876
84,28 Dec 2019 09:23:34.837,28 Dec 2019 09:34:10.287,635.451
85,28 Dec 2019 11:01:30.137,28 Dec 2019 11:10:25.740,535.603
86,28 Dec 2019 12:39:38.425,28 Dec 2019 12:47:42.763,484.338
87,28 Dec 2019 14:16:22.194,28 Dec 2019 14:26:04.149,581.955
88,28 Dec 2019 15:52:36.827,28 Dec 2019 16:03:17.898,641.071
89,28 Dec 2019 17:30:14.441,28 Dec 2019 17:37:19.960,425.519
90,29 Dec 2019 06:56:08.558,29 Dec 2019 07:03:55.580,467.022
91,29 Dec 2019 08:30:35.098,29 Dec 2019 08:41:17.257,642.160
92,29 Dec 2019 10:07:59.150,29 Dec 2019 10:17:30.887,571.738
93,29 Dec 2019 11:46:19.474,29 Dec 2019 11:54:21.123,481.650
94,29 Dec 2019 13:23:28.492,29 Dec 2019 13:32:34.126,545.633
95,29 Dec 2019 14:59:42.485,29 Dec 2019 15:10:21.812,639.326
96,29 Dec 2019 16:36:34.581,29 Dec 2019 16:45:40.999,546.418
97,30 Dec 2019 06:05:19.826,30 Dec 2019 06:09:30.500,250.673
98,30 Dec 2019 07:37:49.840,30 Dec 2019 07:48:18.115,628.274
99,30 Dec 2019 09:14:32.965,30 Dec 2019 09:24:38.398,605.433
100,30 Dec 2019 10:52:51.120,30 Dec 2019 11:01:08.016,496.896
101,30 Dec 2019 12:30:28.483,30 Dec 2019 12:39:00.332,511.849
102,30 Dec 2019 14:06:50.126,30 Dec 2019 14:17:11.144,621.018
103,30 Dec 2019 15:43:18.217,30 Dec 2019 15:53:27.483,609.266
104,31 Dec 2019 06:45:22.639,31 Dec 2019 06:55:08.854,586.215
105,31 Dec 2019 08:21:15.108,31 Dec 2019 08:31:45.757,630.649
106,31 Dec 2019 09:59:16.996,31 Dec 2019 10:08:02.891,525.895
107,31 Dec 2019 11:37:19.582,31 Dec 2019 11:45:27.586,488.004
108,31 Dec 2019 13:13:57.254,31 Dec 2019 13:23:48.464,591.210
109,31 Dec 2019 14:50:13.341,31 Dec 2019 15:00:50.827,637.487
110,31 Dec 2019 16:28:11.126,31 Dec 2019 16:34:23.794,372.668
111,1 Jan 2020 05:53:20.308,1 Jan 2020 06:01:42.088,501.779
112,1 Jan 2020 07:28:08.415,1 Jan 2020 07:38:50.520,642.105
113,1 Jan 2020 09:05:41.934,1 Jan 2020 09:15:03.551,561.617
114,1 Jan 2020 10:44:00.120,1 Jan 2020 10:52:00.413,480.293
115,1 Jan 2020 12:21:01.432,1 Jan 2020 12:30:16.834,555.402
116,1 Jan 2020 13:57:14.550,1 Jan 2020 14:07:55.878,641.328
117,1 Jan 2020 15:34:16.130,1 Jan 2020 15:42:56.208,520.079
118,2 Jan 2020 05:02:03.326,2 Jan 2020 05:07:36.776,333.449
119,2 Jan 2020 06:35:15.477,2 Jan 2020 06:45:50.019,634.543
120,2 Jan 2020 08:12:10.565,2 Jan 2020 08:22:07.317,596.752
121,2 Jan 2020 09:50:30.596,2 Jan 2020 09:58:41.524,490.927
122,2 Jan 2020 11:28:00.025,2 Jan 2020 11:36:40.176,520.151
123,2 Jan 2020 13:04:18.509,2 Jan 2020 13:14:45.578,627.069
124,2 Jan 2020 14:40:51.567,2 Jan 2020 14:50:47.264,595.698
125,3 Jan 2020 05:42:39.499,3 Jan 2020 05:52:40.660,601.161
126,3 Jan 2020 07:18:46.673,3 Jan 2020 07:29:11.597,624.924
127,3 Jan 2020 08:56:54.106,3 Jan 2020 09:05:31.012,516.906
128,3 Jan 2020 10:34:50.351,3 Jan 2020 10:43:03.228,492.877
129,3 Jan 2020 12:11:22.627,3 Jan 2020 12:21:22.498,599.871
130,3 Jan 2020 13:47:40.803,3 Jan 2020 13:58:13.001,632.198
131,3 Jan 2020 15:26:05.194,3 Jan 2020 15:31:10.733,305.540
132,4 Jan 2020 04:50:26.029,4 Jan 2020 04:59:16.348,530.319
133,4 Jan 2020 06:25:33.254,4 Jan 2020 06:36:13.946,640.693
134,4 Jan 2020 08:03:15.331,4 Jan 2020 08:12:26.999,551.668
135,4 Jan 2020 09:41:30.364,4 Jan 2020 09:49:30.762,480.399
136,4 Jan 2020 11:18:24.456,4 Jan 2020 11:27:49.519,565.063
137,4 Jan 2020 12:54:37.337,4 Jan 2020 13:05:19.322,641.984
138,4 Jan 2020 14:31:50.061,4 Jan 2020 14:39:59.434,489.373
139,5 Jan 2020 03:58:49.302,5 Jan 2020 04:05:22.276,392.973
140,5 Jan 2020 05:32:32.931,5 Jan 2020 05:43:11.781,638.850
141,5 Jan 2020 07:09:39.069,5 Jan 2020 07:19:26.825,587.756
142,5 Jan 2020 08:47:59.880,5 Jan 2020 08:56:06.119,486.239
143,5 Jan 2020 10:25:21.413,5 Jan 2020 10:34:10.348,528.935
144,5 Jan 2020 12:01:37.429,5 Jan 2020 12:12:09.529,632.100
145,5 Jan 2020 13:38:16.318,5 Jan 2020 13:47:55.958,579.640
146,6 Jan 2020 04:39:48.639,6 Jan 2020 04:50:01.850,613.211
147,6 Jan 2020 06:16:09.392,6 Jan 2020 06:26:27.840,618.448
148,6 Jan 2020 07:54:21.349,6 Jan 2020 08:02:50.111,508.762
149,6 Jan 2020 09:32:10.773,6 Jan 2020 09:40:29.559,498.787
150,6 Jan 2020 11:08:38.351,6 Jan 2020 11:18:46.202,607.852
151,6 Jan 2020 12:44:59.257,6 Jan 2020 12:55:24.392,625.135
152,6 Jan 2020 14:24:03.203,6 Jan 2020 14:27:34.230,211.027

