vcc_sched/network/dec16-jan6/access_vtgs_wj2xms_vcc-b_44431.csv

"Access","Start Time (UTCG)","Stop Time (UTCG)","Duration (sec)"
1,16 Dec 2019 17:27:00.297,16 Dec 2019 17:34:38.459,458.162
2,16 Dec 2019 19:03:48.504,16 Dec 2019 19:13:14.157,565.653
3,16 Dec 2019 20:40:02.506,16 Dec 2019 20:50:45.944,643.438
4,16 Dec 2019 22:17:30.945,16 Dec 2019 22:25:12.334,461.390
5,17 Dec 2019 11:43:50.769,17 Dec 2019 11:51:35.073,464.304
6,17 Dec 2019 13:18:20.182,17 Dec 2019 13:29:01.675,641.494
7,17 Dec 2019 14:55:53.224,17 Dec 2019 15:05:15.704,562.480
8,17 Dec 2019 16:34:28.104,17 Dec 2019 16:42:05.434,457.330
9,17 Dec 2019 18:11:44.004,17 Dec 2019 18:20:29.510,525.507
10,17 Dec 2019 19:47:58.166,17 Dec 2019 19:58:34.297,636.131
11,17 Dec 2019 21:24:47.011,17 Dec 2019 21:34:11.562,564.551
12,18 Dec 2019 10:53:49.473,18 Dec 2019 10:57:58.590,249.117
13,18 Dec 2019 12:26:22.765,18 Dec 2019 12:36:51.667,628.902
14,18 Dec 2019 14:03:14.225,18 Dec 2019 14:13:13.153,598.928
15,18 Dec 2019 15:41:46.329,18 Dec 2019 15:49:42.036,475.707
16,18 Dec 2019 17:19:33.283,18 Dec 2019 17:27:41.955,488.672
17,18 Dec 2019 18:55:55.774,18 Dec 2019 19:06:09.031,613.256
18,18 Dec 2019 20:32:22.744,18 Dec 2019 20:42:41.078,618.334
19,19 Dec 2019 11:34:42.999,19 Dec 2019 11:44:32.070,589.070
20,19 Dec 2019 13:10:43.935,19 Dec 2019 13:21:10.472,626.536
21,19 Dec 2019 14:48:58.953,19 Dec 2019 14:57:27.242,508.289
22,19 Dec 2019 16:27:13.555,19 Dec 2019 16:34:56.453,462.898
23,19 Dec 2019 18:03:53.067,19 Dec 2019 18:13:32.480,579.413
24,19 Dec 2019 19:40:08.823,19 Dec 2019 19:50:49.594,640.770
25,19 Dec 2019 21:18:00.279,19 Dec 2019 21:24:41.510,401.231
26,20 Dec 2019 10:43:27.044,20 Dec 2019 10:51:56.144,509.100
27,20 Dec 2019 12:18:24.892,20 Dec 2019 12:29:05.394,640.502
28,20 Dec 2019 13:56:10.987,20 Dec 2019 14:05:18.491,547.504
29,20 Dec 2019 15:34:42.941,20 Dec 2019 15:42:17.659,454.718
30,20 Dec 2019 17:11:47.739,20 Dec 2019 17:20:47.522,539.783
31,20 Dec 2019 18:48:00.697,20 Dec 2019 18:58:41.091,640.393
32,20 Dec 2019 20:25:01.241,20 Dec 2019 20:33:54.545,533.304
33,21 Dec 2019 09:52:52.495,21 Dec 2019 09:58:45.670,353.175
34,21 Dec 2019 11:26:19.390,21 Dec 2019 11:36:55.476,636.085
35,21 Dec 2019 13:03:27.020,21 Dec 2019 13:13:12.998,585.978
36,21 Dec 2019 14:42:01.824,21 Dec 2019 14:49:48.272,466.448
37,21 Dec 2019 16:19:37.201,21 Dec 2019 16:27:57.989,500.789
38,21 Dec 2019 17:55:55.427,21 Dec 2019 18:06:18.120,622.694
39,21 Dec 2019 19:32:28.802,21 Dec 2019 19:42:31.151,602.349
40,22 Dec 2019 10:34:30.212,22 Dec 2019 10:44:37.520,607.308
41,22 Dec 2019 12:10:50.692,22 Dec 2019 12:21:08.222,617.530
42,22 Dec 2019 13:49:13.400,22 Dec 2019 13:57:28.151,494.752
43,22 Dec 2019 15:27:18.615,22 Dec 2019 15:35:08.648,470.033
44,22 Dec 2019 17:03:50.665,22 Dec 2019 17:13:42.931,592.266
45,22 Dec 2019 18:40:09.295,22 Dec 2019 18:50:44.363,635.068
46,22 Dec 2019 20:18:32.910,22 Dec 2019 20:23:53.055,320.145
47,23 Dec 2019 09:43:02.052,23 Dec 2019 09:52:06.257,544.205
48,23 Dec 2019 11:18:24.773,23 Dec 2019 11:29:01.867,637.095
49,23 Dec 2019 12:56:22.525,23 Dec 2019 13:05:15.115,532.590
50,23 Dec 2019 14:34:49.598,23 Dec 2019 14:42:24.475,454.877
51,23 Dec 2019 16:11:44.141,23 Dec 2019 16:20:58.164,554.023
52,23 Dec 2019 17:47:56.992,23 Dec 2019 17:58:39.311,642.319
53,23 Dec 2019 19:25:12.067,23 Dec 2019 19:33:26.490,494.423
54,24 Dec 2019 08:52:06.159,24 Dec 2019 08:59:09.835,423.675
55,24 Dec 2019 10:26:11.576,24 Dec 2019 10:36:51.612,640.035
56,24 Dec 2019 12:03:34.093,24 Dec 2019 12:13:06.342,572.248
57,24 Dec 2019 13:42:09.554,24 Dec 2019 13:49:49.087,459.533
58,24 Dec 2019 15:19:33.382,24 Dec 2019 15:28:07.287,513.905
59,24 Dec 2019 16:55:48.532,24 Dec 2019 17:06:18.888,630.356
60,24 Dec 2019 18:32:29.853,24 Dec 2019 18:42:11.659,581.806
61,25 Dec 2019 08:02:53.038,25 Dec 2019 08:04:37.178,104.140
62,25 Dec 2019 09:34:13.623,25 Dec 2019 09:44:34.598,620.975
63,25 Dec 2019 11:10:52.112,25 Dec 2019 11:20:59.168,607.056
64,25 Dec 2019 12:49:20.732,25 Dec 2019 12:57:23.360,482.629
65,25 Dec 2019 14:27:15.578,25 Dec 2019 14:35:14.794,479.216
66,25 Dec 2019 16:03:41.402,25 Dec 2019 16:13:45.385,603.983
67,25 Dec 2019 17:40:04.055,25 Dec 2019 17:50:30.164,626.109
68,25 Dec 2019 19:19:21.480,25 Dec 2019 19:22:34.345,192.865
69,26 Dec 2019 08:42:34.663,26 Dec 2019 08:52:06.540,571.878
70,26 Dec 2019 10:18:19.636,26 Dec 2019 10:28:51.236,631.599
71,26 Dec 2019 11:56:27.605,26 Dec 2019 12:05:05.674,518.069
72,26 Dec 2019 13:34:48.039,26 Dec 2019 13:42:25.761,457.721
73,26 Dec 2019 15:11:33.353,26 Dec 2019 15:21:01.245,567.892
74,26 Dec 2019 16:47:47.154,26 Dec 2019 16:58:28.887,641.733
75,26 Dec 2019 18:25:20.590,26 Dec 2019 18:32:46.326,445.736
76,27 Dec 2019 07:51:22.536,27 Dec 2019 07:59:18.989,476.453
77,27 Dec 2019 09:25:59.108,27 Dec 2019 09:36:40.251,641.143
78,27 Dec 2019 11:03:35.238,27 Dec 2019 11:12:53.285,558.047
79,27 Dec 2019 12:42:09.347,27 Dec 2019 12:49:44.501,455.154
80,27 Dec 2019 14:19:21.974,27 Dec 2019 14:28:09.613,527.639
81,27 Dec 2019 15:55:35.180,27 Dec 2019 16:06:11.278,636.097
82,27 Dec 2019 17:32:26.258,27 Dec 2019 17:41:42.304,556.046
83,28 Dec 2019 07:01:04.786,28 Dec 2019 07:05:43.816,279.030
84,28 Dec 2019 08:33:52.888,28 Dec 2019 08:44:23.618,630.730
85,28 Dec 2019 10:10:48.012,28 Dec 2019 10:20:43.416,595.403
86,28 Dec 2019 11:49:20.707,28 Dec 2019 11:57:12.969,472.262
87,28 Dec 2019 13:27:04.568,28 Dec 2019 13:35:14.643,490.075
88,28 Dec 2019 15:03:25.394,28 Dec 2019 15:13:39.738,614.345
89,28 Dec 2019 16:39:53.265,28 Dec 2019 16:50:06.874,613.609
90,29 Dec 2019 07:42:04.112,29 Dec 2019 07:51:57.717,593.604
91,29 Dec 2019 09:18:09.327,29 Dec 2019 09:28:33.600,624.273
92,29 Dec 2019 10:56:25.980,29 Dec 2019 11:04:50.284,504.304
93,29 Dec 2019 12:34:38.282,29 Dec 2019 12:42:21.325,463.043
94,29 Dec 2019 14:11:15.488,29 Dec 2019 14:20:56.605,581.118
95,29 Dec 2019 15:47:31.288,29 Dec 2019 15:58:09.756,638.468
96,29 Dec 2019 17:25:28.809,29 Dec 2019 17:31:52.109,383.300
97,30 Dec 2019 06:50:38.594,30 Dec 2019 06:59:16.141,517.547
98,30 Dec 2019 08:25:41.790,30 Dec 2019 08:36:21.550,639.760
99,30 Dec 2019 10:03:30.246,30 Dec 2019 10:12:33.924,543.678
100,30 Dec 2019 11:42:01.066,30 Dec 2019 11:49:34.474,453.409
101,30 Dec 2019 13:19:03.135,30 Dec 2019 13:28:04.735,541.600
102,30 Dec 2019 14:55:15.458,30 Dec 2019 15:05:55.219,639.761
103,30 Dec 2019 16:32:18.478,30 Dec 2019 16:41:02.651,524.173
104,31 Dec 2019 05:59:52.296,31 Dec 2019 06:06:02.326,370.030
105,31 Dec 2019 07:33:27.729,31 Dec 2019 07:44:04.825,637.096
106,31 Dec 2019 09:10:38.220,31 Dec 2019 09:20:21.050,582.831
107,31 Dec 2019 10:49:13.090,31 Dec 2019 10:56:57.028,463.938
108,31 Dec 2019 12:26:45.726,31 Dec 2019 12:35:07.928,502.202
109,31 Dec 2019 14:03:02.718,31 Dec 2019 14:13:25.912,623.194
110,31 Dec 2019 15:39:37.140,31 Dec 2019 15:49:34.355,597.215
111,1 Jan 2020 06:41:29.879,1 Jan 2020 06:51:40.281,610.402
112,1 Jan 2020 08:17:53.669,1 Jan 2020 08:28:09.064,615.395
113,1 Jan 2020 09:56:17.411,1 Jan 2020 10:04:29.032,491.622
114,1 Jan 2020 11:34:20.393,1 Jan 2020 11:42:10.958,470.566
115,1 Jan 2020 13:10:50.659,1 Jan 2020 13:20:44.114,593.455
116,1 Jan 2020 14:47:09.503,1 Jan 2020 14:57:41.859,632.356
117,1 Jan 2020 16:25:41.124,1 Jan 2020 16:30:39.471,298.347
118,2 Jan 2020 05:49:52.763,2 Jan 2020 05:59:02.829,550.066
119,2 Jan 2020 07:25:19.449,2 Jan 2020 07:35:55.637,636.188
120,2 Jan 2020 09:03:18.900,2 Jan 2020 09:12:08.363,529.463
121,2 Jan 2020 10:41:44.637,2 Jan 2020 10:49:18.907,454.270
122,2 Jan 2020 12:18:36.985,2 Jan 2020 12:27:52.459,555.475
123,2 Jan 2020 13:54:49.449,2 Jan 2020 14:05:30.674,641.225
124,2 Jan 2020 15:32:07.227,2 Jan 2020 15:40:12.059,484.832
125,3 Jan 2020 04:58:46.936,3 Jan 2020 05:06:01.296,434.360
126,3 Jan 2020 06:32:57.912,3 Jan 2020 06:43:38.427,640.515
127,3 Jan 2020 08:10:22.562,3 Jan 2020 08:19:52.164,569.602
128,3 Jan 2020 09:48:57.687,3 Jan 2020 09:56:35.567,457.881
129,3 Jan 2020 11:26:19.200,3 Jan 2020 11:34:54.397,515.197
130,3 Jan 2020 13:02:33.463,3 Jan 2020 13:13:03.830,630.367
131,3 Jan 2020 14:39:15.910,3 Jan 2020 14:48:52.390,576.480
132,4 Jan 2020 04:09:08.167,4 Jan 2020 04:11:39.332,151.166
133,4 Jan 2020 05:40:51.571,4 Jan 2020 05:51:14.611,623.040
134,4 Jan 2020 07:17:32.519,4 Jan 2020 07:27:37.718,605.199
135,4 Jan 2020 08:56:01.652,4 Jan 2020 09:04:02.010,480.357
136,4 Jan 2020 10:33:54.474,4 Jan 2020 10:41:54.420,479.947
137,4 Jan 2020 12:10:18.963,4 Jan 2020 12:20:23.657,604.694
138,4 Jan 2020 13:46:41.925,4 Jan 2020 13:57:05.099,623.174
139,4 Jan 2020 15:26:14.281,4 Jan 2020 15:28:51.699,157.418
140,5 Jan 2020 04:49:04.090,5 Jan 2020 04:58:39.986,575.895
141,5 Jan 2020 06:24:51.916,5 Jan 2020 06:35:22.625,630.710
142,5 Jan 2020 08:03:00.989,5 Jan 2020 08:11:36.687,515.698
143,5 Jan 2020 09:41:20.038,5 Jan 2020 09:48:57.666,457.628
144,5 Jan 2020 11:18:03.663,5 Jan 2020 11:27:32.612,568.949
145,5 Jan 2020 12:54:17.246,5 Jan 2020 13:04:57.577,640.331
146,5 Jan 2020 14:31:53.595,5 Jan 2020 14:39:09.450,435.855
147,6 Jan 2020 03:57:43.005,6 Jan 2020 04:05:46.405,483.400
148,6 Jan 2020 05:32:23.248,6 Jan 2020 05:43:04.573,641.325
149,6 Jan 2020 07:10:00.842,6 Jan 2020 07:19:16.844,556.002
150,6 Jan 2020 08:48:34.353,6 Jan 2020 08:56:08.591,454.239
151,6 Jan 2020 10:25:45.130,6 Jan 2020 10:34:33.834,528.703
152,6 Jan 2020 12:01:57.709,6 Jan 2020 12:12:33.436,635.727
153,6 Jan 2020 13:38:49.920,6 Jan 2020 13:48:00.701,550.781

