vcc_sched/network/dec16-jan6/aer_vtgs_wj2xms_vcc-a_44428.csv

"Time (UTCG)","Azimuth (deg)","Elevation (deg)","Range (km)"
16 Dec 2019 17:24:15.319,317.004,-0.056,2326.344986
16 Dec 2019 17:24:16.000,317.095,-0.027,2323.172278
16 Dec 2019 17:24:17.000,317.230,0.015,2318.519628
16 Dec 2019 17:24:18.000,317.365,0.057,2313.877755
16 Dec 2019 17:24:19.000,317.501,0.098,2309.246725
16 Dec 2019 17:24:20.000,317.637,0.140,2304.626614
16 Dec 2019 17:24:21.000,317.774,0.182,2300.017488
16 Dec 2019 17:24:22.000,317.911,0.224,2295.419423
16 Dec 2019 17:24:23.000,318.049,0.265,2290.832486
16 Dec 2019 17:24:24.000,318.187,0.307,2286.256755
16 Dec 2019 17:24:25.000,318.326,0.349,2281.692297
16 Dec 2019 17:24:26.000,318.466,0.391,2277.139190
16 Dec 2019 17:24:27.000,318.606,0.432,2272.597503
16 Dec 2019 17:24:28.000,318.746,0.474,2268.067315
16 Dec 2019 17:24:29.000,318.887,0.516,2263.548694
16 Dec 2019 17:24:30.000,319.029,0.557,2259.041720
16 Dec 2019 17:24:31.000,319.171,0.599,2254.546464
16 Dec 2019 17:24:32.000,319.314,0.640,2250.063005
16 Dec 2019 17:24:33.000,319.457,0.682,2245.591415
16 Dec 2019 17:24:34.000,319.601,0.723,2241.131775
16 Dec 2019 17:24:35.000,319.745,0.765,2236.684156
16 Dec 2019 17:24:36.000,319.890,0.806,2232.248640
16 Dec 2019 17:24:37.000,320.036,0.848,2227.825300
16 Dec 2019 17:24:38.000,320.182,0.889,2223.414218
16 Dec 2019 17:24:39.000,320.329,0.931,2219.015468
16 Dec 2019 17:24:40.000,320.476,0.972,2214.629133
16 Dec 2019 17:24:41.000,320.624,1.013,2210.255287
16 Dec 2019 17:24:42.000,320.772,1.054,2205.894014
16 Dec 2019 17:24:43.000,320.921,1.096,2201.545390
16 Dec 2019 17:24:44.000,321.071,1.137,2197.209499
16 Dec 2019 17:24:45.000,321.221,1.178,2192.886416
16 Dec 2019 17:24:46.000,321.371,1.219,2188.576228
16 Dec 2019 17:24:47.000,321.523,1.260,2184.279014
16 Dec 2019 17:24:48.000,321.675,1.301,2179.994852
16 Dec 2019 17:24:49.000,321.827,1.342,2175.723829
16 Dec 2019 17:24:50.000,321.980,1.383,2171.466024
16 Dec 2019 17:24:51.000,322.134,1.424,2167.221523
16 Dec 2019 17:24:52.000,322.288,1.465,2162.990406
16 Dec 2019 17:24:53.000,322.443,1.506,2158.772759
16 Dec 2019 17:24:54.000,322.598,1.547,2154.568666
16 Dec 2019 17:24:55.000,322.755,1.588,2150.378208
16 Dec 2019 17:24:56.000,322.911,1.628,2146.201474
16 Dec 2019 17:24:57.000,323.068,1.669,2142.038545
16 Dec 2019 17:24:58.000,323.226,1.710,2137.889511
16 Dec 2019 17:24:59.000,323.385,1.750,2133.754455
16 Dec 2019 17:25:00.000,323.544,1.791,2129.633461
16 Dec 2019 17:25:01.000,323.704,1.831,2125.526621
16 Dec 2019 17:25:02.000,323.864,1.872,2121.434018
16 Dec 2019 17:25:03.000,324.025,1.912,2117.355739
16 Dec 2019 17:25:04.000,324.186,1.952,2113.291874
16 Dec 2019 17:25:05.000,324.348,1.992,2109.242508
16 Dec 2019 17:25:06.000,324.511,2.033,2105.207734
16 Dec 2019 17:25:07.000,324.675,2.073,2101.187637
16 Dec 2019 17:25:08.000,324.839,2.113,2097.182305
16 Dec 2019 17:25:09.000,325.003,2.153,2093.191832
16 Dec 2019 17:25:10.000,325.168,2.193,2089.216304
16 Dec 2019 17:25:11.000,325.334,2.233,2085.255810
16 Dec 2019 17:25:12.000,325.501,2.272,2081.310445
16 Dec 2019 17:25:13.000,325.668,2.312,2077.380297
16 Dec 2019 17:25:14.000,325.836,2.352,2073.465457
16 Dec 2019 17:25:15.000,326.004,2.391,2069.566014
16 Dec 2019 17:25:16.000,326.173,2.431,2065.682065
16 Dec 2019 17:25:17.000,326.343,2.470,2061.813699
16 Dec 2019 17:25:18.000,326.513,2.510,2057.961007
16 Dec 2019 17:25:19.000,326.684,2.549,2054.124085
16 Dec 2019 17:25:20.000,326.855,2.588,2050.303023
16 Dec 2019 17:25:21.000,327.027,2.627,2046.497917
16 Dec 2019 17:25:22.000,327.200,2.666,2042.708856
16 Dec 2019 17:25:23.000,327.374,2.705,2038.935939
16 Dec 2019 17:25:24.000,327.548,2.744,2035.179257
16 Dec 2019 17:25:25.000,327.723,2.783,2031.438904
16 Dec 2019 17:25:26.000,327.898,2.822,2027.714978
16 Dec 2019 17:25:27.000,328.074,2.860,2024.007572
16 Dec 2019 17:25:28.000,328.251,2.899,2020.316781
16 Dec 2019 17:25:29.000,328.428,2.937,2016.642700
16 Dec 2019 17:25:30.000,328.606,2.975,2012.985424
16 Dec 2019 17:25:31.000,328.784,3.014,2009.345051
16 Dec 2019 17:25:32.000,328.964,3.052,2005.721678
16 Dec 2019 17:25:33.000,329.144,3.090,2002.115399
16 Dec 2019 17:25:34.000,329.324,3.128,1998.526310
16 Dec 2019 17:25:35.000,329.505,3.166,1994.954511
16 Dec 2019 17:25:36.000,329.687,3.203,1991.400098
16 Dec 2019 17:25:37.000,329.870,3.241,1987.863168
16 Dec 2019 17:25:38.000,330.053,3.278,1984.343818
16 Dec 2019 17:25:39.000,330.237,3.316,1980.842147
16 Dec 2019 17:25:40.000,330.421,3.353,1977.358250
16 Dec 2019 17:25:41.000,330.606,3.390,1973.892229
16 Dec 2019 17:25:42.000,330.792,3.427,1970.444181
16 Dec 2019 17:25:43.000,330.978,3.464,1967.014205
16 Dec 2019 17:25:44.000,331.165,3.501,1963.602398
16 Dec 2019 17:25:45.000,331.353,3.538,1960.208860
16 Dec 2019 17:25:46.000,331.541,3.574,1956.833689
16 Dec 2019 17:25:47.000,331.730,3.611,1953.476983
16 Dec 2019 17:25:48.000,331.920,3.647,1950.138845
16 Dec 2019 17:25:49.000,332.110,3.683,1946.819373
16 Dec 2019 17:25:50.000,332.301,3.719,1943.518665
16 Dec 2019 17:25:51.000,332.493,3.755,1940.236821
16 Dec 2019 17:25:52.000,332.685,3.791,1936.973941
16 Dec 2019 17:25:53.000,332.878,3.827,1933.730125
16 Dec 2019 17:25:54.000,333.072,3.862,1930.505472
16 Dec 2019 17:25:55.000,333.266,3.897,1927.300083
16 Dec 2019 17:25:56.000,333.461,3.933,1924.114058
16 Dec 2019 17:25:57.000,333.656,3.968,1920.947495
16 Dec 2019 17:25:58.000,333.852,4.003,1917.800495
16 Dec 2019 17:25:59.000,334.049,4.038,1914.673160
16 Dec 2019 17:26:00.000,334.247,4.072,1911.565588
16 Dec 2019 17:26:01.000,334.445,4.107,1908.477880
16 Dec 2019 17:26:02.000,334.643,4.141,1905.410137
16 Dec 2019 17:26:03.000,334.843,4.175,1902.362457
16 Dec 2019 17:26:04.000,335.043,4.209,1899.334941
16 Dec 2019 17:26:05.000,335.244,4.243,1896.327690
16 Dec 2019 17:26:06.000,335.445,4.277,1893.340803
16 Dec 2019 17:26:07.000,335.647,4.310,1890.374380
16 Dec 2019 17:26:08.000,335.849,4.344,1887.428521
16 Dec 2019 17:26:09.000,336.053,4.377,1884.503326
16 Dec 2019 17:26:10.000,336.256,4.410,1881.598895
16 Dec 2019 17:26:11.000,336.461,4.443,1878.715327
16 Dec 2019 17:26:12.000,336.666,4.475,1875.852722
16 Dec 2019 17:26:13.000,336.872,4.508,1873.011180
16 Dec 2019 17:26:14.000,337.078,4.540,1870.190800
16 Dec 2019 17:26:15.000,337.285,4.572,1867.391680
16 Dec 2019 17:26:16.000,337.493,4.604,1864.613919
16 Dec 2019 17:26:17.000,337.701,4.636,1861.857617
16 Dec 2019 17:26:18.000,337.910,4.667,1859.122872
16 Dec 2019 17:26:19.000,338.120,4.699,1856.409783
16 Dec 2019 17:26:20.000,338.330,4.730,1853.718447
16 Dec 2019 17:26:21.000,338.541,4.761,1851.048963
16 Dec 2019 17:26:22.000,338.752,4.792,1848.401429
16 Dec 2019 17:26:23.000,338.964,4.822,1845.775942
16 Dec 2019 17:26:24.000,339.177,4.853,1843.172600
16 Dec 2019 17:26:25.000,339.390,4.883,1840.591498
16 Dec 2019 17:26:26.000,339.604,4.913,1838.032734
16 Dec 2019 17:26:27.000,339.818,4.942,1835.496405
16 Dec 2019 17:26:28.000,340.033,4.972,1832.982605
16 Dec 2019 17:26:29.000,340.249,5.001,1830.491432
16 Dec 2019 17:26:30.000,340.465,5.030,1828.022981
16 Dec 2019 17:26:31.000,340.682,5.059,1825.577347
16 Dec 2019 17:26:32.000,340.899,5.088,1823.154623
16 Dec 2019 17:26:33.000,341.117,5.116,1820.754904
16 Dec 2019 17:26:34.000,341.336,5.145,1818.378284
16 Dec 2019 17:26:35.000,341.555,5.173,1816.024858
16 Dec 2019 17:26:36.000,341.775,5.200,1813.694718
16 Dec 2019 17:26:37.000,341.995,5.228,1811.387955
16 Dec 2019 17:26:38.000,342.216,5.255,1809.104662
16 Dec 2019 17:26:39.000,342.437,5.282,1806.844932
16 Dec 2019 17:26:40.000,342.659,5.309,1804.608855
16 Dec 2019 17:26:41.000,342.882,5.336,1802.396522
16 Dec 2019 17:26:42.000,343.105,5.362,1800.208022
16 Dec 2019 17:26:43.000,343.328,5.388,1798.043445
16 Dec 2019 17:26:44.000,343.553,5.414,1795.902882
16 Dec 2019 17:26:45.000,343.777,5.439,1793.786418
16 Dec 2019 17:26:46.000,344.003,5.465,1791.694144
16 Dec 2019 17:26:47.000,344.228,5.490,1789.626146
16 Dec 2019 17:26:48.000,344.455,5.514,1787.582509
16 Dec 2019 17:26:49.000,344.682,5.539,1785.563322
16 Dec 2019 17:26:50.000,344.909,5.563,1783.568669
16 Dec 2019 17:26:51.000,345.137,5.587,1781.598634
16 Dec 2019 17:26:52.000,345.365,5.611,1779.653302
16 Dec 2019 17:26:53.000,345.594,5.635,1777.732756
16 Dec 2019 17:26:54.000,345.824,5.658,1775.837079
16 Dec 2019 17:26:55.000,346.054,5.681,1773.966352
16 Dec 2019 17:26:56.000,346.284,5.703,1772.120658
16 Dec 2019 17:26:57.000,346.515,5.726,1770.300075
16 Dec 2019 17:26:58.000,346.746,5.748,1768.504684
16 Dec 2019 17:26:59.000,346.978,5.770,1766.734565
16 Dec 2019 17:27:00.000,347.211,5.791,1764.989794
16 Dec 2019 17:27:01.000,347.443,5.812,1763.270450
16 Dec 2019 17:27:02.000,347.677,5.833,1761.576608
16 Dec 2019 17:27:03.000,347.910,5.854,1759.908344
16 Dec 2019 17:27:04.000,348.145,5.874,1758.265733
16 Dec 2019 17:27:05.000,348.379,5.895,1756.648849
16 Dec 2019 17:27:06.000,348.614,5.914,1755.057766
16 Dec 2019 17:27:07.000,348.850,5.934,1753.492553
16 Dec 2019 17:27:08.000,349.086,5.953,1751.953285
16 Dec 2019 17:27:09.000,349.322,5.972,1750.440029
16 Dec 2019 17:27:10.000,349.559,5.990,1748.952856
16 Dec 2019 17:27:11.000,349.796,6.009,1747.491834
16 Dec 2019 17:27:12.000,350.033,6.027,1746.057030
16 Dec 2019 17:27:13.000,350.271,6.044,1744.648511
16 Dec 2019 17:27:14.000,350.510,6.062,1743.266342
16 Dec 2019 17:27:15.000,350.749,6.079,1741.910587
16 Dec 2019 17:27:16.000,350.988,6.096,1740.581310
16 Dec 2019 17:27:17.000,351.227,6.112,1739.278573
16 Dec 2019 17:27:18.000,351.467,6.128,1738.002436
16 Dec 2019 17:27:19.000,351.707,6.144,1736.752962
16 Dec 2019 17:27:20.000,351.948,6.159,1735.530207
16 Dec 2019 17:27:21.000,352.189,6.174,1734.334230
16 Dec 2019 17:27:22.000,352.430,6.189,1733.165089
16 Dec 2019 17:27:23.000,352.672,6.204,1732.022839
16 Dec 2019 17:27:24.000,352.913,6.218,1730.907534
16 Dec 2019 17:27:25.000,353.156,6.232,1729.819227
16 Dec 2019 17:27:26.000,353.398,6.245,1728.757972
16 Dec 2019 17:27:27.000,353.641,6.258,1727.723819
16 Dec 2019 17:27:28.000,353.884,6.271,1726.716817
16 Dec 2019 17:27:29.000,354.128,6.284,1725.737017
16 Dec 2019 17:27:30.000,354.371,6.296,1724.784465
16 Dec 2019 17:27:31.000,354.615,6.307,1723.859207
16 Dec 2019 17:27:32.000,354.859,6.319,1722.961290
16 Dec 2019 17:27:33.000,355.104,6.330,1722.090756
16 Dec 2019 17:27:34.000,355.349,6.341,1721.247647
16 Dec 2019 17:27:35.000,355.594,6.351,1720.432006
16 Dec 2019 17:27:36.000,355.839,6.361,1719.643873
16 Dec 2019 17:27:37.000,356.084,6.371,1718.883286
16 Dec 2019 17:27:38.000,356.330,6.381,1718.150282
16 Dec 2019 17:27:39.000,356.576,6.390,1717.444899
16 Dec 2019 17:27:40.000,356.822,6.398,1716.767170
16 Dec 2019 17:27:41.000,357.068,6.407,1716.117129
16 Dec 2019 17:27:42.000,357.315,6.415,1715.494809
16 Dec 2019 17:27:43.000,357.561,6.422,1714.900241
16 Dec 2019 17:27:44.000,357.808,6.430,1714.333454
16 Dec 2019 17:27:45.000,358.055,6.437,1713.794476
16 Dec 2019 17:27:46.000,358.302,6.443,1713.283334
16 Dec 2019 17:27:47.000,358.550,6.449,1712.800054
16 Dec 2019 17:27:48.000,358.797,6.455,1712.344660
16 Dec 2019 17:27:49.000,359.045,6.461,1711.917175
16 Dec 2019 17:27:50.000,359.292,6.466,1711.517620
16 Dec 2019 17:27:51.000,359.540,6.471,1711.146016
16 Dec 2019 17:27:52.000,359.788,6.475,1710.802380
16 Dec 2019 17:27:53.000,0.036,6.479,1710.486731
16 Dec 2019 17:27:54.000,0.284,6.483,1710.199084
16 Dec 2019 17:27:55.000,0.532,6.487,1709.939453
16 Dec 2019 17:27:56.000,0.780,6.490,1709.707853
16 Dec 2019 17:27:57.000,1.029,6.492,1709.504293
16 Dec 2019 17:27:58.000,1.277,6.495,1709.328786
16 Dec 2019 17:27:59.000,1.525,6.497,1709.181339
16 Dec 2019 17:28:00.000,1.774,6.498,1709.061960
16 Dec 2019 17:28:01.000,2.022,6.499,1708.970655
16 Dec 2019 17:28:02.000,2.271,6.500,1708.907429
16 Dec 2019 17:28:03.000,2.519,6.501,1708.872285
16 Dec 2019 17:28:04.000,2.768,6.501,1708.865225
16 Dec 2019 17:28:05.000,3.017,6.501,1708.886249
16 Dec 2019 17:28:06.000,3.265,6.500,1708.935357
16 Dec 2019 17:28:07.000,3.514,6.499,1709.012545
16 Dec 2019 17:28:08.000,3.762,6.498,1709.117809
16 Dec 2019 17:28:09.000,4.010,6.496,1709.251146
16 Dec 2019 17:28:10.000,4.259,6.494,1709.412548
16 Dec 2019 17:28:11.000,4.507,6.492,1709.602006
16 Dec 2019 17:28:12.000,4.755,6.489,1709.819511
16 Dec 2019 17:28:13.000,5.004,6.486,1710.065053
16 Dec 2019 17:28:14.000,5.252,6.482,1710.338620
16 Dec 2019 17:28:15.000,5.500,6.479,1710.640196
16 Dec 2019 17:28:16.000,5.748,6.474,1710.969768
16 Dec 2019 17:28:17.000,5.996,6.470,1711.327319
16 Dec 2019 17:28:18.000,6.243,6.465,1711.712831
16 Dec 2019 17:28:19.000,6.491,6.460,1712.126284
16 Dec 2019 17:28:20.000,6.738,6.454,1712.567658
16 Dec 2019 17:28:21.000,6.986,6.448,1713.036931
16 Dec 2019 17:28:22.000,7.233,6.442,1713.534079
16 Dec 2019 17:28:23.000,7.480,6.435,1714.059078
16 Dec 2019 17:28:24.000,7.727,6.428,1714.611902
16 Dec 2019 17:28:25.000,7.974,6.421,1715.192523
16 Dec 2019 17:28:26.000,8.220,6.413,1715.800912
16 Dec 2019 17:28:27.000,8.467,6.405,1716.437038
16 Dec 2019 17:28:28.000,8.713,6.396,1717.100872
16 Dec 2019 17:28:29.000,8.959,6.388,1717.792379
16 Dec 2019 17:28:30.000,9.205,6.378,1718.511525
16 Dec 2019 17:28:31.000,9.450,6.369,1719.258276
16 Dec 2019 17:28:32.000,9.696,6.359,1720.032594
16 Dec 2019 17:28:33.000,9.941,6.349,1720.834441
16 Dec 2019 17:28:34.000,10.185,6.338,1721.663778
16 Dec 2019 17:28:35.000,10.430,6.328,1722.520563
16 Dec 2019 17:28:36.000,10.674,6.316,1723.404757
16 Dec 2019 17:28:37.000,10.919,6.305,1724.316315
16 Dec 2019 17:28:38.000,11.162,6.293,1725.255192
16 Dec 2019 17:28:39.000,11.406,6.281,1726.221345
16 Dec 2019 17:28:40.000,11.649,6.268,1727.214724
16 Dec 2019 17:28:41.000,11.892,6.255,1728.235283
16 Dec 2019 17:28:42.000,12.135,6.242,1729.282972
16 Dec 2019 17:28:43.000,12.377,6.228,1730.357741
16 Dec 2019 17:28:44.000,12.619,6.215,1731.459537
16 Dec 2019 17:28:45.000,12.861,6.200,1732.588309
16 Dec 2019 17:28:46.000,13.103,6.186,1733.744003
16 Dec 2019 17:28:47.000,13.344,6.171,1734.926562
16 Dec 2019 17:28:48.000,13.584,6.156,1736.135933
16 Dec 2019 17:28:49.000,13.825,6.140,1737.372055
16 Dec 2019 17:28:50.000,14.065,6.124,1738.634872
16 Dec 2019 17:28:51.000,14.305,6.108,1739.924324
16 Dec 2019 17:28:52.000,14.544,6.092,1741.240350
16 Dec 2019 17:28:53.000,14.783,6.075,1742.582889
16 Dec 2019 17:28:54.000,15.021,6.058,1743.951877
16 Dec 2019 17:28:55.000,15.259,6.040,1745.347252
16 Dec 2019 17:28:56.000,15.497,6.023,1746.768947
16 Dec 2019 17:28:57.000,15.735,6.005,1748.216899
16 Dec 2019 17:28:58.000,15.972,5.986,1749.691038
16 Dec 2019 17:28:59.000,16.208,5.968,1751.191300
16 Dec 2019 17:29:00.000,16.444,5.949,1752.717612
16 Dec 2019 17:29:01.000,16.680,5.929,1754.269909
16 Dec 2019 17:29:02.000,16.915,5.910,1755.848115
16 Dec 2019 17:29:03.000,17.150,5.890,1757.452164
16 Dec 2019 17:29:04.000,17.385,5.870,1759.081979
16 Dec 2019 17:29:05.000,17.619,5.849,1760.737489
16 Dec 2019 17:29:06.000,17.852,5.829,1762.418619
16 Dec 2019 17:29:07.000,18.085,5.808,1764.125294
16 Dec 2019 17:29:08.000,18.318,5.786,1765.857438
16 Dec 2019 17:29:09.000,18.550,5.765,1767.614974
16 Dec 2019 17:29:10.000,18.781,5.743,1769.397826
16 Dec 2019 17:29:11.000,19.013,5.721,1771.205912
16 Dec 2019 17:29:12.000,19.243,5.698,1773.039157
16 Dec 2019 17:29:13.000,19.473,5.676,1774.897478
16 Dec 2019 17:29:14.000,19.703,5.653,1776.780795
16 Dec 2019 17:29:15.000,19.932,5.629,1778.689028
16 Dec 2019 17:29:16.000,20.161,5.606,1780.622092
16 Dec 2019 17:29:17.000,20.389,5.582,1782.579905
16 Dec 2019 17:29:18.000,20.617,5.558,1784.562386
16 Dec 2019 17:29:19.000,20.844,5.534,1786.569447
16 Dec 2019 17:29:20.000,21.071,5.509,1788.601005
16 Dec 2019 17:29:21.000,21.297,5.484,1790.656974
16 Dec 2019 17:29:22.000,21.522,5.459,1792.737267
16 Dec 2019 17:29:23.000,21.747,5.434,1794.841798
16 Dec 2019 17:29:24.000,21.972,5.408,1796.970480
16 Dec 2019 17:29:25.000,22.196,5.382,1799.123223
16 Dec 2019 17:29:26.000,22.419,5.356,1801.299939
16 Dec 2019 17:29:27.000,22.642,5.330,1803.500541
16 Dec 2019 17:29:28.000,22.864,5.303,1805.724936
16 Dec 2019 17:29:29.000,23.086,5.276,1807.973035
16 Dec 2019 17:29:30.000,23.307,5.249,1810.244747
16 Dec 2019 17:29:31.000,23.528,5.222,1812.539982
16 Dec 2019 17:29:32.000,23.748,5.194,1814.858646
16 Dec 2019 17:29:33.000,23.967,5.167,1817.200648
16 Dec 2019 17:29:34.000,24.186,5.139,1819.565894
16 Dec 2019 17:29:35.000,24.404,5.110,1821.954293
16 Dec 2019 17:29:36.000,24.622,5.082,1824.365751
16 Dec 2019 17:29:37.000,24.839,5.053,1826.800172
16 Dec 2019 17:29:38.000,25.056,5.024,1829.257463
16 Dec 2019 17:29:39.000,25.271,4.995,1831.737528
16 Dec 2019 17:29:40.000,25.487,4.966,1834.240274
16 Dec 2019 17:29:41.000,25.702,4.936,1836.765603
16 Dec 2019 17:29:42.000,25.916,4.906,1839.313423
16 Dec 2019 17:29:43.000,26.129,4.876,1841.883633
16 Dec 2019 17:29:44.000,26.342,4.846,1844.476139
16 Dec 2019 17:29:45.000,26.554,4.816,1847.090844
16 Dec 2019 17:29:46.000,26.766,4.785,1849.727651
16 Dec 2019 17:29:47.000,26.977,4.754,1852.386463
16 Dec 2019 17:29:48.000,27.188,4.723,1855.067181
16 Dec 2019 17:29:49.000,27.397,4.692,1857.769710
16 Dec 2019 17:29:50.000,27.607,4.661,1860.493948
16 Dec 2019 17:29:51.000,27.815,4.629,1863.239799
16 Dec 2019 17:29:52.000,28.023,4.597,1866.007164
16 Dec 2019 17:29:53.000,28.231,4.565,1868.795945
16 Dec 2019 17:29:54.000,28.437,4.533,1871.606042
16 Dec 2019 17:29:55.000,28.643,4.501,1874.437357
16 Dec 2019 17:29:56.000,28.849,4.469,1877.289791
16 Dec 2019 17:29:57.000,29.054,4.436,1880.163243
16 Dec 2019 17:29:58.000,29.258,4.403,1883.057615
16 Dec 2019 17:29:59.000,29.461,4.370,1885.972807
16 Dec 2019 17:30:00.000,29.664,4.337,1888.908720
16 Dec 2019 17:30:01.000,29.867,4.303,1891.865253
16 Dec 2019 17:30:02.000,30.068,4.270,1894.842306
16 Dec 2019 17:30:03.000,30.269,4.236,1897.839781
16 Dec 2019 17:30:04.000,30.470,4.202,1900.857576
16 Dec 2019 17:30:05.000,30.669,4.168,1903.895593
16 Dec 2019 17:30:06.000,30.868,4.134,1906.953730
16 Dec 2019 17:30:07.000,31.067,4.100,1910.031887
16 Dec 2019 17:30:08.000,31.265,4.065,1913.129965
16 Dec 2019 17:30:09.000,31.462,4.031,1916.247864
16 Dec 2019 17:30:10.000,31.658,3.996,1919.385483
16 Dec 2019 17:30:11.000,31.854,3.961,1922.542722
16 Dec 2019 17:30:12.000,32.049,3.926,1925.719482
16 Dec 2019 17:30:13.000,32.244,3.890,1928.915661
16 Dec 2019 17:30:14.000,32.438,3.855,1932.131161
16 Dec 2019 17:30:15.000,32.631,3.820,1935.365881
16 Dec 2019 17:30:16.000,32.824,3.784,1938.619722
16 Dec 2019 17:30:17.000,33.015,3.748,1941.892583
16 Dec 2019 17:30:18.000,33.207,3.712,1945.184363
16 Dec 2019 17:30:19.000,33.397,3.676,1948.494966
16 Dec 2019 17:30:20.000,33.587,3.640,1951.824291
16 Dec 2019 17:30:21.000,33.777,3.604,1955.172239
16 Dec 2019 17:30:22.000,33.965,3.567,1958.538709
16 Dec 2019 17:30:23.000,34.153,3.531,1961.923604
16 Dec 2019 17:30:24.000,34.341,3.494,1965.326824
16 Dec 2019 17:30:25.000,34.527,3.457,1968.748269
16 Dec 2019 17:30:26.000,34.714,3.420,1972.187841
16 Dec 2019 17:30:27.000,34.899,3.383,1975.645443
16 Dec 2019 17:30:28.000,35.084,3.346,1979.120975
16 Dec 2019 17:30:29.000,35.268,3.309,1982.614340
16 Dec 2019 17:30:30.000,35.451,3.271,1986.125439
16 Dec 2019 17:30:31.000,35.634,3.234,1989.654174
16 Dec 2019 17:30:32.000,35.816,3.196,1993.200446
16 Dec 2019 17:30:33.000,35.998,3.158,1996.764161
16 Dec 2019 17:30:34.000,36.179,3.121,2000.345220
16 Dec 2019 17:30:35.000,36.359,3.083,2003.943526
16 Dec 2019 17:30:36.000,36.538,3.045,2007.558983
16 Dec 2019 17:30:37.000,36.717,3.006,2011.191490
16 Dec 2019 17:30:38.000,36.896,2.968,2014.840958
16 Dec 2019 17:30:39.000,37.073,2.930,2018.507286
16 Dec 2019 17:30:40.000,37.250,2.892,2022.190380
16 Dec 2019 17:30:41.000,37.427,2.853,2025.890143
16 Dec 2019 17:30:42.000,37.602,2.814,2029.606479
16 Dec 2019 17:30:43.000,37.777,2.776,2033.339296
16 Dec 2019 17:30:44.000,37.952,2.737,2037.088498
16 Dec 2019 17:30:45.000,38.125,2.698,2040.853990
16 Dec 2019 17:30:46.000,38.299,2.659,2044.635675
16 Dec 2019 17:30:47.000,38.471,2.620,2048.433464
16 Dec 2019 17:30:48.000,38.643,2.581,2052.247261
16 Dec 2019 17:30:49.000,38.814,2.542,2056.076973
16 Dec 2019 17:30:50.000,38.985,2.503,2059.922505
16 Dec 2019 17:30:51.000,39.155,2.463,2063.783767
16 Dec 2019 17:30:52.000,39.324,2.424,2067.660666
16 Dec 2019 17:30:53.000,39.493,2.384,2071.553106
16 Dec 2019 17:30:54.000,39.661,2.345,2075.461002
16 Dec 2019 17:30:55.000,39.828,2.305,2079.384258
16 Dec 2019 17:30:56.000,39.995,2.265,2083.322781
16 Dec 2019 17:30:57.000,40.161,2.226,2087.276485
16 Dec 2019 17:30:58.000,40.327,2.186,2091.245278
16 Dec 2019 17:30:59.000,40.491,2.146,2095.229068
16 Dec 2019 17:31:00.000,40.656,2.106,2099.227764
16 Dec 2019 17:31:01.000,40.819,2.066,2103.241281
16 Dec 2019 17:31:02.000,40.983,2.026,2107.269527
16 Dec 2019 17:31:03.000,41.145,1.986,2111.312411
16 Dec 2019 17:31:04.000,41.307,1.945,2115.369850
16 Dec 2019 17:31:05.000,41.468,1.905,2119.441749
16 Dec 2019 17:31:06.000,41.629,1.865,2123.528027
16 Dec 2019 17:31:07.000,41.789,1.824,2127.628594
16 Dec 2019 17:31:08.000,41.948,1.784,2131.743359
16 Dec 2019 17:31:09.000,42.107,1.743,2135.872242
16 Dec 2019 17:31:10.000,42.265,1.703,2140.015153
16 Dec 2019 17:31:11.000,42.422,1.662,2144.172004
16 Dec 2019 17:31:12.000,42.579,1.622,2148.342714
16 Dec 2019 17:31:13.000,42.736,1.581,2152.527193
16 Dec 2019 17:31:14.000,42.891,1.540,2156.725361
16 Dec 2019 17:31:15.000,43.046,1.499,2160.937130
16 Dec 2019 17:31:16.000,43.201,1.458,2165.162416
16 Dec 2019 17:31:17.000,43.355,1.418,2169.401138
16 Dec 2019 17:31:18.000,43.508,1.377,2173.653208
16 Dec 2019 17:31:19.000,43.661,1.336,2177.918548
16 Dec 2019 17:31:20.000,43.813,1.295,2182.197074
16 Dec 2019 17:31:21.000,43.965,1.254,2186.488699
16 Dec 2019 17:31:22.000,44.116,1.213,2190.793349
16 Dec 2019 17:31:23.000,44.266,1.171,2195.110935
16 Dec 2019 17:31:24.000,44.416,1.130,2199.441382
16 Dec 2019 17:31:25.000,44.565,1.089,2203.784605
16 Dec 2019 17:31:26.000,44.714,1.048,2208.140528
16 Dec 2019 17:31:27.000,44.862,1.007,2212.509065
16 Dec 2019 17:31:28.000,45.010,0.965,2216.890143
16 Dec 2019 17:31:29.000,45.157,0.924,2221.283680
16 Dec 2019 17:31:30.000,45.303,0.883,2225.689595
16 Dec 2019 17:31:31.000,45.449,0.841,2230.107814
16 Dec 2019 17:31:32.000,45.594,0.800,2234.538254
16 Dec 2019 17:31:33.000,45.739,0.758,2238.980842
16 Dec 2019 17:31:34.000,45.883,0.717,2243.435498
16 Dec 2019 17:31:35.000,46.026,0.675,2247.902148
16 Dec 2019 17:31:36.000,46.169,0.634,2252.380711
16 Dec 2019 17:31:37.000,46.312,0.592,2256.871117
16 Dec 2019 17:31:38.000,46.454,0.551,2261.373284
16 Dec 2019 17:31:39.000,46.595,0.509,2265.887143
16 Dec 2019 17:31:40.000,46.736,0.468,2270.412613
16 Dec 2019 17:31:41.000,46.876,0.426,2274.949626
16 Dec 2019 17:31:42.000,47.016,0.384,2279.498102
16 Dec 2019 17:31:43.000,47.155,0.343,2284.057973
16 Dec 2019 17:31:44.000,47.293,0.301,2288.629160
16 Dec 2019 17:31:45.000,47.431,0.259,2293.211595
16 Dec 2019 17:31:46.000,47.569,0.217,2297.805202
16 Dec 2019 17:31:47.000,47.706,0.176,2302.409912
16 Dec 2019 17:31:48.000,47.842,0.134,2307.025649
16 Dec 2019 17:31:49.000,47.978,0.092,2311.652345
16 Dec 2019 17:31:50.000,48.114,0.050,2316.289931
16 Dec 2019 17:31:51.000,48.249,0.009,2320.938332
16 Dec 2019 17:31:52.000,48.383,-0.033,2325.597482
16 Dec 2019 17:31:52.533,48.454,-0.056,2328.086601
16 Dec 2019 19:01:05.831,321.928,-0.055,2328.201949
16 Dec 2019 19:01:06.000,321.944,-0.047,2327.214857
16 Dec 2019 19:01:07.000,322.041,0.006,2321.360589
16 Dec 2019 19:01:08.000,322.138,0.059,2315.511778
16 Dec 2019 19:01:09.000,322.236,0.111,2309.668471
16 Dec 2019 19:01:10.000,322.335,0.164,2303.830719
16 Dec 2019 19:01:11.000,322.433,0.217,2297.998567
16 Dec 2019 19:01:12.000,322.532,0.270,2292.172068
16 Dec 2019 19:01:13.000,322.632,0.323,2286.351270
16 Dec 2019 19:01:14.000,322.732,0.376,2280.536226
16 Dec 2019 19:01:15.000,322.833,0.429,2274.726986
16 Dec 2019 19:01:16.000,322.934,0.482,2268.923601
16 Dec 2019 19:01:17.000,323.036,0.535,2263.126124
16 Dec 2019 19:01:18.000,323.138,0.589,2257.334607
16 Dec 2019 19:01:19.000,323.241,0.642,2251.549104
16 Dec 2019 19:01:20.000,323.344,0.696,2245.769666
16 Dec 2019 19:01:21.000,323.448,0.750,2239.996349
16 Dec 2019 19:01:22.000,323.552,0.803,2234.229207
16 Dec 2019 19:01:23.000,323.657,0.857,2228.468294
16 Dec 2019 19:01:24.000,323.762,0.911,2222.713666
16 Dec 2019 19:01:25.000,323.868,0.965,2216.965382
16 Dec 2019 19:01:26.000,323.975,1.019,2211.223492
16 Dec 2019 19:01:27.000,324.081,1.074,2205.488056
16 Dec 2019 19:01:28.000,324.189,1.128,2199.759132
16 Dec 2019 19:01:29.000,324.297,1.182,2194.036777
16 Dec 2019 19:01:30.000,324.405,1.237,2188.321049
16 Dec 2019 19:01:31.000,324.515,1.291,2182.612009
16 Dec 2019 19:01:32.000,324.624,1.346,2176.909714
16 Dec 2019 19:01:33.000,324.735,1.401,2171.214226
16 Dec 2019 19:01:34.000,324.845,1.455,2165.525604
16 Dec 2019 19:01:35.000,324.957,1.510,2159.843910
16 Dec 2019 19:01:36.000,325.069,1.565,2154.169207
16 Dec 2019 19:01:37.000,325.181,1.620,2148.501554
16 Dec 2019 19:01:38.000,325.294,1.676,2142.841016
16 Dec 2019 19:01:39.000,325.408,1.731,2137.187655
16 Dec 2019 19:01:40.000,325.522,1.786,2131.541536
16 Dec 2019 19:01:41.000,325.637,1.842,2125.902723
16 Dec 2019 19:01:42.000,325.753,1.897,2120.271281
16 Dec 2019 19:01:43.000,325.869,1.953,2114.647277
16 Dec 2019 19:01:44.000,325.985,2.009,2109.030775
16 Dec 2019 19:01:45.000,326.103,2.064,2103.421846
16 Dec 2019 19:01:46.000,326.221,2.120,2097.820552
16 Dec 2019 19:01:47.000,326.339,2.176,2092.226964
16 Dec 2019 19:01:48.000,326.458,2.232,2086.641150
16 Dec 2019 19:01:49.000,326.578,2.288,2081.063180
16 Dec 2019 19:01:50.000,326.699,2.345,2075.493123
16 Dec 2019 19:01:51.000,326.820,2.401,2069.931051
16 Dec 2019 19:01:52.000,326.941,2.457,2064.377036
16 Dec 2019 19:01:53.000,327.064,2.514,2058.831147
16 Dec 2019 19:01:54.000,327.187,2.570,2053.293458
16 Dec 2019 19:01:55.000,327.310,2.627,2047.764042
16 Dec 2019 19:01:56.000,327.435,2.684,2042.242972
16 Dec 2019 19:01:57.000,327.560,2.741,2036.730325
16 Dec 2019 19:01:58.000,327.685,2.798,2031.226176
16 Dec 2019 19:01:59.000,327.812,2.855,2025.730598
16 Dec 2019 19:02:00.000,327.939,2.912,2020.243670
16 Dec 2019 19:02:01.000,328.067,2.969,2014.765468
16 Dec 2019 19:02:02.000,328.195,3.026,2009.296070
16 Dec 2019 19:02:03.000,328.324,3.084,2003.835556
16 Dec 2019 19:02:04.000,328.454,3.141,1998.384007
16 Dec 2019 19:02:05.000,328.584,3.199,1992.941499
16 Dec 2019 19:02:06.000,328.716,3.256,1987.508114
16 Dec 2019 19:02:07.000,328.847,3.314,1982.083935
16 Dec 2019 19:02:08.000,328.980,3.372,1976.669044
16 Dec 2019 19:02:09.000,329.113,3.430,1971.263523
16 Dec 2019 19:02:10.000,329.248,3.488,1965.867459
16 Dec 2019 19:02:11.000,329.382,3.546,1960.480932
16 Dec 2019 19:02:12.000,329.518,3.604,1955.104030
16 Dec 2019 19:02:13.000,329.654,3.662,1949.736839
16 Dec 2019 19:02:14.000,329.791,3.721,1944.379448
16 Dec 2019 19:02:15.000,329.929,3.779,1939.031940
16 Dec 2019 19:02:16.000,330.068,3.838,1933.694405
16 Dec 2019 19:02:17.000,330.207,3.896,1928.366934
16 Dec 2019 19:02:18.000,330.347,3.955,1923.049617
16 Dec 2019 19:02:19.000,330.488,4.014,1917.742545
16 Dec 2019 19:02:20.000,330.630,4.073,1912.445807
16 Dec 2019 19:02:21.000,330.772,4.131,1907.159498
16 Dec 2019 19:02:22.000,330.916,4.190,1901.883711
16 Dec 2019 19:02:23.000,331.060,4.250,1896.618542
16 Dec 2019 19:02:24.000,331.204,4.309,1891.364082
16 Dec 2019 19:02:25.000,331.350,4.368,1886.120429
16 Dec 2019 19:02:26.000,331.497,4.427,1880.887680
16 Dec 2019 19:02:27.000,331.644,4.487,1875.665933
16 Dec 2019 19:02:28.000,331.792,4.546,1870.455286
16 Dec 2019 19:02:29.000,331.941,4.606,1865.255837
16 Dec 2019 19:02:30.000,332.091,4.665,1860.067688
16 Dec 2019 19:02:31.000,332.242,4.725,1854.890941
16 Dec 2019 19:02:32.000,332.393,4.785,1849.725695
16 Dec 2019 19:02:33.000,332.545,4.845,1844.572054
16 Dec 2019 19:02:34.000,332.699,4.905,1839.430123
16 Dec 2019 19:02:35.000,332.853,4.965,1834.300008
16 Dec 2019 19:02:36.000,333.008,5.025,1829.181811
16 Dec 2019 19:02:37.000,333.163,5.085,1824.075640
16 Dec 2019 19:02:38.000,333.320,5.145,1818.981604
16 Dec 2019 19:02:39.000,333.478,5.205,1813.899810
16 Dec 2019 19:02:40.000,333.636,5.266,1808.830367
16 Dec 2019 19:02:41.000,333.796,5.326,1803.773387
16 Dec 2019 19:02:42.000,333.956,5.387,1798.728979
16 Dec 2019 19:02:43.000,334.117,5.447,1793.697257
16 Dec 2019 19:02:44.000,334.279,5.508,1788.678335
16 Dec 2019 19:02:45.000,334.442,5.569,1783.672324
16 Dec 2019 19:02:46.000,334.606,5.629,1778.679341
16 Dec 2019 19:02:47.000,334.771,5.690,1773.699504
16 Dec 2019 19:02:48.000,334.937,5.751,1768.732927
16 Dec 2019 19:02:49.000,335.104,5.812,1763.779729
16 Dec 2019 19:02:50.000,335.272,5.873,1758.840031
16 Dec 2019 19:02:51.000,335.441,5.934,1753.913949
16 Dec 2019 19:02:52.000,335.610,5.995,1749.001608
16 Dec 2019 19:02:53.000,335.781,6.056,1744.103130
16 Dec 2019 19:02:54.000,335.953,6.117,1739.218635
16 Dec 2019 19:02:55.000,336.125,6.179,1734.348249
16 Dec 2019 19:02:56.000,336.299,6.240,1729.492099
16 Dec 2019 19:02:57.000,336.474,6.301,1724.650308
16 Dec 2019 19:02:58.000,336.649,6.363,1719.823005
16 Dec 2019 19:02:59.000,336.826,6.424,1715.010317
16 Dec 2019 19:03:00.000,337.003,6.485,1710.212375
16 Dec 2019 19:03:01.000,337.182,6.547,1705.429309
16 Dec 2019 19:03:02.000,337.362,6.609,1700.661248
16 Dec 2019 19:03:03.000,337.543,6.670,1695.908329
16 Dec 2019 19:03:04.000,337.724,6.732,1691.170680
16 Dec 2019 19:03:05.000,337.907,6.793,1686.448439
16 Dec 2019 19:03:06.000,338.091,6.855,1681.741743
16 Dec 2019 19:03:07.000,338.276,6.917,1677.050724
16 Dec 2019 19:03:08.000,338.462,6.978,1672.375524
16 Dec 2019 19:03:09.000,338.649,7.040,1667.716279
16 Dec 2019 19:03:10.000,338.837,7.102,1663.073131
16 Dec 2019 19:03:11.000,339.027,7.164,1658.446219
16 Dec 2019 19:03:12.000,339.217,7.226,1653.835685
16 Dec 2019 19:03:13.000,339.408,7.287,1649.241675
16 Dec 2019 19:03:14.000,339.601,7.349,1644.664329
16 Dec 2019 19:03:15.000,339.795,7.411,1640.103796
16 Dec 2019 19:03:16.000,339.989,7.473,1635.560219
16 Dec 2019 19:03:17.000,340.185,7.535,1631.033748
16 Dec 2019 19:03:18.000,340.382,7.597,1626.524528
16 Dec 2019 19:03:19.000,340.580,7.658,1622.032713
16 Dec 2019 19:03:20.000,340.780,7.720,1617.558449
16 Dec 2019 19:03:21.000,340.980,7.782,1613.101892
16 Dec 2019 19:03:22.000,341.181,7.844,1608.663190
16 Dec 2019 19:03:23.000,341.384,7.906,1604.242501
16 Dec 2019 19:03:24.000,341.588,7.968,1599.839977
16 Dec 2019 19:03:25.000,341.793,8.029,1595.455775
16 Dec 2019 19:03:26.000,341.999,8.091,1591.090053
16 Dec 2019 19:03:27.000,342.207,8.153,1586.742965
16 Dec 2019 19:03:28.000,342.415,8.215,1582.414674
16 Dec 2019 19:03:29.000,342.625,8.276,1578.105338
16 Dec 2019 19:03:30.000,342.836,8.338,1573.815120
16 Dec 2019 19:03:31.000,343.048,8.399,1569.544179
16 Dec 2019 19:03:32.000,343.261,8.461,1565.292681
16 Dec 2019 19:03:33.000,343.476,8.523,1561.060788
16 Dec 2019 19:03:34.000,343.692,8.584,1556.848667
16 Dec 2019 19:03:35.000,343.909,8.645,1552.656483
16 Dec 2019 19:03:36.000,344.127,8.707,1548.484403
16 Dec 2019 19:03:37.000,344.346,8.768,1544.332597
16 Dec 2019 19:03:38.000,344.567,8.829,1540.201231
16 Dec 2019 19:03:39.000,344.789,8.890,1536.090478
16 Dec 2019 19:03:40.000,345.012,8.952,1532.000508
16 Dec 2019 19:03:41.000,345.237,9.013,1527.931492
16 Dec 2019 19:03:42.000,345.462,9.073,1523.883604
16 Dec 2019 19:03:43.000,345.689,9.134,1519.857019
16 Dec 2019 19:03:44.000,345.917,9.195,1515.851908
16 Dec 2019 19:03:45.000,346.147,9.256,1511.868451
16 Dec 2019 19:03:46.000,346.377,9.316,1507.906823
16 Dec 2019 19:03:47.000,346.609,9.377,1503.967200
16 Dec 2019 19:03:48.000,346.843,9.437,1500.049763
16 Dec 2019 19:03:49.000,347.077,9.497,1496.154689
16 Dec 2019 19:03:50.000,347.313,9.557,1492.282158
16 Dec 2019 19:03:51.000,347.550,9.617,1488.432353
16 Dec 2019 19:03:52.000,347.789,9.677,1484.605453
16 Dec 2019 19:03:53.000,348.028,9.737,1480.801643
16 Dec 2019 19:03:54.000,348.269,9.797,1477.021103
16 Dec 2019 19:03:55.000,348.512,9.856,1473.264020
16 Dec 2019 19:03:56.000,348.755,9.915,1469.530578
16 Dec 2019 19:03:57.000,349.000,9.974,1465.820961
16 Dec 2019 19:03:58.000,349.246,10.033,1462.135355
16 Dec 2019 19:03:59.000,349.494,10.092,1458.473948
16 Dec 2019 19:04:00.000,349.743,10.151,1454.836927
16 Dec 2019 19:04:01.000,349.993,10.209,1451.224480
16 Dec 2019 19:04:02.000,350.245,10.267,1447.636795
16 Dec 2019 19:04:03.000,350.497,10.326,1444.074061
16 Dec 2019 19:04:04.000,350.751,10.383,1440.536469
16 Dec 2019 19:04:05.000,351.007,10.441,1437.024208
16 Dec 2019 19:04:06.000,351.264,10.499,1433.537468
16 Dec 2019 19:04:07.000,351.522,10.556,1430.076442
16 Dec 2019 19:04:08.000,351.781,10.613,1426.641320
16 Dec 2019 19:04:09.000,352.042,10.670,1423.232295
16 Dec 2019 19:04:10.000,352.304,10.726,1419.849558
16 Dec 2019 19:04:11.000,352.568,10.783,1416.493303
16 Dec 2019 19:04:12.000,352.832,10.839,1413.163723
16 Dec 2019 19:04:13.000,353.098,10.895,1409.861010
16 Dec 2019 19:04:14.000,353.366,10.950,1406.585359
16 Dec 2019 19:04:15.000,353.635,11.006,1403.336962
16 Dec 2019 19:04:16.000,353.905,11.061,1400.116014
16 Dec 2019 19:04:17.000,354.176,11.115,1396.922709
16 Dec 2019 19:04:18.000,354.449,11.170,1393.757241
16 Dec 2019 19:04:19.000,354.723,11.224,1390.619804
16 Dec 2019 19:04:20.000,354.998,11.278,1387.510592
16 Dec 2019 19:04:21.000,355.275,11.331,1384.429800
16 Dec 2019 19:04:22.000,355.553,11.385,1381.377621
16 Dec 2019 19:04:23.000,355.832,11.438,1378.354250
16 Dec 2019 19:04:24.000,356.113,11.490,1375.359881
16 Dec 2019 19:04:25.000,356.395,11.543,1372.394707
16 Dec 2019 19:04:26.000,356.678,11.595,1369.458921
16 Dec 2019 19:04:27.000,356.963,11.646,1366.552718
16 Dec 2019 19:04:28.000,357.248,11.697,1363.676289
16 Dec 2019 19:04:29.000,357.536,11.748,1360.829828
16 Dec 2019 19:04:30.000,357.824,11.799,1358.013527
16 Dec 2019 19:04:31.000,358.114,11.849,1355.227577
16 Dec 2019 19:04:32.000,358.405,11.898,1352.472169
16 Dec 2019 19:04:33.000,358.697,11.948,1349.747494
16 Dec 2019 19:04:34.000,358.991,11.997,1347.053743
16 Dec 2019 19:04:35.000,359.285,12.045,1344.391105
16 Dec 2019 19:04:36.000,359.581,12.093,1341.759768
16 Dec 2019 19:04:37.000,359.879,12.141,1339.159920
16 Dec 2019 19:04:38.000,0.177,12.188,1336.591749
16 Dec 2019 19:04:39.000,0.477,12.235,1334.055442
16 Dec 2019 19:04:40.000,0.778,12.281,1331.551182
16 Dec 2019 19:04:41.000,1.080,12.327,1329.079156
16 Dec 2019 19:04:42.000,1.384,12.372,1326.639545
16 Dec 2019 19:04:43.000,1.688,12.417,1324.232534
16 Dec 2019 19:04:44.000,1.994,12.462,1321.858303
16 Dec 2019 19:04:45.000,2.301,12.506,1319.517032
16 Dec 2019 19:04:46.000,2.609,12.549,1317.208900
16 Dec 2019 19:04:47.000,2.919,12.592,1314.934085
16 Dec 2019 19:04:48.000,3.229,12.634,1312.692763
16 Dec 2019 19:04:49.000,3.541,12.676,1310.485109
16 Dec 2019 19:04:50.000,3.854,12.717,1308.311297
16 Dec 2019 19:04:51.000,4.168,12.758,1306.171497
16 Dec 2019 19:04:52.000,4.483,12.798,1304.065882
16 Dec 2019 19:04:53.000,4.799,12.838,1301.994618
16 Dec 2019 19:04:54.000,5.116,12.877,1299.957874
16 Dec 2019 19:04:55.000,5.434,12.916,1297.955815
16 Dec 2019 19:04:56.000,5.754,12.954,1295.988604
16 Dec 2019 19:04:57.000,6.074,12.991,1294.056404
16 Dec 2019 19:04:58.000,6.395,13.028,1292.159372
16 Dec 2019 19:04:59.000,6.718,13.064,1290.297668
16 Dec 2019 19:05:00.000,7.041,13.100,1288.471448
16 Dec 2019 19:05:01.000,7.366,13.135,1286.680863
16 Dec 2019 19:05:02.000,7.691,13.169,1284.926068
16 Dec 2019 19:05:03.000,8.018,13.203,1283.207210
16 Dec 2019 19:05:04.000,8.345,13.236,1281.524436
16 Dec 2019 19:05:05.000,8.673,13.268,1279.877892
16 Dec 2019 19:05:06.000,9.002,13.300,1278.267719
16 Dec 2019 19:05:07.000,9.333,13.331,1276.694059
16 Dec 2019 19:05:08.000,9.663,13.362,1275.157047
16 Dec 2019 19:05:09.000,9.995,13.391,1273.656820
16 Dec 2019 19:05:10.000,10.328,13.420,1272.193508
16 Dec 2019 19:05:11.000,10.662,13.449,1270.767243
16 Dec 2019 19:05:12.000,10.996,13.477,1269.378151
16 Dec 2019 19:05:13.000,11.331,13.504,1268.026356
16 Dec 2019 19:05:14.000,11.667,13.530,1266.711980
16 Dec 2019 19:05:15.000,12.003,13.556,1265.435141
16 Dec 2019 19:05:16.000,12.341,13.580,1264.195955
16 Dec 2019 19:05:17.000,12.679,13.605,1262.994534
16 Dec 2019 19:05:18.000,13.018,13.628,1261.830989
16 Dec 2019 19:05:19.000,13.357,13.651,1260.705426
16 Dec 2019 19:05:20.000,13.697,13.673,1259.617949
16 Dec 2019 19:05:21.000,14.038,13.694,1258.568657
16 Dec 2019 19:05:22.000,14.379,13.714,1257.557649
16 Dec 2019 19:05:23.000,14.721,13.734,1256.585019
16 Dec 2019 19:05:24.000,15.064,13.753,1255.650856
16 Dec 2019 19:05:25.000,15.407,13.771,1254.755249
16 Dec 2019 19:05:26.000,15.751,13.788,1253.898282
16 Dec 2019 19:05:27.000,16.095,13.805,1253.080035
16 Dec 2019 19:05:28.000,16.439,13.821,1252.300585
16 Dec 2019 19:05:29.000,16.784,13.836,1251.560008
16 Dec 2019 19:05:30.000,17.130,13.850,1250.858373
16 Dec 2019 19:05:31.000,17.476,13.864,1250.195746
16 Dec 2019 19:05:32.000,17.822,13.876,1249.572191
16 Dec 2019 19:05:33.000,18.169,13.888,1248.987768
16 Dec 2019 19:05:34.000,18.516,13.900,1248.442533
16 Dec 2019 19:05:35.000,18.863,13.910,1247.936539
16 Dec 2019 19:05:36.000,19.211,13.919,1247.469833
16 Dec 2019 19:05:37.000,19.558,13.928,1247.042462
16 Dec 2019 19:05:38.000,19.907,13.936,1246.654466
16 Dec 2019 19:05:39.000,20.255,13.943,1246.305884
16 Dec 2019 19:05:40.000,20.604,13.949,1245.996749
16 Dec 2019 19:05:41.000,20.952,13.955,1245.727091
16 Dec 2019 19:05:42.000,21.301,13.959,1245.496937
16 Dec 2019 19:05:43.000,21.650,13.963,1245.306312
16 Dec 2019 19:05:44.000,21.999,13.966,1245.155230
16 Dec 2019 19:05:45.000,22.349,13.968,1245.043709
16 Dec 2019 19:05:46.000,22.698,13.970,1244.971759
16 Dec 2019 19:05:47.000,23.047,13.970,1244.939389
16 Dec 2019 19:05:48.000,23.397,13.970,1244.946601
16 Dec 2019 19:05:49.000,23.746,13.969,1244.993396
16 Dec 2019 19:05:50.000,24.095,13.967,1245.079769
16 Dec 2019 19:05:51.000,24.444,13.964,1245.205713
16 Dec 2019 19:05:52.000,24.794,13.961,1245.371215
16 Dec 2019 19:05:53.000,25.142,13.956,1245.576261
16 Dec 2019 19:05:54.000,25.491,13.951,1245.820829
16 Dec 2019 19:05:55.000,25.840,13.945,1246.104900
16 Dec 2019 19:05:56.000,26.189,13.938,1246.428445
16 Dec 2019 19:05:57.000,26.537,13.931,1246.791434
16 Dec 2019 19:05:58.000,26.885,13.922,1247.193831
16 Dec 2019 19:05:59.000,27.233,13.913,1247.635599
16 Dec 2019 19:06:00.000,27.580,13.903,1248.116697
16 Dec 2019 19:06:01.000,27.927,13.892,1248.637078
16 Dec 2019 19:06:02.000,28.274,13.880,1249.196691
16 Dec 2019 19:06:03.000,28.621,13.868,1249.795488
16 Dec 2019 19:06:04.000,28.967,13.855,1250.433410
16 Dec 2019 19:06:05.000,29.313,13.841,1251.110396
16 Dec 2019 19:06:06.000,29.658,13.826,1251.826383
16 Dec 2019 19:06:07.000,30.003,13.810,1252.581303
16 Dec 2019 19:06:08.000,30.347,13.794,1253.375087
16 Dec 2019 19:06:09.000,30.691,13.777,1254.207660
16 Dec 2019 19:06:10.000,31.035,13.759,1255.078943
16 Dec 2019 19:06:11.000,31.378,13.740,1255.988857
16 Dec 2019 19:06:12.000,31.720,13.720,1256.937317
16 Dec 2019 19:06:13.000,32.062,13.700,1257.924235
16 Dec 2019 19:06:14.000,32.403,13.679,1258.949517
16 Dec 2019 19:06:15.000,32.743,13.658,1260.013073
16 Dec 2019 19:06:16.000,33.083,13.635,1261.114802
16 Dec 2019 19:06:17.000,33.422,13.612,1262.254607
16 Dec 2019 19:06:18.000,33.761,13.588,1263.432382
16 Dec 2019 19:06:19.000,34.099,13.563,1264.648017
16 Dec 2019 19:06:20.000,34.436,13.538,1265.901408
16 Dec 2019 19:06:21.000,34.772,13.512,1267.192436
16 Dec 2019 19:06:22.000,35.108,13.485,1268.520991
16 Dec 2019 19:06:23.000,35.442,13.457,1269.886950
16 Dec 2019 19:06:24.000,35.776,13.429,1271.290191
16 Dec 2019 19:06:25.000,36.110,13.400,1272.730593
16 Dec 2019 19:06:26.000,36.442,13.371,1274.208025
16 Dec 2019 19:06:27.000,36.774,13.340,1275.722360
16 Dec 2019 19:06:28.000,37.104,13.309,1277.273462
16 Dec 2019 19:06:29.000,37.434,13.278,1278.861201
16 Dec 2019 19:06:30.000,37.763,13.246,1280.485434
16 Dec 2019 19:06:31.000,38.091,13.213,1282.146025
16 Dec 2019 19:06:32.000,38.418,13.179,1283.842828
16 Dec 2019 19:06:33.000,38.744,13.145,1285.575700
16 Dec 2019 19:06:34.000,39.069,13.110,1287.344496
16 Dec 2019 19:06:35.000,39.393,13.075,1289.149061
16 Dec 2019 19:06:36.000,39.716,13.039,1290.989250
16 Dec 2019 19:06:37.000,40.038,13.002,1292.864903
16 Dec 2019 19:06:38.000,40.359,12.965,1294.775866
16 Dec 2019 19:06:39.000,40.679,12.927,1296.721986
16 Dec 2019 19:06:40.000,40.998,12.888,1298.703096
16 Dec 2019 19:06:41.000,41.316,12.849,1300.719037
16 Dec 2019 19:06:42.000,41.633,12.810,1302.769649
16 Dec 2019 19:06:43.000,41.948,12.770,1304.854761
16 Dec 2019 19:06:44.000,42.263,12.729,1306.974208
16 Dec 2019 19:06:45.000,42.576,12.688,1309.127824
16 Dec 2019 19:06:46.000,42.889,12.646,1311.315435
16 Dec 2019 19:06:47.000,43.200,12.604,1313.536869
16 Dec 2019 19:06:48.000,43.510,12.561,1315.791954
16 Dec 2019 19:06:49.000,43.819,12.517,1318.080518
16 Dec 2019 19:06:50.000,44.126,12.474,1320.402379
16 Dec 2019 19:06:51.000,44.433,12.429,1322.757362
16 Dec 2019 19:06:52.000,44.738,12.384,1325.145289
16 Dec 2019 19:06:53.000,45.043,12.339,1327.565981
16 Dec 2019 19:06:54.000,45.345,12.293,1330.019252
16 Dec 2019 19:06:55.000,45.647,12.247,1332.504923
16 Dec 2019 19:06:56.000,45.948,12.200,1335.022810
16 Dec 2019 19:06:57.000,46.247,12.153,1337.572729
16 Dec 2019 19:06:58.000,46.545,12.106,1340.154494
16 Dec 2019 19:06:59.000,46.842,12.058,1342.767919
16 Dec 2019 19:07:00.000,47.137,12.009,1345.412820
16 Dec 2019 19:07:01.000,47.432,11.960,1348.089004
16 Dec 2019 19:07:02.000,47.725,11.911,1350.796284
16 Dec 2019 19:07:03.000,48.016,11.861,1353.534471
16 Dec 2019 19:07:04.000,48.307,11.811,1356.303375
16 Dec 2019 19:07:05.000,48.596,11.761,1359.102806
16 Dec 2019 19:07:06.000,48.884,11.710,1361.932573
16 Dec 2019 19:07:07.000,49.170,11.659,1364.792485
16 Dec 2019 19:07:08.000,49.456,11.607,1367.682348
16 Dec 2019 19:07:09.000,49.740,11.555,1370.601971
16 Dec 2019 19:07:10.000,50.022,11.503,1373.551162
16 Dec 2019 19:07:11.000,50.304,11.450,1376.529726
16 Dec 2019 19:07:12.000,50.584,11.397,1379.537471
16 Dec 2019 19:07:13.000,50.863,11.344,1382.574204
16 Dec 2019 19:07:14.000,51.140,11.290,1385.639730
16 Dec 2019 19:07:15.000,51.416,11.236,1388.733856
16 Dec 2019 19:07:16.000,51.691,11.182,1391.856388
16 Dec 2019 19:07:17.000,51.964,11.128,1395.007132
16 Dec 2019 19:07:18.000,52.237,11.073,1398.185894
16 Dec 2019 19:07:19.000,52.507,11.018,1401.392480
16 Dec 2019 19:07:20.000,52.777,10.962,1404.626696
16 Dec 2019 19:07:21.000,53.045,10.907,1407.888349
16 Dec 2019 19:07:22.000,53.312,10.851,1411.177244
16 Dec 2019 19:07:23.000,53.577,10.795,1414.493189
16 Dec 2019 19:07:24.000,53.842,10.738,1417.835991
16 Dec 2019 19:07:25.000,54.105,10.682,1421.205453
16 Dec 2019 19:07:26.000,54.366,10.625,1424.601388
16 Dec 2019 19:07:27.000,54.626,10.568,1428.023602
16 Dec 2019 19:07:28.000,54.885,10.510,1431.471902
16 Dec 2019 19:07:29.000,55.143,10.453,1434.946096
16 Dec 2019 19:07:30.000,55.399,10.395,1438.445994
16 Dec 2019 19:07:31.000,55.654,10.337,1441.971404
16 Dec 2019 19:07:32.000,55.907,10.279,1445.522134
16 Dec 2019 19:07:33.000,56.159,10.220,1449.097999
16 Dec 2019 19:07:34.000,56.410,10.162,1452.698807
16 Dec 2019 19:07:35.000,56.660,10.103,1456.324370
16 Dec 2019 19:07:36.000,56.908,10.044,1459.974498
16 Dec 2019 19:07:37.000,57.155,9.985,1463.649002
16 Dec 2019 19:07:38.000,57.401,9.926,1467.347700
16 Dec 2019 19:07:39.000,57.645,9.866,1471.070403
16 Dec 2019 19:07:40.000,57.888,9.807,1474.816926
16 Dec 2019 19:07:41.000,58.130,9.747,1478.587080
16 Dec 2019 19:07:42.000,58.370,9.687,1482.380688
16 Dec 2019 19:07:43.000,58.609,9.627,1486.197561
16 Dec 2019 19:07:44.000,58.847,9.567,1490.037519
16 Dec 2019 19:07:45.000,59.084,9.507,1493.900375
16 Dec 2019 19:07:46.000,59.319,9.447,1497.785955
16 Dec 2019 19:07:47.000,59.553,9.386,1501.694074
16 Dec 2019 19:07:48.000,59.785,9.326,1505.624551
16 Dec 2019 19:07:49.000,60.017,9.265,1509.577212
16 Dec 2019 19:07:50.000,60.247,9.204,1513.551877
16 Dec 2019 19:07:51.000,60.476,9.143,1517.548364
16 Dec 2019 19:07:52.000,60.703,9.082,1521.566506
16 Dec 2019 19:07:53.000,60.929,9.021,1525.606122
16 Dec 2019 19:07:54.000,61.155,8.960,1529.667035
16 Dec 2019 19:07:55.000,61.378,8.899,1533.749078
16 Dec 2019 19:07:56.000,61.601,8.837,1537.852076
16 Dec 2019 19:07:57.000,61.822,8.776,1541.975853
16 Dec 2019 19:07:58.000,62.042,8.715,1546.120245
16 Dec 2019 19:07:59.000,62.261,8.653,1550.285079
16 Dec 2019 19:08:00.000,62.479,8.592,1554.470184
16 Dec 2019 19:08:01.000,62.695,8.530,1558.675398
16 Dec 2019 19:08:02.000,62.910,8.468,1562.900547
16 Dec 2019 19:08:03.000,63.124,8.407,1567.145473
16 Dec 2019 19:08:04.000,63.337,8.345,1571.410004
16 Dec 2019 19:08:05.000,63.548,8.283,1575.693982
16 Dec 2019 19:08:06.000,63.759,8.221,1579.997243
16 Dec 2019 19:08:07.000,63.968,8.159,1584.319621
16 Dec 2019 19:08:08.000,64.176,8.097,1588.660961
16 Dec 2019 19:08:09.000,64.382,8.035,1593.021097
16 Dec 2019 19:08:10.000,64.588,7.973,1597.399879
16 Dec 2019 19:08:11.000,64.792,7.911,1601.797140
16 Dec 2019 19:08:12.000,64.996,7.849,1606.212732
16 Dec 2019 19:08:13.000,65.198,7.787,1610.646492
16 Dec 2019 19:08:14.000,65.399,7.725,1615.098272
16 Dec 2019 19:08:15.000,65.598,7.663,1619.567913
16 Dec 2019 19:08:16.000,65.797,7.601,1624.055269
16 Dec 2019 19:08:17.000,65.994,7.539,1628.560181
16 Dec 2019 19:08:18.000,66.191,7.477,1633.082507
16 Dec 2019 19:08:19.000,66.386,7.415,1637.622091
16 Dec 2019 19:08:20.000,66.580,7.353,1642.178791
16 Dec 2019 19:08:21.000,66.773,7.291,1646.752453
16 Dec 2019 19:08:22.000,66.965,7.229,1651.342939
16 Dec 2019 19:08:23.000,67.156,7.167,1655.950097
16 Dec 2019 19:08:24.000,67.345,7.105,1660.573789
16 Dec 2019 19:08:25.000,67.534,7.043,1665.213867
16 Dec 2019 19:08:26.000,67.722,6.981,1669.870195
16 Dec 2019 19:08:27.000,67.908,6.919,1674.542626
16 Dec 2019 19:08:28.000,68.093,6.858,1679.231028
16 Dec 2019 19:08:29.000,68.278,6.796,1683.935255
16 Dec 2019 19:08:30.000,68.461,6.734,1688.655173
16 Dec 2019 19:08:31.000,68.643,6.672,1693.390649
16 Dec 2019 19:08:32.000,68.824,6.610,1698.141542
16 Dec 2019 19:08:33.000,69.004,6.549,1702.907723
16 Dec 2019 19:08:34.000,69.184,6.487,1707.689053
16 Dec 2019 19:08:35.000,69.362,6.425,1712.485407
16 Dec 2019 19:08:36.000,69.539,6.364,1717.296646
16 Dec 2019 19:08:37.000,69.715,6.302,1722.122644
16 Dec 2019 19:08:38.000,69.890,6.240,1726.963276
16 Dec 2019 19:08:39.000,70.064,6.179,1731.818407
16 Dec 2019 19:08:40.000,70.237,6.118,1736.687912
16 Dec 2019 19:08:41.000,70.409,6.056,1741.571671
16 Dec 2019 19:08:42.000,70.580,5.995,1746.469550
16 Dec 2019 19:08:43.000,70.750,5.933,1751.381434
16 Dec 2019 19:08:44.000,70.919,5.872,1756.307192
16 Dec 2019 19:08:45.000,71.087,5.811,1761.246705
16 Dec 2019 19:08:46.000,71.254,5.750,1766.199858
16 Dec 2019 19:08:47.000,71.420,5.689,1771.166522
16 Dec 2019 19:08:48.000,71.585,5.628,1776.146584
16 Dec 2019 19:08:49.000,71.750,5.567,1781.139927
16 Dec 2019 19:08:50.000,71.913,5.506,1786.146429
16 Dec 2019 19:08:51.000,72.076,5.445,1791.165977
16 Dec 2019 19:08:52.000,72.237,5.384,1796.198460
16 Dec 2019 19:08:53.000,72.398,5.324,1801.243756
16 Dec 2019 19:08:54.000,72.557,5.263,1806.301758
16 Dec 2019 19:08:55.000,72.716,5.203,1811.372355
16 Dec 2019 19:08:56.000,72.874,5.142,1816.455430
16 Dec 2019 19:08:57.000,73.031,5.082,1821.550877
16 Dec 2019 19:08:58.000,73.187,5.021,1826.658586
16 Dec 2019 19:08:59.000,73.342,4.961,1831.778453
16 Dec 2019 19:09:00.000,73.496,4.901,1836.910364
16 Dec 2019 19:09:01.000,73.650,4.841,1842.054215
16 Dec 2019 19:09:02.000,73.802,4.781,1847.209904
16 Dec 2019 19:09:03.000,73.954,4.721,1852.377322
16 Dec 2019 19:09:04.000,74.105,4.661,1857.556366
16 Dec 2019 19:09:05.000,74.255,4.601,1862.746935
16 Dec 2019 19:09:06.000,74.404,4.541,1867.948930
16 Dec 2019 19:09:07.000,74.552,4.481,1873.162244
16 Dec 2019 19:09:08.000,74.700,4.422,1878.386779
16 Dec 2019 19:09:09.000,74.847,4.362,1883.622441
16 Dec 2019 19:09:10.000,74.992,4.303,1888.869124
16 Dec 2019 19:09:11.000,75.138,4.243,1894.126734
16 Dec 2019 19:09:12.000,75.282,4.184,1899.395175
16 Dec 2019 19:09:13.000,75.425,4.125,1904.674354
16 Dec 2019 19:09:14.000,75.568,4.066,1909.964170
16 Dec 2019 19:09:15.000,75.710,4.007,1915.264533
16 Dec 2019 19:09:16.000,75.851,3.948,1920.575348
16 Dec 2019 19:09:17.000,75.991,3.889,1925.896524
16 Dec 2019 19:09:18.000,76.130,3.830,1931.227973
16 Dec 2019 19:09:19.000,76.269,3.771,1936.569597
16 Dec 2019 19:09:20.000,76.407,3.713,1941.921309
16 Dec 2019 19:09:21.000,76.544,3.654,1947.283021
16 Dec 2019 19:09:22.000,76.681,3.596,1952.654648
16 Dec 2019 19:09:23.000,76.816,3.537,1958.036095
16 Dec 2019 19:09:24.000,76.951,3.479,1963.427280
16 Dec 2019 19:09:25.000,77.085,3.421,1968.828116
16 Dec 2019 19:09:26.000,77.219,3.363,1974.238517
16 Dec 2019 19:09:27.000,77.352,3.305,1979.658404
16 Dec 2019 19:09:28.000,77.484,3.247,1985.087685
16 Dec 2019 19:09:29.000,77.615,3.189,1990.526282
16 Dec 2019 19:09:30.000,77.745,3.131,1995.974111
16 Dec 2019 19:09:31.000,77.875,3.074,2001.431092
16 Dec 2019 19:09:32.000,78.004,3.016,2006.897143
16 Dec 2019 19:09:33.000,78.133,2.958,2012.372190
16 Dec 2019 19:09:34.000,78.261,2.901,2017.856144
16 Dec 2019 19:09:35.000,78.388,2.844,2023.348931
16 Dec 2019 19:09:36.000,78.514,2.786,2028.850474
16 Dec 2019 19:09:37.000,78.640,2.729,2034.360695
16 Dec 2019 19:09:38.000,78.765,2.672,2039.879518
16 Dec 2019 19:09:39.000,78.889,2.615,2045.406870
16 Dec 2019 19:09:40.000,79.013,2.558,2050.942670
16 Dec 2019 19:09:41.000,79.136,2.502,2056.486846
16 Dec 2019 19:09:42.000,79.258,2.445,2062.039326
16 Dec 2019 19:09:43.000,79.380,2.388,2067.600035
16 Dec 2019 19:09:44.000,79.501,2.332,2073.168902
16 Dec 2019 19:09:45.000,79.621,2.275,2078.745854
16 Dec 2019 19:09:46.000,79.741,2.219,2084.330825
16 Dec 2019 19:09:47.000,79.860,2.163,2089.923737
16 Dec 2019 19:09:48.000,79.979,2.107,2095.524523
16 Dec 2019 19:09:49.000,80.096,2.051,2101.133114
16 Dec 2019 19:09:50.000,80.214,1.995,2106.749442
16 Dec 2019 19:09:51.000,80.330,1.939,2112.373439
16 Dec 2019 19:09:52.000,80.446,1.883,2118.005037
16 Dec 2019 19:09:53.000,80.562,1.827,2123.644174
16 Dec 2019 19:09:54.000,80.677,1.771,2129.290776
16 Dec 2019 19:09:55.000,80.791,1.716,2134.944780
16 Dec 2019 19:09:56.000,80.904,1.660,2140.606123
16 Dec 2019 19:09:57.000,81.017,1.605,2146.274740
16 Dec 2019 19:09:58.000,81.130,1.550,2151.950567
16 Dec 2019 19:09:59.000,81.242,1.495,2157.633540
16 Dec 2019 19:10:00.000,81.353,1.440,2163.323598
16 Dec 2019 19:10:01.000,81.464,1.385,2169.020677
16 Dec 2019 19:10:02.000,81.574,1.330,2174.724718
16 Dec 2019 19:10:03.000,81.683,1.275,2180.435661
16 Dec 2019 19:10:04.000,81.792,1.220,2186.153441
16 Dec 2019 19:10:05.000,81.901,1.165,2191.877999
16 Dec 2019 19:10:06.000,82.009,1.111,2197.609278
16 Dec 2019 19:10:07.000,82.116,1.056,2203.347217
16 Dec 2019 19:10:08.000,82.223,1.002,2209.091760
16 Dec 2019 19:10:09.000,82.329,0.948,2214.842848
16 Dec 2019 19:10:10.000,82.435,0.893,2220.600423
16 Dec 2019 19:10:11.000,82.540,0.839,2226.364430
16 Dec 2019 19:10:12.000,82.645,0.785,2232.134811
16 Dec 2019 19:10:13.000,82.749,0.731,2237.911512
16 Dec 2019 19:10:14.000,82.852,0.677,2243.694480
16 Dec 2019 19:10:15.000,82.955,0.624,2249.483654
16 Dec 2019 19:10:16.000,83.058,0.570,2255.278983
16 Dec 2019 19:10:17.000,83.160,0.516,2261.080412
16 Dec 2019 19:10:18.000,83.261,0.463,2266.887890
16 Dec 2019 19:10:19.000,83.362,0.409,2272.701362
16 Dec 2019 19:10:20.000,83.463,0.356,2278.520777
16 Dec 2019 19:10:21.000,83.563,0.303,2284.346083
16 Dec 2019 19:10:22.000,83.662,0.250,2290.177228
16 Dec 2019 19:10:23.000,83.761,0.196,2296.014161
16 Dec 2019 19:10:24.000,83.860,0.143,2301.856832
16 Dec 2019 19:10:25.000,83.958,0.091,2307.705191
16 Dec 2019 19:10:26.000,84.056,0.038,2313.559188
16 Dec 2019 19:10:27.000,84.153,-0.015,2319.418773
16 Dec 2019 19:10:27.764,84.226,-0.055,2323.898989
16 Dec 2019 20:37:19.519,310.436,-0.055,2327.941903
16 Dec 2019 20:37:20.000,310.439,-0.026,2324.616445
16 Dec 2019 20:37:21.000,310.445,0.036,2317.697617
16 Dec 2019 20:37:22.000,310.451,0.099,2310.778779
16 Dec 2019 20:37:23.000,310.457,0.161,2303.859941
16 Dec 2019 20:37:24.000,310.463,0.224,2296.941108
16 Dec 2019 20:37:25.000,310.469,0.286,2290.022293
16 Dec 2019 20:37:26.000,310.476,0.349,2283.103502
16 Dec 2019 20:37:27.000,310.482,0.413,2276.184742
16 Dec 2019 20:37:28.000,310.488,0.476,2269.266026
16 Dec 2019 20:37:29.000,310.494,0.540,2262.347361
16 Dec 2019 20:37:30.000,310.500,0.603,2255.428751
16 Dec 2019 20:37:31.000,310.506,0.667,2248.510212
16 Dec 2019 20:37:32.000,310.512,0.731,2241.591750
16 Dec 2019 20:37:33.000,310.519,0.796,2234.673371
16 Dec 2019 20:37:34.000,310.525,0.860,2227.755090
16 Dec 2019 20:37:35.000,310.531,0.925,2220.836912
16 Dec 2019 20:37:36.000,310.537,0.990,2213.918848
16 Dec 2019 20:37:37.000,310.544,1.055,2207.000904
16 Dec 2019 20:37:38.000,310.550,1.121,2200.083096
16 Dec 2019 20:37:39.000,310.556,1.187,2193.165428
16 Dec 2019 20:37:40.000,310.562,1.252,2186.247910
16 Dec 2019 20:37:41.000,310.569,1.319,2179.330556
16 Dec 2019 20:37:42.000,310.575,1.385,2172.413372
16 Dec 2019 20:37:43.000,310.582,1.451,2165.496367
16 Dec 2019 20:37:44.000,310.588,1.518,2158.579556
16 Dec 2019 20:37:45.000,310.594,1.585,2151.662946
16 Dec 2019 20:37:46.000,310.601,1.652,2144.746545
16 Dec 2019 20:37:47.000,310.607,1.720,2137.830369
16 Dec 2019 20:37:48.000,310.614,1.788,2130.914425
16 Dec 2019 20:37:49.000,310.620,1.855,2123.998723
16 Dec 2019 20:37:50.000,310.627,1.924,2117.083273
16 Dec 2019 20:37:51.000,310.633,1.992,2110.168090
16 Dec 2019 20:37:52.000,310.640,2.061,2103.253182
16 Dec 2019 20:37:53.000,310.647,2.130,2096.338558
16 Dec 2019 20:37:54.000,310.653,2.199,2089.424234
16 Dec 2019 20:37:55.000,310.660,2.268,2082.510219
16 Dec 2019 20:37:56.000,310.666,2.338,2075.596522
16 Dec 2019 20:37:57.000,310.673,2.408,2068.683159
16 Dec 2019 20:37:58.000,310.680,2.478,2061.770140
16 Dec 2019 20:37:59.000,310.687,2.548,2054.857473
16 Dec 2019 20:38:00.000,310.693,2.619,2047.945176
16 Dec 2019 20:38:01.000,310.700,2.690,2041.033258
16 Dec 2019 20:38:02.000,310.707,2.761,2034.121732
16 Dec 2019 20:38:03.000,310.714,2.833,2027.210607
16 Dec 2019 20:38:04.000,310.721,2.905,2020.299900
16 Dec 2019 20:38:05.000,310.728,2.977,2013.389622
16 Dec 2019 20:38:06.000,310.734,3.049,2006.479783
16 Dec 2019 20:38:07.000,310.741,3.122,1999.570402
16 Dec 2019 20:38:08.000,310.748,3.195,1992.661487
16 Dec 2019 20:38:09.000,310.755,3.268,1985.753051
16 Dec 2019 20:38:10.000,310.762,3.342,1978.845111
16 Dec 2019 20:38:11.000,310.769,3.415,1971.937679
16 Dec 2019 20:38:12.000,310.776,3.490,1965.030766
16 Dec 2019 20:38:13.000,310.784,3.564,1958.124390
16 Dec 2019 20:38:14.000,310.791,3.639,1951.218563
16 Dec 2019 20:38:15.000,310.798,3.714,1944.313300
16 Dec 2019 20:38:16.000,310.805,3.789,1937.408611
16 Dec 2019 20:38:17.000,310.812,3.865,1930.504517
16 Dec 2019 20:38:18.000,310.820,3.941,1923.601030
16 Dec 2019 20:38:19.000,310.827,4.017,1916.698161
16 Dec 2019 20:38:20.000,310.834,4.094,1909.795932
16 Dec 2019 20:38:21.000,310.841,4.171,1902.894355
16 Dec 2019 20:38:22.000,310.849,4.248,1895.993443
16 Dec 2019 20:38:23.000,310.856,4.326,1889.093217
16 Dec 2019 20:38:24.000,310.864,4.404,1882.193689
16 Dec 2019 20:38:25.000,310.871,4.482,1875.294876
16 Dec 2019 20:38:26.000,310.879,4.561,1868.396792
16 Dec 2019 20:38:27.000,310.886,4.640,1861.499458
16 Dec 2019 20:38:28.000,310.894,4.719,1854.602888
16 Dec 2019 20:38:29.000,310.901,4.799,1847.707096
16 Dec 2019 20:38:30.000,310.909,4.879,1840.812106
16 Dec 2019 20:38:31.000,310.917,4.960,1833.917931
16 Dec 2019 20:38:32.000,310.924,5.040,1827.024586
16 Dec 2019 20:38:33.000,310.932,5.122,1820.132095
16 Dec 2019 20:38:34.000,310.940,5.203,1813.240472
16 Dec 2019 20:38:35.000,310.948,5.285,1806.349737
16 Dec 2019 20:38:36.000,310.955,5.368,1799.459905
16 Dec 2019 20:38:37.000,310.963,5.451,1792.570999
16 Dec 2019 20:38:38.000,310.971,5.534,1785.683038
16 Dec 2019 20:38:39.000,310.979,5.617,1778.796036
16 Dec 2019 20:38:40.000,310.987,5.701,1771.910019
16 Dec 2019 20:38:41.000,310.995,5.786,1765.025004
16 Dec 2019 20:38:42.000,311.003,5.871,1758.141008
16 Dec 2019 20:38:43.000,311.011,5.956,1751.258058
16 Dec 2019 20:38:44.000,311.019,6.042,1744.376171
16 Dec 2019 20:38:45.000,311.028,6.128,1737.495368
16 Dec 2019 20:38:46.000,311.036,6.214,1730.615667
16 Dec 2019 20:38:47.000,311.044,6.301,1723.737096
16 Dec 2019 20:38:48.000,311.052,6.389,1716.859674
16 Dec 2019 20:38:49.000,311.061,6.477,1709.983420
16 Dec 2019 20:38:50.000,311.069,6.565,1703.108362
16 Dec 2019 20:38:51.000,311.078,6.654,1696.234520
16 Dec 2019 20:38:52.000,311.086,6.743,1689.361918
16 Dec 2019 20:38:53.000,311.095,6.833,1682.490575
16 Dec 2019 20:38:54.000,311.103,6.923,1675.620522
16 Dec 2019 20:38:55.000,311.112,7.014,1668.751780
16 Dec 2019 20:38:56.000,311.121,7.105,1661.884371
16 Dec 2019 20:38:57.000,311.129,7.197,1655.018325
16 Dec 2019 20:38:58.000,311.138,7.289,1648.153664
16 Dec 2019 20:38:59.000,311.147,7.382,1641.290412
16 Dec 2019 20:39:00.000,311.156,7.475,1634.428600
16 Dec 2019 20:39:01.000,311.165,7.569,1627.568252
16 Dec 2019 20:39:02.000,311.174,7.663,1620.709395
16 Dec 2019 20:39:03.000,311.183,7.758,1613.852054
16 Dec 2019 20:39:04.000,311.192,7.853,1606.996260
16 Dec 2019 20:39:05.000,311.201,7.949,1600.142041
16 Dec 2019 20:39:06.000,311.210,8.046,1593.289422
16 Dec 2019 20:39:07.000,311.220,8.143,1586.438437
16 Dec 2019 20:39:08.000,311.229,8.241,1579.589114
16 Dec 2019 20:39:09.000,311.238,8.339,1572.741481
16 Dec 2019 20:39:10.000,311.248,8.438,1565.895568
16 Dec 2019 20:39:11.000,311.257,8.537,1559.051410
16 Dec 2019 20:39:12.000,311.267,8.637,1552.209036
16 Dec 2019 20:39:13.000,311.276,8.738,1545.368475
16 Dec 2019 20:39:14.000,311.286,8.839,1538.529766
16 Dec 2019 20:39:15.000,311.296,8.941,1531.692939
16 Dec 2019 20:39:16.000,311.306,9.043,1524.858026
16 Dec 2019 20:39:17.000,311.316,9.146,1518.025061
16 Dec 2019 20:39:18.000,311.325,9.250,1511.194082
16 Dec 2019 20:39:19.000,311.335,9.355,1504.365123
16 Dec 2019 20:39:20.000,311.346,9.460,1497.538219
16 Dec 2019 20:39:21.000,311.356,9.565,1490.713404
16 Dec 2019 20:39:22.000,311.366,9.672,1483.890721
16 Dec 2019 20:39:23.000,311.376,9.779,1477.070205
16 Dec 2019 20:39:24.000,311.386,9.887,1470.251892
16 Dec 2019 20:39:25.000,311.397,9.996,1463.435825
16 Dec 2019 20:39:26.000,311.407,10.105,1456.622042
16 Dec 2019 20:39:27.000,311.418,10.215,1449.810584
16 Dec 2019 20:39:28.000,311.429,10.326,1443.001490
16 Dec 2019 20:39:29.000,311.439,10.437,1436.194805
16 Dec 2019 20:39:30.000,311.450,10.550,1429.390571
16 Dec 2019 20:39:31.000,311.461,10.663,1422.588830
16 Dec 2019 20:39:32.000,311.472,10.777,1415.789625
16 Dec 2019 20:39:33.000,311.483,10.891,1408.993005
16 Dec 2019 20:39:34.000,311.494,11.007,1402.199014
16 Dec 2019 20:39:35.000,311.505,11.123,1395.407696
16 Dec 2019 20:39:36.000,311.517,11.240,1388.619103
16 Dec 2019 20:39:37.000,311.528,11.358,1381.833282
16 Dec 2019 20:39:38.000,311.540,11.477,1375.050281
16 Dec 2019 20:39:39.000,311.551,11.597,1368.270148
16 Dec 2019 20:39:40.000,311.563,11.718,1361.492940
16 Dec 2019 20:39:41.000,311.575,11.839,1354.718706
16 Dec 2019 20:39:42.000,311.586,11.962,1347.947499
16 Dec 2019 20:39:43.000,311.598,12.085,1341.179370
16 Dec 2019 20:39:44.000,311.610,12.209,1334.414380
16 Dec 2019 20:39:45.000,311.623,12.334,1327.652583
16 Dec 2019 20:39:46.000,311.635,12.461,1320.894035
16 Dec 2019 20:39:47.000,311.647,12.588,1314.138793
16 Dec 2019 20:39:48.000,311.660,12.716,1307.386921
16 Dec 2019 20:39:49.000,311.672,12.845,1300.638477
16 Dec 2019 20:39:50.000,311.685,12.975,1293.893523
16 Dec 2019 20:39:51.000,311.698,13.106,1287.152119
16 Dec 2019 20:39:52.000,311.711,13.239,1280.414336
16 Dec 2019 20:39:53.000,311.724,13.372,1273.680235
16 Dec 2019 20:39:54.000,311.737,13.507,1266.949885
16 Dec 2019 20:39:55.000,311.750,13.642,1260.223350
16 Dec 2019 20:39:56.000,311.764,13.779,1253.500706
16 Dec 2019 20:39:57.000,311.777,13.916,1246.782021
16 Dec 2019 20:39:58.000,311.791,14.055,1240.067367
