vcc_sched/network/dec16-jan6/aer_vtgs_wj2xms_vcc-b_44431.csv

"Time (UTCG)","Azimuth (deg)","Elevation (deg)","Range (km)"
16 Dec 2019 17:27:00.297,317.470,-0.056,2326.431528
16 Dec 2019 17:27:01.000,317.564,-0.026,2323.149324
16 Dec 2019 17:27:02.000,317.698,0.016,2318.486913
16 Dec 2019 17:27:03.000,317.833,0.058,2313.835241
16 Dec 2019 17:27:04.000,317.968,0.100,2309.194372
16 Dec 2019 17:27:05.000,318.104,0.141,2304.564382
16 Dec 2019 17:27:06.000,318.241,0.183,2299.945336
16 Dec 2019 17:27:07.000,318.378,0.225,2295.337313
16 Dec 2019 17:27:08.000,318.516,0.267,2290.740377
16 Dec 2019 17:27:09.000,318.654,0.309,2286.154607
16 Dec 2019 17:27:10.000,318.792,0.351,2281.580070
16 Dec 2019 17:27:11.000,318.932,0.392,2277.016844
16 Dec 2019 17:27:12.000,319.071,0.434,2272.464997
16 Dec 2019 17:27:13.000,319.212,0.476,2267.924608
16 Dec 2019 17:27:14.000,319.352,0.518,2263.395747
16 Dec 2019 17:27:15.000,319.494,0.559,2258.878490
16 Dec 2019 17:27:16.000,319.636,0.601,2254.372914
16 Dec 2019 17:27:17.000,319.778,0.643,2249.879091
16 Dec 2019 17:27:18.000,319.921,0.684,2245.397100
16 Dec 2019 17:27:19.000,320.065,0.726,2240.927014
16 Dec 2019 17:27:20.000,320.209,0.768,2236.468913
16 Dec 2019 17:27:21.000,320.354,0.809,2232.022872
16 Dec 2019 17:27:22.000,320.499,0.851,2227.588966
16 Dec 2019 17:27:23.000,320.645,0.892,2223.167277
16 Dec 2019 17:27:24.000,320.792,0.934,2218.757879
16 Dec 2019 17:27:25.000,320.939,0.975,2214.360855
16 Dec 2019 17:27:26.000,321.086,1.017,2209.976279
16 Dec 2019 17:27:27.000,321.234,1.058,2205.604236
16 Dec 2019 17:27:28.000,321.383,1.099,2201.244799
16 Dec 2019 17:27:29.000,321.532,1.141,2196.898055
16 Dec 2019 17:27:30.000,321.682,1.182,2192.564078
16 Dec 2019 17:27:31.000,321.833,1.223,2188.242954
16 Dec 2019 17:27:32.000,321.984,1.264,2183.934761
16 Dec 2019 17:27:33.000,322.136,1.306,2179.639583
16 Dec 2019 17:27:34.000,322.288,1.347,2175.357501
16 Dec 2019 17:27:35.000,322.441,1.388,2171.088596
16 Dec 2019 17:27:36.000,322.594,1.429,2166.832953
16 Dec 2019 17:27:37.000,322.748,1.470,2162.590653
16 Dec 2019 17:27:38.000,322.903,1.511,2158.361783
16 Dec 2019 17:27:39.000,323.058,1.552,2154.146422
16 Dec 2019 17:27:40.000,323.214,1.593,2149.944660
16 Dec 2019 17:27:41.000,323.370,1.634,2145.756578
16 Dec 2019 17:27:42.000,323.527,1.674,2141.582260
16 Dec 2019 17:27:43.000,323.685,1.715,2137.421796
16 Dec 2019 17:27:44.000,323.843,1.756,2133.275269
16 Dec 2019 17:27:45.000,324.002,1.796,2129.142763
16 Dec 2019 17:27:46.000,324.162,1.837,2125.024369
16 Dec 2019 17:27:47.000,324.322,1.878,2120.920170
16 Dec 2019 17:27:48.000,324.482,1.918,2116.830257
16 Dec 2019 17:27:49.000,324.644,1.958,2112.754716
16 Dec 2019 17:27:50.000,324.806,1.999,2108.693633
16 Dec 2019 17:27:51.000,324.968,2.039,2104.647100
16 Dec 2019 17:27:52.000,325.131,2.079,2100.615205
16 Dec 2019 17:27:53.000,325.295,2.120,2096.598033
16 Dec 2019 17:27:54.000,325.460,2.160,2092.595679
16 Dec 2019 17:27:55.000,325.625,2.200,2088.608230
16 Dec 2019 17:27:56.000,325.790,2.240,2084.635774
16 Dec 2019 17:27:57.000,325.957,2.280,2080.678407
16 Dec 2019 17:27:58.000,326.124,2.320,2076.736216
16 Dec 2019 17:27:59.000,326.291,2.359,2072.809291
16 Dec 2019 17:28:00.000,326.459,2.399,2068.897727
16 Dec 2019 17:28:01.000,326.628,2.439,2065.001614
16 Dec 2019 17:28:02.000,326.798,2.478,2061.121042
16 Dec 2019 17:28:03.000,326.968,2.518,2057.256108
16 Dec 2019 17:28:04.000,327.138,2.557,2053.406903
16 Dec 2019 17:28:05.000,327.310,2.597,2049.573518
16 Dec 2019 17:28:06.000,327.482,2.636,2045.756047
16 Dec 2019 17:28:07.000,327.654,2.675,2041.954586
16 Dec 2019 17:28:08.000,327.828,2.714,2038.169227
16 Dec 2019 17:28:09.000,328.002,2.753,2034.400063
16 Dec 2019 17:28:10.000,328.176,2.792,2030.647192
16 Dec 2019 17:28:11.000,328.351,2.831,2026.910707
16 Dec 2019 17:28:12.000,328.527,2.870,2023.190703
16 Dec 2019 17:28:13.000,328.704,2.908,2019.487273
16 Dec 2019 17:28:14.000,328.881,2.947,2015.800518
16 Dec 2019 17:28:15.000,329.059,2.985,2012.130530
16 Dec 2019 17:28:16.000,329.237,3.024,2008.477406
16 Dec 2019 17:28:17.000,329.416,3.062,2004.841243
16 Dec 2019 17:28:18.000,329.596,3.100,2001.222135
16 Dec 2019 17:28:19.000,329.776,3.138,1997.620183
16 Dec 2019 17:28:20.000,329.957,3.176,1994.035483
16 Dec 2019 17:28:21.000,330.139,3.214,1990.468130
16 Dec 2019 17:28:22.000,330.321,3.252,1986.918224
16 Dec 2019 17:28:23.000,330.504,3.290,1983.385859
16 Dec 2019 17:28:24.000,330.688,3.327,1979.871138
16 Dec 2019 17:28:25.000,330.872,3.365,1976.374157
16 Dec 2019 17:28:26.000,331.057,3.402,1972.895014
16 Dec 2019 17:28:27.000,331.243,3.439,1969.433809
16 Dec 2019 17:28:28.000,331.429,3.476,1965.990638
16 Dec 2019 17:28:29.000,331.616,3.513,1962.565601
16 Dec 2019 17:28:30.000,331.803,3.550,1959.158798
16 Dec 2019 17:28:31.000,331.992,3.587,1955.770329
16 Dec 2019 17:28:32.000,332.180,3.623,1952.400291
16 Dec 2019 17:28:33.000,332.370,3.660,1949.048785
16 Dec 2019 17:28:34.000,332.560,3.696,1945.715911
16 Dec 2019 17:28:35.000,332.751,3.732,1942.401767
16 Dec 2019 17:28:36.000,332.942,3.769,1939.106454
16 Dec 2019 17:28:37.000,333.135,3.805,1935.830072
16 Dec 2019 17:28:38.000,333.327,3.840,1932.572719
16 Dec 2019 17:28:39.000,333.521,3.876,1929.334499
16 Dec 2019 17:28:40.000,333.715,3.912,1926.115510
16 Dec 2019 17:28:41.000,333.910,3.947,1922.915853
16 Dec 2019 17:28:42.000,334.105,3.982,1919.735628
16 Dec 2019 17:28:43.000,334.301,4.017,1916.574935
16 Dec 2019 17:28:44.000,334.498,4.052,1913.433875
16 Dec 2019 17:28:45.000,334.695,4.087,1910.312547
16 Dec 2019 17:28:46.000,334.893,4.122,1907.211054
16 Dec 2019 17:28:47.000,335.092,4.156,1904.129495
16 Dec 2019 17:28:48.000,335.291,4.191,1901.067971
16 Dec 2019 17:28:49.000,335.491,4.225,1898.026581
16 Dec 2019 17:28:50.000,335.692,4.259,1895.005428
16 Dec 2019 17:28:51.000,335.893,4.293,1892.004611
16 Dec 2019 17:28:52.000,336.095,4.327,1889.024230
16 Dec 2019 17:28:53.000,336.297,4.360,1886.064385
16 Dec 2019 17:28:54.000,336.501,4.393,1883.125178
16 Dec 2019 17:28:55.000,336.704,4.427,1880.206709
16 Dec 2019 17:28:56.000,336.909,4.460,1877.309076
16 Dec 2019 17:28:57.000,337.114,4.493,1874.432381
16 Dec 2019 17:28:58.000,337.320,4.525,1871.576723
16 Dec 2019 17:28:59.000,337.526,4.558,1868.742202
16 Dec 2019 17:29:00.000,337.733,4.590,1865.928917
16 Dec 2019 17:29:01.000,337.941,4.622,1863.136969
16 Dec 2019 17:29:02.000,338.149,4.654,1860.366456
16 Dec 2019 17:29:03.000,338.358,4.686,1857.617477
16 Dec 2019 17:29:04.000,338.567,4.717,1854.890131
16 Dec 2019 17:29:05.000,338.777,4.749,1852.184519
16 Dec 2019 17:29:06.000,338.988,4.780,1849.500736
16 Dec 2019 17:29:07.000,339.199,4.811,1846.838882
16 Dec 2019 17:29:08.000,339.411,4.842,1844.199055
16 Dec 2019 17:29:09.000,339.624,4.872,1841.581353
16 Dec 2019 17:29:10.000,339.837,4.903,1838.985872
16 Dec 2019 17:29:11.000,340.051,4.933,1836.412711
16 Dec 2019 17:29:12.000,340.265,4.963,1833.861966
16 Dec 2019 17:29:13.000,340.481,4.992,1831.333736
16 Dec 2019 17:29:14.000,340.696,5.022,1828.828113
16 Dec 2019 17:29:15.000,340.912,5.051,1826.345196
16 Dec 2019 17:29:16.000,341.129,5.080,1823.885079
16 Dec 2019 17:29:17.000,341.347,5.109,1821.447859
16 Dec 2019 17:29:18.000,341.565,5.138,1819.033629
16 Dec 2019 17:29:19.000,341.783,5.166,1816.642486
16 Dec 2019 17:29:20.000,342.002,5.195,1814.274521
16 Dec 2019 17:29:21.000,342.222,5.222,1811.929830
16 Dec 2019 17:29:22.000,342.442,5.250,1809.608504
16 Dec 2019 17:29:23.000,342.663,5.278,1807.310637
16 Dec 2019 17:29:24.000,342.885,5.305,1805.036323
16 Dec 2019 17:29:25.000,343.107,5.332,1802.785651
16 Dec 2019 17:29:26.000,343.330,5.359,1800.558712
16 Dec 2019 17:29:27.000,343.553,5.385,1798.355599
16 Dec 2019 17:29:28.000,343.776,5.412,1796.176402
16 Dec 2019 17:29:29.000,344.001,5.438,1794.021209
16 Dec 2019 17:29:30.000,344.225,5.463,1791.890110
16 Dec 2019 17:29:31.000,344.451,5.489,1789.783195
16 Dec 2019 17:29:32.000,344.677,5.514,1787.700549
16 Dec 2019 17:29:33.000,344.903,5.539,1785.642261
16 Dec 2019 17:29:34.000,345.130,5.564,1783.608419
16 Dec 2019 17:29:35.000,345.358,5.588,1781.599106
16 Dec 2019 17:29:36.000,345.586,5.613,1779.614409
16 Dec 2019 17:29:37.000,345.814,5.637,1777.654414
16 Dec 2019 17:29:38.000,346.043,5.660,1775.719204
16 Dec 2019 17:29:39.000,346.273,5.684,1773.808861
16 Dec 2019 17:29:40.000,346.503,5.707,1771.923470
16 Dec 2019 17:29:41.000,346.733,5.730,1770.063112
16 Dec 2019 17:29:42.000,346.964,5.752,1768.227867
16 Dec 2019 17:29:43.000,347.196,5.775,1766.417818
16 Dec 2019 17:29:44.000,347.428,5.797,1764.633042
16 Dec 2019 17:29:45.000,347.660,5.818,1762.873620
16 Dec 2019 17:29:46.000,347.893,5.840,1761.139628
16 Dec 2019 17:29:47.000,348.127,5.861,1759.431145
16 Dec 2019 17:29:48.000,348.361,5.882,1757.748247
16 Dec 2019 17:29:49.000,348.595,5.903,1756.091008
16 Dec 2019 17:29:50.000,348.830,5.923,1754.459504
16 Dec 2019 17:29:51.000,349.065,5.943,1752.853809
16 Dec 2019 17:29:52.000,349.301,5.963,1751.273995
16 Dec 2019 17:29:53.000,349.537,5.982,1749.720135
16 Dec 2019 17:29:54.000,349.774,6.001,1748.192299
16 Dec 2019 17:29:55.000,350.010,6.020,1746.690557
16 Dec 2019 17:29:56.000,350.248,6.038,1745.214980
16 Dec 2019 17:29:57.000,350.486,6.057,1743.765633
16 Dec 2019 17:29:58.000,350.724,6.075,1742.342586
16 Dec 2019 17:29:59.000,350.962,6.092,1740.945904
16 Dec 2019 17:30:00.000,351.201,6.109,1739.575652
16 Dec 2019 17:30:01.000,351.441,6.126,1738.231894
16 Dec 2019 17:30:02.000,351.680,6.143,1736.914694
16 Dec 2019 17:30:03.000,351.921,6.159,1735.624113
16 Dec 2019 17:30:04.000,352.161,6.175,1734.360213
16 Dec 2019 17:30:05.000,352.402,6.191,1733.123053
16 Dec 2019 17:30:06.000,352.643,6.206,1731.912691
16 Dec 2019 17:30:07.000,352.885,6.221,1730.729187
16 Dec 2019 17:30:08.000,353.126,6.236,1729.572595
16 Dec 2019 17:30:09.000,353.369,6.250,1728.442973
16 Dec 2019 17:30:10.000,353.611,6.264,1727.340373
16 Dec 2019 17:30:11.000,353.854,6.278,1726.264848
16 Dec 2019 17:30:12.000,354.097,6.291,1725.216452
16 Dec 2019 17:30:13.000,354.340,6.304,1724.195235
16 Dec 2019 17:30:14.000,354.584,6.317,1723.201245
16 Dec 2019 17:30:15.000,354.828,6.329,1722.234531
16 Dec 2019 17:30:16.000,355.072,6.341,1721.295142
16 Dec 2019 17:30:17.000,355.317,6.353,1720.383121
16 Dec 2019 17:30:18.000,355.562,6.364,1719.498514
16 Dec 2019 17:30:19.000,355.807,6.375,1718.641365
16 Dec 2019 17:30:20.000,356.052,6.386,1717.811716
16 Dec 2019 17:30:21.000,356.298,6.396,1717.009606
16 Dec 2019 17:30:22.000,356.543,6.406,1716.235077
16 Dec 2019 17:30:23.000,356.789,6.416,1715.488166
16 Dec 2019 17:30:24.000,357.036,6.425,1714.768910
16 Dec 2019 17:30:25.000,357.282,6.434,1714.077346
16 Dec 2019 17:30:26.000,357.529,6.443,1713.413506
16 Dec 2019 17:30:27.000,357.776,6.451,1712.777425
16 Dec 2019 17:30:28.000,358.023,6.459,1712.169134
16 Dec 2019 17:30:29.000,358.270,6.466,1711.588663
16 Dec 2019 17:30:30.000,358.517,6.473,1711.036042
16 Dec 2019 17:30:31.000,358.765,6.480,1710.511297
16 Dec 2019 17:30:32.000,359.012,6.487,1710.014456
16 Dec 2019 17:30:33.000,359.260,6.493,1709.545544
16 Dec 2019 17:30:34.000,359.508,6.498,1709.104583
16 Dec 2019 17:30:35.000,359.756,6.504,1708.691597
16 Dec 2019 17:30:36.000,0.004,6.509,1708.306605
16 Dec 2019 17:30:37.000,0.253,6.513,1707.949628
16 Dec 2019 17:30:38.000,0.501,6.518,1707.620683
16 Dec 2019 17:30:39.000,0.749,6.522,1707.319788
16 Dec 2019 17:30:40.000,0.998,6.525,1707.046956
16 Dec 2019 17:30:41.000,1.247,6.528,1706.802202
16 Dec 2019 17:30:42.000,1.495,6.531,1706.585539
16 Dec 2019 17:30:43.000,1.744,6.534,1706.396978
16 Dec 2019 17:30:44.000,1.993,6.536,1706.236527
16 Dec 2019 17:30:45.000,2.242,6.538,1706.104195
16 Dec 2019 17:30:46.000,2.491,6.539,1705.999990
16 Dec 2019 17:30:47.000,2.740,6.540,1705.923916
16 Dec 2019 17:30:48.000,2.989,6.541,1705.875976
16 Dec 2019 17:30:49.000,3.238,6.541,1705.856175
16 Dec 2019 17:30:50.000,3.487,6.541,1705.864512
16 Dec 2019 17:30:51.000,3.736,6.540,1705.900987
16 Dec 2019 17:30:52.000,3.985,6.540,1705.965599
16 Dec 2019 17:30:53.000,4.234,6.539,1706.058344
16 Dec 2019 17:30:54.000,4.483,6.537,1706.179218
16 Dec 2019 17:30:55.000,4.731,6.535,1706.328215
16 Dec 2019 17:30:56.000,4.980,6.533,1706.505326
16 Dec 2019 17:30:57.000,5.229,6.530,1706.710543
16 Dec 2019 17:30:58.000,5.478,6.527,1706.943857
16 Dec 2019 17:30:59.000,5.726,6.524,1707.205254
16 Dec 2019 17:31:00.000,5.975,6.520,1707.494723
16 Dec 2019 17:31:01.000,6.223,6.516,1707.812248
16 Dec 2019 17:31:02.000,6.472,6.512,1708.157813
16 Dec 2019 17:31:03.000,6.720,6.507,1708.531402
16 Dec 2019 17:31:04.000,6.968,6.502,1708.932995
16 Dec 2019 17:31:05.000,7.216,6.497,1709.362572
16 Dec 2019 17:31:06.000,7.464,6.491,1709.820111
16 Dec 2019 17:31:07.000,7.712,6.485,1710.305591
16 Dec 2019 17:31:08.000,7.959,6.478,1710.818986
16 Dec 2019 17:31:09.000,8.207,6.471,1711.360270
16 Dec 2019 17:31:10.000,8.454,6.464,1711.929418
16 Dec 2019 17:31:11.000,8.701,6.456,1712.526400
16 Dec 2019 17:31:12.000,8.948,6.448,1713.151186
16 Dec 2019 17:31:13.000,9.195,6.440,1713.803746
16 Dec 2019 17:31:14.000,9.441,6.431,1714.484047
16 Dec 2019 17:31:15.000,9.687,6.422,1715.192056
16 Dec 2019 17:31:16.000,9.934,6.413,1715.927737
16 Dec 2019 17:31:17.000,10.179,6.403,1716.691054
16 Dec 2019 17:31:18.000,10.425,6.393,1717.481970
16 Dec 2019 17:31:19.000,10.671,6.383,1718.300445
16 Dec 2019 17:31:20.000,10.916,6.372,1719.146438
16 Dec 2019 17:31:21.000,11.161,6.361,1720.019910
16 Dec 2019 17:31:22.000,11.405,6.349,1720.920816
16 Dec 2019 17:31:23.000,11.650,6.338,1721.849114
16 Dec 2019 17:31:24.000,11.894,6.325,1722.804756
16 Dec 2019 17:31:25.000,12.138,6.313,1723.787698
16 Dec 2019 17:31:26.000,12.381,6.300,1724.797891
16 Dec 2019 17:31:27.000,12.624,6.287,1725.835286
16 Dec 2019 17:31:28.000,12.867,6.274,1726.899834
16 Dec 2019 17:31:29.000,13.110,6.260,1727.991482
16 Dec 2019 17:31:30.000,13.352,6.246,1729.110178
16 Dec 2019 17:31:31.000,13.594,6.231,1730.255869
16 Dec 2019 17:31:32.000,13.836,6.216,1731.428500
16 Dec 2019 17:31:33.000,14.077,6.201,1732.628014
16 Dec 2019 17:31:34.000,14.318,6.186,1733.854356
16 Dec 2019 17:31:35.000,14.559,6.170,1735.107465
16 Dec 2019 17:31:36.000,14.799,6.154,1736.387284
16 Dec 2019 17:31:37.000,15.039,6.138,1737.693750
16 Dec 2019 17:31:38.000,15.278,6.121,1739.026805
16 Dec 2019 17:31:39.000,15.518,6.104,1740.386383
16 Dec 2019 17:31:40.000,15.756,6.087,1741.772424
16 Dec 2019 17:31:41.000,15.995,6.069,1743.184860
16 Dec 2019 17:31:42.000,16.233,6.051,1744.623627
16 Dec 2019 17:31:43.000,16.470,6.033,1746.088658
16 Dec 2019 17:31:44.000,16.707,6.014,1747.579885
16 Dec 2019 17:31:45.000,16.944,5.995,1749.097240
16 Dec 2019 17:31:46.000,17.180,5.976,1750.640652
16 Dec 2019 17:31:47.000,17.416,5.956,1752.210053
16 Dec 2019 17:31:48.000,17.652,5.937,1753.805368
16 Dec 2019 17:31:49.000,17.887,5.917,1755.426527
16 Dec 2019 17:31:50.000,18.121,5.896,1757.073458
16 Dec 2019 17:31:51.000,18.355,5.875,1758.746083
16 Dec 2019 17:31:52.000,18.589,5.855,1760.444330
16 Dec 2019 17:31:53.000,18.822,5.833,1762.168121
16 Dec 2019 17:31:54.000,19.055,5.812,1763.917382
16 Dec 2019 17:31:55.000,19.287,5.790,1765.692031
16 Dec 2019 17:31:56.000,19.519,5.768,1767.491993
16 Dec 2019 17:31:57.000,19.750,5.745,1769.317188
16 Dec 2019 17:31:58.000,19.981,5.723,1771.167536
16 Dec 2019 17:31:59.000,20.211,5.700,1773.042956
16 Dec 2019 17:32:00.000,20.441,5.676,1774.943365
16 Dec 2019 17:32:01.000,20.670,5.653,1776.868683
16 Dec 2019 17:32:02.000,20.899,5.629,1778.818826
16 Dec 2019 17:32:03.000,21.127,5.605,1780.793710
16 Dec 2019 17:32:04.000,21.355,5.581,1782.793250
16 Dec 2019 17:32:05.000,21.582,5.556,1784.817364
16 Dec 2019 17:32:06.000,21.809,5.531,1786.865962
16 Dec 2019 17:32:07.000,22.035,5.506,1788.938960
16 Dec 2019 17:32:08.000,22.260,5.481,1791.036272
16 Dec 2019 17:32:09.000,22.485,5.455,1793.157808
16 Dec 2019 17:32:10.000,22.710,5.430,1795.303480
16 Dec 2019 17:32:11.000,22.934,5.403,1797.473201
16 Dec 2019 17:32:12.000,23.157,5.377,1799.666880
16 Dec 2019 17:32:13.000,23.380,5.351,1801.884426
16 Dec 2019 17:32:14.000,23.602,5.324,1804.125751
16 Dec 2019 17:32:15.000,23.824,5.297,1806.390765
16 Dec 2019 17:32:16.000,24.045,5.269,1808.679372
16 Dec 2019 17:32:17.000,24.266,5.242,1810.991483
16 Dec 2019 17:32:18.000,24.486,5.214,1813.327004
16 Dec 2019 17:32:19.000,24.705,5.186,1815.685844
16 Dec 2019 17:32:20.000,24.924,5.158,1818.067910
16 Dec 2019 17:32:21.000,25.142,5.129,1820.473105
16 Dec 2019 17:32:22.000,25.360,5.100,1822.901336
16 Dec 2019 17:32:23.000,25.577,5.072,1825.352509
16 Dec 2019 17:32:24.000,25.793,5.042,1827.826530
16 Dec 2019 17:32:25.000,26.009,5.013,1830.323303
16 Dec 2019 17:32:26.000,26.225,4.983,1832.842730
16 Dec 2019 17:32:27.000,26.439,4.954,1835.384717
16 Dec 2019 17:32:28.000,26.653,4.924,1837.949166
16 Dec 2019 17:32:29.000,26.867,4.893,1840.535983
16 Dec 2019 17:32:30.000,27.080,4.863,1843.145068
16 Dec 2019 17:32:31.000,27.292,4.832,1845.776327
16 Dec 2019 17:32:32.000,27.504,4.802,1848.429658
16 Dec 2019 17:32:33.000,27.715,4.771,1851.104966
16 Dec 2019 17:32:34.000,27.925,4.739,1853.802151
16 Dec 2019 17:32:35.000,28.135,4.708,1856.521117
16 Dec 2019 17:32:36.000,28.344,4.676,1859.261764
16 Dec 2019 17:32:37.000,28.552,4.645,1862.023993
16 Dec 2019 17:32:38.000,28.760,4.613,1864.807706
16 Dec 2019 17:32:39.000,28.967,4.580,1867.612802
16 Dec 2019 17:32:40.000,29.174,4.548,1870.439184
16 Dec 2019 17:32:41.000,29.380,4.516,1873.286751
16 Dec 2019 17:32:42.000,29.585,4.483,1876.155403
16 Dec 2019 17:32:43.000,29.790,4.450,1879.045042
16 Dec 2019 17:32:44.000,29.994,4.417,1881.955566
16 Dec 2019 17:32:45.000,30.198,4.384,1884.886878
16 Dec 2019 17:32:46.000,30.400,4.350,1887.838875
16 Dec 2019 17:32:47.000,30.603,4.317,1890.811456
16 Dec 2019 17:32:48.000,30.804,4.283,1893.804524
16 Dec 2019 17:32:49.000,31.005,4.249,1896.817976
16 Dec 2019 17:32:50.000,31.205,4.215,1899.851712
16 Dec 2019 17:32:51.000,31.405,4.181,1902.905633
16 Dec 2019 17:32:52.000,31.604,4.146,1905.979636
16 Dec 2019 17:32:53.000,31.802,4.112,1909.073624
16 Dec 2019 17:32:54.000,32.000,4.077,1912.187495
16 Dec 2019 17:32:55.000,32.197,4.042,1915.321148
16 Dec 2019 17:32:56.000,32.393,4.007,1918.474483
16 Dec 2019 17:32:57.000,32.588,3.972,1921.647399
16 Dec 2019 17:32:58.000,32.784,3.937,1924.839796
16 Dec 2019 17:32:59.000,32.978,3.901,1928.051574
16 Dec 2019 17:33:00.000,33.172,3.866,1931.282633
16 Dec 2019 17:33:01.000,33.365,3.830,1934.532871
16 Dec 2019 17:33:02.000,33.557,3.794,1937.802190
16 Dec 2019 17:33:03.000,33.749,3.758,1941.090488
16 Dec 2019 17:33:04.000,33.940,3.722,1944.397666
16 Dec 2019 17:33:05.000,34.130,3.686,1947.723624
16 Dec 2019 17:33:06.000,34.320,3.649,1951.068263
16 Dec 2019 17:33:07.000,34.509,3.613,1954.431479
16 Dec 2019 17:33:08.000,34.698,3.576,1957.813179
16 Dec 2019 17:33:09.000,34.886,3.540,1961.213261
16 Dec 2019 17:33:10.000,35.073,3.503,1964.631624
16 Dec 2019 17:33:11.000,35.259,3.466,1968.068171
16 Dec 2019 17:33:12.000,35.445,3.429,1971.522803
16 Dec 2019 17:33:13.000,35.630,3.391,1974.995419
16 Dec 2019 17:33:14.000,35.815,3.354,1978.485921
16 Dec 2019 17:33:15.000,35.999,3.317,1981.994213
16 Dec 2019 17:33:16.000,36.182,3.279,1985.520195
16 Dec 2019 17:33:17.000,36.365,3.241,1989.063769
16 Dec 2019 17:33:18.000,36.547,3.204,1992.624838
16 Dec 2019 17:33:19.000,36.728,3.166,1996.203301
16 Dec 2019 17:33:20.000,36.908,3.128,1999.799065
16 Dec 2019 17:33:21.000,37.088,3.090,2003.412032
16 Dec 2019 17:33:22.000,37.268,3.051,2007.042103
16 Dec 2019 17:33:23.000,37.446,3.013,2010.689183
16 Dec 2019 17:33:24.000,37.624,2.975,2014.353172
16 Dec 2019 17:33:25.000,37.802,2.936,2018.033980
16 Dec 2019 17:33:26.000,37.979,2.898,2021.731507
16 Dec 2019 17:33:27.000,38.155,2.859,2025.445657
16 Dec 2019 17:33:28.000,38.330,2.820,2029.176337
16 Dec 2019 17:33:29.000,38.505,2.781,2032.923447
16 Dec 2019 17:33:30.000,38.679,2.742,2036.686897
16 Dec 2019 17:33:31.000,38.853,2.703,2040.466592
16 Dec 2019 17:33:32.000,39.026,2.664,2044.262433
16 Dec 2019 17:33:33.000,39.198,2.625,2048.074332
16 Dec 2019 17:33:34.000,39.369,2.586,2051.902192
16 Dec 2019 17:33:35.000,39.540,2.546,2055.745920
16 Dec 2019 17:33:36.000,39.711,2.507,2059.605421
16 Dec 2019 17:33:37.000,39.880,2.468,2063.480606
16 Dec 2019 17:33:38.000,40.049,2.428,2067.371380
16 Dec 2019 17:33:39.000,40.218,2.388,2071.277651
16 Dec 2019 17:33:40.000,40.386,2.349,2075.199325
16 Dec 2019 17:33:41.000,40.553,2.309,2079.136315
16 Dec 2019 17:33:42.000,40.719,2.269,2083.088528
16 Dec 2019 17:33:43.000,40.885,2.229,2087.055869
16 Dec 2019 17:33:44.000,41.051,2.189,2091.038254
16 Dec 2019 17:33:45.000,41.215,2.149,2095.035589
16 Dec 2019 17:33:46.000,41.379,2.109,2099.047783
16 Dec 2019 17:33:47.000,41.543,2.069,2103.074750
16 Dec 2019 17:33:48.000,41.705,2.028,2107.116399
16 Dec 2019 17:33:49.000,41.868,1.988,2111.172638
16 Dec 2019 17:33:50.000,42.029,1.948,2115.243384
16 Dec 2019 17:33:51.000,42.190,1.907,2119.328546
16 Dec 2019 17:33:52.000,42.350,1.867,2123.428034
16 Dec 2019 17:33:53.000,42.510,1.826,2127.541766
16 Dec 2019 17:33:54.000,42.669,1.786,2131.669649
16 Dec 2019 17:33:55.000,42.828,1.745,2135.811602
16 Dec 2019 17:33:56.000,42.985,1.704,2139.967535
16 Dec 2019 17:33:57.000,43.143,1.664,2144.137361
16 Dec 2019 17:33:58.000,43.299,1.623,2148.320999
16 Dec 2019 17:33:59.000,43.455,1.582,2152.518357
16 Dec 2019 17:34:00.000,43.611,1.541,2156.729358
16 Dec 2019 17:34:01.000,43.766,1.500,2160.953913
16 Dec 2019 17:34:02.000,43.920,1.459,2165.191936
16 Dec 2019 17:34:03.000,44.074,1.418,2169.443349
16 Dec 2019 17:34:04.000,44.227,1.377,2173.708062
16 Dec 2019 17:34:05.000,44.379,1.336,2177.985998
16 Dec 2019 17:34:06.000,44.531,1.295,2182.277073
16 Dec 2019 17:34:07.000,44.682,1.254,2186.581200
16 Dec 2019 17:34:08.000,44.833,1.213,2190.898304
16 Dec 2019 17:34:09.000,44.983,1.172,2195.228297
16 Dec 2019 17:34:10.000,45.133,1.130,2199.571105
16 Dec 2019 17:34:11.000,45.282,1.089,2203.926641
16 Dec 2019 17:34:12.000,45.430,1.048,2208.294830
16 Dec 2019 17:34:13.000,45.578,1.006,2212.675587
16 Dec 2019 17:34:14.000,45.725,0.965,2217.068838
16 Dec 2019 17:34:15.000,45.872,0.923,2221.474499
16 Dec 2019 17:34:16.000,46.018,0.882,2225.892495
16 Dec 2019 17:34:17.000,46.163,0.840,2230.322747
16 Dec 2019 17:34:18.000,46.308,0.799,2234.765174
16 Dec 2019 17:34:19.000,46.453,0.757,2239.219703
16 Dec 2019 17:34:20.000,46.597,0.716,2243.686252
16 Dec 2019 17:34:21.000,46.740,0.674,2248.164750
16 Dec 2019 17:34:22.000,46.883,0.633,2252.655114
16 Dec 2019 17:34:23.000,47.025,0.591,2257.157276
16 Dec 2019 17:34:24.000,47.166,0.549,2261.671153
16 Dec 2019 17:34:25.000,47.307,0.507,2266.196675
16 Dec 2019 17:34:26.000,47.448,0.466,2270.733764
16 Dec 2019 17:34:27.000,47.588,0.424,2275.282349
16 Dec 2019 17:34:28.000,47.727,0.382,2279.842352
16 Dec 2019 17:34:29.000,47.866,0.341,2284.413704
16 Dec 2019 17:34:30.000,48.004,0.299,2288.996327
16 Dec 2019 17:34:31.000,48.142,0.257,2293.590150
16 Dec 2019 17:34:32.000,48.279,0.215,2298.195105
16 Dec 2019 17:34:33.000,48.416,0.173,2302.811113
16 Dec 2019 17:34:34.000,48.552,0.131,2307.438109
16 Dec 2019 17:34:35.000,48.688,0.090,2312.076016
16 Dec 2019 17:34:36.000,48.823,0.048,2316.724768
16 Dec 2019 17:34:37.000,48.957,0.006,2321.384290
16 Dec 2019 17:34:38.000,49.091,-0.036,2326.054517
16 Dec 2019 17:34:38.459,49.153,-0.055,2328.202612
16 Dec 2019 19:03:48.504,321.782,-0.056,2328.330097
16 Dec 2019 19:03:49.000,321.829,-0.029,2325.402872
16 Dec 2019 19:03:50.000,321.925,0.024,2319.506836
16 Dec 2019 19:03:51.000,322.020,0.077,2313.616058
16 Dec 2019 19:03:52.000,322.116,0.130,2307.730585
16 Dec 2019 19:03:53.000,322.213,0.183,2301.850466
16 Dec 2019 19:03:54.000,322.310,0.236,2295.975749
16 Dec 2019 19:03:55.000,322.407,0.289,2290.106481
16 Dec 2019 19:03:56.000,322.505,0.343,2284.242712
16 Dec 2019 19:03:57.000,322.604,0.396,2278.384493
16 Dec 2019 19:03:58.000,322.703,0.450,2272.531871
16 Dec 2019 19:03:59.000,322.802,0.504,2266.684899
16 Dec 2019 19:04:00.000,322.902,0.558,2260.843627
16 Dec 2019 19:04:01.000,323.003,0.611,2255.008105
16 Dec 2019 19:04:02.000,323.104,0.665,2249.178387
16 Dec 2019 19:04:03.000,323.205,0.719,2243.354523
16 Dec 2019 19:04:04.000,323.307,0.774,2237.536568
16 Dec 2019 19:04:05.000,323.410,0.828,2231.724573
16 Dec 2019 19:04:06.000,323.513,0.882,2225.918596
16 Dec 2019 19:04:07.000,323.616,0.937,2220.118685
16 Dec 2019 19:04:08.000,323.720,0.991,2214.324897
16 Dec 2019 19:04:09.000,323.825,1.046,2208.537289
16 Dec 2019 19:04:10.000,323.930,1.101,2202.755914
16 Dec 2019 19:04:11.000,324.036,1.155,2196.980830
16 Dec 2019 19:04:12.000,324.142,1.210,2191.212094
16 Dec 2019 19:04:13.000,324.249,1.265,2185.449761
16 Dec 2019 19:04:14.000,324.356,1.320,2179.693891
16 Dec 2019 19:04:15.000,324.464,1.375,2173.944541
16 Dec 2019 19:04:16.000,324.572,1.431,2168.201770
16 Dec 2019 19:04:17.000,324.681,1.486,2162.465638
16 Dec 2019 19:04:18.000,324.791,1.542,2156.736204
16 Dec 2019 19:04:19.000,324.901,1.597,2151.013531
16 Dec 2019 19:04:20.000,325.012,1.653,2145.297676
16 Dec 2019 19:04:21.000,325.123,1.708,2139.588701
16 Dec 2019 19:04:22.000,325.235,1.764,2133.886670
16 Dec 2019 19:04:23.000,325.347,1.820,2128.191646
16 Dec 2019 19:04:24.000,325.460,1.876,2122.503690
16 Dec 2019 19:04:25.000,325.574,1.932,2116.822868
16 Dec 2019 19:04:26.000,325.688,1.989,2111.149243
16 Dec 2019 19:04:27.000,325.803,2.045,2105.482881
16 Dec 2019 19:04:28.000,325.919,2.101,2099.823847
16 Dec 2019 19:04:29.000,326.035,2.158,2094.172210
16 Dec 2019 19:04:30.000,326.151,2.214,2088.528032
16 Dec 2019 19:04:31.000,326.269,2.271,2082.891382
16 Dec 2019 19:04:32.000,326.387,2.328,2077.262330
16 Dec 2019 19:04:33.000,326.505,2.385,2071.640943
16 Dec 2019 19:04:34.000,326.624,2.442,2066.027291
16 Dec 2019 19:04:35.000,326.744,2.499,2060.421443
16 Dec 2019 19:04:36.000,326.865,2.556,2054.823472
16 Dec 2019 19:04:37.000,326.986,2.613,2049.233449
16 Dec 2019 19:04:38.000,327.108,2.671,2043.651443
16 Dec 2019 19:04:39.000,327.230,2.728,2038.077529
16 Dec 2019 19:04:40.000,327.353,2.786,2032.511779
16 Dec 2019 19:04:41.000,327.477,2.843,2026.954268
16 Dec 2019 19:04:42.000,327.601,2.901,2021.405070
16 Dec 2019 19:04:43.000,327.727,2.959,2015.864262
16 Dec 2019 19:04:44.000,327.852,3.017,2010.331920
16 Dec 2019 19:04:45.000,327.979,3.075,2004.808117
16 Dec 2019 19:04:46.000,328.106,3.133,1999.292934
16 Dec 2019 19:04:47.000,328.234,3.191,1993.786448
16 Dec 2019 19:04:48.000,328.363,3.249,1988.288738
16 Dec 2019 19:04:49.000,328.492,3.308,1982.799884
16 Dec 2019 19:04:50.000,328.622,3.366,1977.319968
16 Dec 2019 19:04:51.000,328.753,3.425,1971.849068
16 Dec 2019 19:04:52.000,328.884,3.484,1966.387267
16 Dec 2019 19:04:53.000,329.016,3.542,1960.934648
16 Dec 2019 19:04:54.000,329.149,3.601,1955.491294
16 Dec 2019 19:04:55.000,329.283,3.660,1950.057289
16 Dec 2019 19:04:56.000,329.417,3.719,1944.632721
16 Dec 2019 19:04:57.000,329.553,3.778,1939.217672
16 Dec 2019 19:04:58.000,329.688,3.838,1933.812229
16 Dec 2019 19:04:59.000,329.825,3.897,1928.416480
16 Dec 2019 19:05:00.000,329.963,3.956,1923.030514
16 Dec 2019 19:05:01.000,330.101,4.016,1917.654420
16 Dec 2019 19:05:02.000,330.240,4.076,1912.288286
16 Dec 2019 19:05:03.000,330.380,4.135,1906.932203
16 Dec 2019 19:05:04.000,330.520,4.195,1901.586263
16 Dec 2019 19:05:05.000,330.661,4.255,1896.250559
16 Dec 2019 19:05:06.000,330.804,4.315,1890.925185
16 Dec 2019 19:05:07.000,330.947,4.375,1885.610231
16 Dec 2019 19:05:08.000,331.090,4.435,1880.305795
16 Dec 2019 19:05:09.000,331.235,4.496,1875.011972
16 Dec 2019 19:05:10.000,331.380,4.556,1869.728860
16 Dec 2019 19:05:11.000,331.527,4.616,1864.456553
16 Dec 2019 19:05:12.000,331.674,4.677,1859.195151
16 Dec 2019 19:05:13.000,331.822,4.737,1853.944755
16 Dec 2019 19:05:14.000,331.970,4.798,1848.705464
16 Dec 2019 19:05:15.000,332.120,4.859,1843.477378
16 Dec 2019 19:05:16.000,332.270,4.920,1838.260600
16 Dec 2019 19:05:17.000,332.422,4.981,1833.055232
16 Dec 2019 19:05:18.000,332.574,5.042,1827.861380
16 Dec 2019 19:05:19.000,332.727,5.103,1822.679146
16 Dec 2019 19:05:20.000,332.881,5.164,1817.508637
16 Dec 2019 19:05:21.000,333.036,5.225,1812.349960
16 Dec 2019 19:05:22.000,333.191,5.287,1807.203223
16 Dec 2019 19:05:23.000,333.348,5.348,1802.068533
16 Dec 2019 19:05:24.000,333.506,5.410,1796.946000
16 Dec 2019 19:05:25.000,333.664,5.471,1791.835737
16 Dec 2019 19:05:26.000,333.823,5.533,1786.737851
16 Dec 2019 19:05:27.000,333.984,5.595,1781.652457
16 Dec 2019 19:05:28.000,334.145,5.656,1776.579669
16 Dec 2019 19:05:29.000,334.307,5.718,1771.519602
16 Dec 2019 19:05:30.000,334.470,5.780,1766.472369
16 Dec 2019 19:05:31.000,334.634,5.842,1761.438088
16 Dec 2019 19:05:32.000,334.799,5.904,1756.416877
16 Dec 2019 19:05:33.000,334.965,5.967,1751.408853
16 Dec 2019 19:05:34.000,335.132,6.029,1746.414137
16 Dec 2019 19:05:35.000,335.300,6.091,1741.432850
16 Dec 2019 19:05:36.000,335.469,6.153,1736.465111
16 Dec 2019 19:05:37.000,335.639,6.216,1731.511045
16 Dec 2019 19:05:38.000,335.810,6.278,1726.570777
16 Dec 2019 19:05:39.000,335.982,6.341,1721.644428
16 Dec 2019 19:05:40.000,336.155,6.404,1716.732128
16 Dec 2019 19:05:41.000,336.328,6.466,1711.834000
16 Dec 2019 19:05:42.000,336.503,6.529,1706.950174
16 Dec 2019 19:05:43.000,336.679,6.592,1702.080781
16 Dec 2019 19:05:44.000,336.856,6.655,1697.225947
16 Dec 2019 19:05:45.000,337.034,6.717,1692.385806
16 Dec 2019 19:05:46.000,337.213,6.780,1687.560491
16 Dec 2019 19:05:47.000,337.394,6.843,1682.750133
16 Dec 2019 19:05:48.000,337.575,6.906,1677.954870
16 Dec 2019 19:05:49.000,337.757,6.970,1673.174833
16 Dec 2019 19:05:50.000,337.940,7.033,1668.410162
16 Dec 2019 19:05:51.000,338.125,7.096,1663.660996
16 Dec 2019 19:05:52.000,338.310,7.159,1658.927470
16 Dec 2019 19:05:53.000,338.497,7.222,1654.209728
16 Dec 2019 19:05:54.000,338.684,7.285,1649.507908
16 Dec 2019 19:05:55.000,338.873,7.349,1644.822154
16 Dec 2019 19:05:56.000,339.063,7.412,1640.152611
16 Dec 2019 19:05:57.000,339.254,7.475,1635.499421
16 Dec 2019 19:05:58.000,339.446,7.539,1630.862731
16 Dec 2019 19:05:59.000,339.639,7.602,1626.242687
16 Dec 2019 19:06:00.000,339.834,7.666,1621.639438
16 Dec 2019 19:06:01.000,340.029,7.729,1617.053132
16 Dec 2019 19:06:02.000,340.226,7.792,1612.483921
16 Dec 2019 19:06:03.000,340.424,7.856,1607.931955
16 Dec 2019 19:06:04.000,340.623,7.919,1603.397387
16 Dec 2019 19:06:05.000,340.823,7.983,1598.880369
16 Dec 2019 19:06:06.000,341.024,8.046,1594.381059
16 Dec 2019 19:06:07.000,341.227,8.110,1589.899610
16 Dec 2019 19:06:08.000,341.431,8.173,1585.436180
16 Dec 2019 19:06:09.000,341.636,8.237,1580.990927
16 Dec 2019 19:06:10.000,341.842,8.300,1576.564012
16 Dec 2019 19:06:11.000,342.049,8.364,1572.155593
16 Dec 2019 19:06:12.000,342.257,8.427,1567.765833
16 Dec 2019 19:06:13.000,342.467,8.490,1563.394893
16 Dec 2019 19:06:14.000,342.678,8.554,1559.042938
16 Dec 2019 19:06:15.000,342.890,8.617,1554.710133
16 Dec 2019 19:06:16.000,343.104,8.681,1550.396644
16 Dec 2019 19:06:17.000,343.318,8.744,1546.102636
16 Dec 2019 19:06:18.000,343.534,8.807,1541.828281
16 Dec 2019 19:06:19.000,343.752,8.870,1537.573745
16 Dec 2019 19:06:20.000,343.970,8.933,1533.339198
16 Dec 2019 19:06:21.000,344.190,8.997,1529.124814
16 Dec 2019 19:06:22.000,344.411,9.060,1524.930763
16 Dec 2019 19:06:23.000,344.633,9.123,1520.757221
16 Dec 2019 19:06:24.000,344.856,9.186,1516.604360
16 Dec 2019 19:06:25.000,345.081,9.248,1512.472356
16 Dec 2019 19:06:26.000,345.307,9.311,1508.361387
16 Dec 2019 19:06:27.000,345.535,9.374,1504.271629
16 Dec 2019 19:06:28.000,345.763,9.437,1500.203262
16 Dec 2019 19:06:29.000,345.993,9.499,1496.156465
16 Dec 2019 19:06:30.000,346.225,9.562,1492.131417
16 Dec 2019 19:06:31.000,346.457,9.624,1488.128303
16 Dec 2019 19:06:32.000,346.691,9.686,1484.147303
16 Dec 2019 19:06:33.000,346.927,9.749,1480.188600
16 Dec 2019 19:06:34.000,347.163,9.811,1476.252380
16 Dec 2019 19:06:35.000,347.401,9.873,1472.338827
16 Dec 2019 19:06:36.000,347.640,9.935,1468.448129
16 Dec 2019 19:06:37.000,347.881,9.996,1464.580470
16 Dec 2019 19:06:38.000,348.123,10.058,1460.736041
16 Dec 2019 19:06:39.000,348.366,10.119,1456.915029
16 Dec 2019 19:06:40.000,348.611,10.181,1453.117624
16 Dec 2019 19:06:41.000,348.857,10.242,1449.344016
16 Dec 2019 19:06:42.000,349.104,10.303,1445.594397
16 Dec 2019 19:06:43.000,349.353,10.364,1441.868958
16 Dec 2019 19:06:44.000,349.603,10.425,1438.167891
16 Dec 2019 19:06:45.000,349.854,10.485,1434.491392
16 Dec 2019 19:06:46.000,350.107,10.545,1430.839653
16 Dec 2019 19:06:47.000,350.361,10.606,1427.212868
16 Dec 2019 19:06:48.000,350.617,10.666,1423.611234
16 Dec 2019 19:06:49.000,350.874,10.725,1420.034946
16 Dec 2019 19:06:50.000,351.132,10.785,1416.484201
16 Dec 2019 19:06:51.000,351.392,10.845,1412.959196
16 Dec 2019 19:06:52.000,351.653,10.904,1409.460129
16 Dec 2019 19:06:53.000,351.915,10.963,1405.987197
16 Dec 2019 19:06:54.000,352.179,11.021,1402.540599
16 Dec 2019 19:06:55.000,352.444,11.080,1399.120534
16 Dec 2019 19:06:56.000,352.711,11.138,1395.727203
16 Dec 2019 19:06:57.000,352.979,11.196,1392.360803
16 Dec 2019 19:06:58.000,353.248,11.254,1389.021537
16 Dec 2019 19:06:59.000,353.519,11.312,1385.709603
16 Dec 2019 19:07:00.000,353.791,11.369,1382.425203
16 Dec 2019 19:07:01.000,354.065,11.426,1379.168538
16 Dec 2019 19:07:02.000,354.340,11.483,1375.939808
16 Dec 2019 19:07:03.000,354.616,11.539,1372.739215
16 Dec 2019 19:07:04.000,354.894,11.595,1369.566962
16 Dec 2019 19:07:05.000,355.173,11.651,1366.423248
16 Dec 2019 19:07:06.000,355.453,11.706,1363.308275
16 Dec 2019 19:07:07.000,355.735,11.762,1360.222245
16 Dec 2019 19:07:08.000,356.018,11.816,1357.165360
16 Dec 2019 19:07:09.000,356.303,11.871,1354.137820
16 Dec 2019 19:07:10.000,356.588,11.925,1351.139828
16 Dec 2019 19:07:11.000,356.876,11.979,1348.171583
16 Dec 2019 19:07:12.000,357.164,12.032,1345.233287
16 Dec 2019 19:07:13.000,357.454,12.086,1342.325140
16 Dec 2019 19:07:14.000,357.746,12.138,1339.447342
16 Dec 2019 19:07:15.000,358.038,12.191,1336.600094
16 Dec 2019 19:07:16.000,358.332,12.243,1333.783594
16 Dec 2019 19:07:17.000,358.628,12.294,1330.998042
16 Dec 2019 19:07:18.000,358.924,12.345,1328.243636
16 Dec 2019 19:07:19.000,359.222,12.396,1325.520573
16 Dec 2019 19:07:20.000,359.522,12.446,1322.829051
16 Dec 2019 19:07:21.000,359.823,12.496,1320.169266
16 Dec 2019 19:07:22.000,0.125,12.546,1317.541414
16 Dec 2019 19:07:23.000,0.428,12.595,1314.945690
16 Dec 2019 19:07:24.000,0.732,12.643,1312.382288
16 Dec 2019 19:07:25.000,1.038,12.691,1309.851401
16 Dec 2019 19:07:26.000,1.345,12.739,1307.353221
16 Dec 2019 19:07:27.000,1.654,12.786,1304.887940
16 Dec 2019 19:07:28.000,1.963,12.832,1302.455748
16 Dec 2019 19:07:29.000,2.274,12.878,1300.056833
16 Dec 2019 19:07:30.000,2.587,12.924,1297.691384
16 Dec 2019 19:07:31.000,2.900,12.969,1295.359586
16 Dec 2019 19:07:32.000,3.215,13.014,1293.061626
16 Dec 2019 19:07:33.000,3.530,13.058,1290.797687
16 Dec 2019 19:07:34.000,3.847,13.101,1288.567951
16 Dec 2019 19:07:35.000,4.166,13.144,1286.372599
16 Dec 2019 19:07:36.000,4.485,13.186,1284.211811
16 Dec 2019 19:07:37.000,4.806,13.228,1282.085764
16 Dec 2019 19:07:38.000,5.127,13.269,1279.994634
16 Dec 2019 19:07:39.000,5.450,13.310,1277.938596
16 Dec 2019 19:07:40.000,5.774,13.350,1275.917822
16 Dec 2019 19:07:41.000,6.099,13.389,1273.932483
16 Dec 2019 19:07:42.000,6.426,13.428,1271.982747
16 Dec 2019 19:07:43.000,6.753,13.466,1270.068781
16 Dec 2019 19:07:44.000,7.081,13.504,1268.190750
16 Dec 2019 19:07:45.000,7.411,13.541,1266.348816
16 Dec 2019 19:07:46.000,7.741,13.577,1264.543140
16 Dec 2019 19:07:47.000,8.073,13.613,1262.773878
16 Dec 2019 19:07:48.000,8.405,13.648,1261.041189
16 Dec 2019 19:07:49.000,8.739,13.682,1259.345224
16 Dec 2019 19:07:50.000,9.073,13.716,1257.686135
16 Dec 2019 19:07:51.000,9.409,13.749,1256.064071
16 Dec 2019 19:07:52.000,9.745,13.781,1254.479176
16 Dec 2019 19:07:53.000,10.082,13.812,1252.931595
16 Dec 2019 19:07:54.000,10.421,13.843,1251.421468
16 Dec 2019 19:07:55.000,10.760,13.873,1249.948934
16 Dec 2019 19:07:56.000,11.100,13.903,1248.514127
16 Dec 2019 19:07:57.000,11.440,13.932,1247.117180
16 Dec 2019 19:07:58.000,11.782,13.960,1245.758222
16 Dec 2019 19:07:59.000,12.125,13.987,1244.437380
16 Dec 2019 19:08:00.000,12.468,14.013,1243.154777
16 Dec 2019 19:08:01.000,12.812,14.039,1241.910533
16 Dec 2019 19:08:02.000,13.157,14.064,1240.704767
16 Dec 2019 19:08:03.000,13.502,14.088,1239.537591
16 Dec 2019 19:08:04.000,13.848,14.112,1238.409119
16 Dec 2019 19:08:05.000,14.195,14.134,1237.319455
16 Dec 2019 19:08:06.000,14.543,14.156,1236.268705
16 Dec 2019 19:08:07.000,14.891,14.177,1235.256971
16 Dec 2019 19:08:08.000,15.240,14.198,1234.284349
16 Dec 2019 19:08:09.000,15.589,14.217,1233.350933
16 Dec 2019 19:08:10.000,15.939,14.236,1232.456816
16 Dec 2019 19:08:11.000,16.290,14.254,1231.602082
16 Dec 2019 19:08:12.000,16.641,14.271,1230.786817
16 Dec 2019 19:08:13.000,16.992,14.287,1230.011100
16 Dec 2019 19:08:14.000,17.344,14.302,1229.275007
16 Dec 2019 19:08:15.000,17.697,14.317,1228.578610
16 Dec 2019 19:08:16.000,18.050,14.331,1227.921979
16 Dec 2019 19:08:17.000,18.403,14.344,1227.305178
16 Dec 2019 19:08:18.000,18.757,14.356,1226.728270
16 Dec 2019 19:08:19.000,19.111,14.367,1226.191310
16 Dec 2019 19:08:20.000,19.465,14.378,1225.694354
16 Dec 2019 19:08:21.000,19.820,14.387,1225.237449
16 Dec 2019 19:08:22.000,20.175,14.396,1224.820644
16 Dec 2019 19:08:23.000,20.530,14.404,1224.443978
16 Dec 2019 19:08:24.000,20.886,14.411,1224.107492
16 Dec 2019 19:08:25.000,21.241,14.417,1223.811218
16 Dec 2019 19:08:26.000,21.597,14.422,1223.555185
16 Dec 2019 19:08:27.000,21.953,14.427,1223.339421
16 Dec 2019 19:08:28.000,22.309,14.430,1223.163947
16 Dec 2019 19:08:29.000,22.665,14.433,1223.028782
16 Dec 2019 19:08:30.000,23.022,14.435,1222.933939
16 Dec 2019 19:08:31.000,23.378,14.436,1222.879429
16 Dec 2019 19:08:32.000,23.734,14.436,1222.865257
16 Dec 2019 19:08:33.000,24.091,14.436,1222.891425
16 Dec 2019 19:08:34.000,24.447,14.434,1222.957931
16 Dec 2019 19:08:35.000,24.803,14.432,1223.064769
16 Dec 2019 19:08:36.000,25.160,14.428,1223.211929
16 Dec 2019 19:08:37.000,25.516,14.424,1223.399396
16 Dec 2019 19:08:38.000,25.872,14.419,1223.627153
16 Dec 2019 19:08:39.000,26.227,14.413,1223.895176
16 Dec 2019 19:08:40.000,26.583,14.407,1224.203440
16 Dec 2019 19:08:41.000,26.938,14.399,1224.551914
16 Dec 2019 19:08:42.000,27.294,14.391,1224.940563
16 Dec 2019 19:08:43.000,27.648,14.381,1225.369351
16 Dec 2019 19:08:44.000,28.003,14.371,1225.838235
16 Dec 2019 19:08:45.000,28.357,14.360,1226.347168
16 Dec 2019 19:08:46.000,28.711,14.349,1226.896102
16 Dec 2019 19:08:47.000,29.065,14.336,1227.484981
16 Dec 2019 19:08:48.000,29.418,14.323,1228.113747
16 Dec 2019 19:08:49.000,29.771,14.308,1228.782341
16 Dec 2019 19:08:50.000,30.123,14.293,1229.490697
16 Dec 2019 19:08:51.000,30.475,14.277,1230.238745
16 Dec 2019 19:08:52.000,30.826,14.260,1231.026411
16 Dec 2019 19:08:53.000,31.177,14.243,1231.853622
16 Dec 2019 19:08:54.000,31.528,14.224,1232.720296
16 Dec 2019 19:08:55.000,31.878,14.205,1233.626350
16 Dec 2019 19:08:56.000,32.227,14.185,1234.571694
16 Dec 2019 19:08:57.000,32.575,14.164,1235.556241
16 Dec 2019 19:08:58.000,32.923,14.143,1236.579895
16 Dec 2019 19:08:59.000,33.271,14.121,1237.642557
16 Dec 2019 19:09:00.000,33.617,14.097,1238.744129
16 Dec 2019 19:09:01.000,33.963,14.073,1239.884504
16 Dec 2019 19:09:02.000,34.309,14.049,1241.063573
16 Dec 2019 19:09:03.000,34.653,14.023,1242.281229
16 Dec 2019 19:09:04.000,34.997,13.997,1243.537354
16 Dec 2019 19:09:05.000,35.340,13.970,1244.831833
16 Dec 2019 19:09:06.000,35.682,13.942,1246.164545
16 Dec 2019 19:09:07.000,36.024,13.914,1247.535364
16 Dec 2019 19:09:08.000,36.364,13.885,1248.944167
16 Dec 2019 19:09:09.000,36.704,13.855,1250.390821
16 Dec 2019 19:09:10.000,37.043,13.824,1251.875197
16 Dec 2019 19:09:11.000,37.381,13.793,1253.397156
16 Dec 2019 19:09:12.000,37.718,13.761,1254.956564
16 Dec 2019 19:09:13.000,38.054,13.728,1256.553276
16 Dec 2019 19:09:14.000,38.389,13.695,1258.187153
16 Dec 2019 19:09:15.000,38.723,13.661,1259.858045
16 Dec 2019 19:09:16.000,39.056,13.626,1261.565805
16 Dec 2019 19:09:17.000,39.388,13.591,1263.310284
16 Dec 2019 19:09:18.000,39.720,13.554,1265.091325
16 Dec 2019 19:09:19.000,40.050,13.518,1266.908776
16 Dec 2019 19:09:20.000,40.379,13.480,1268.762474
16 Dec 2019 19:09:21.000,40.707,13.442,1270.652262
16 Dec 2019 19:09:22.000,41.034,13.404,1272.577980
16 Dec 2019 19:09:23.000,41.360,13.364,1274.539457
16 Dec 2019 19:09:24.000,41.684,13.325,1276.536530
16 Dec 2019 19:09:25.000,42.008,13.284,1278.569033
16 Dec 2019 19:09:26.000,42.330,13.243,1280.636789
16 Dec 2019 19:09:27.000,42.652,13.201,1282.739630
16 Dec 2019 19:09:28.000,42.972,13.159,1284.877382
16 Dec 2019 19:09:29.000,43.291,13.117,1287.049866
16 Dec 2019 19:09:30.000,43.609,13.073,1289.256907
16 Dec 2019 19:09:31.000,43.926,13.029,1291.498326
16 Dec 2019 19:09:32.000,44.241,12.985,1293.773940
16 Dec 2019 19:09:33.000,44.555,12.940,1296.083567
16 Dec 2019 19:09:34.000,44.868,12.894,1298.427024
16 Dec 2019 19:09:35.000,45.180,12.848,1300.804126
16 Dec 2019 19:09:36.000,45.490,12.802,1303.214689
16 Dec 2019 19:09:37.000,45.800,12.755,1305.658520
16 Dec 2019 19:09:38.000,46.108,12.708,1308.135434
16 Dec 2019 19:09:39.000,46.414,12.660,1310.645239
16 Dec 2019 19:09:40.000,46.720,12.611,1313.187746
16 Dec 2019 19:09:41.000,47.024,12.562,1315.762761
16 Dec 2019 19:09:42.000,47.327,12.513,1318.370095
16 Dec 2019 19:09:43.000,47.628,12.463,1321.009549
16 Dec 2019 19:09:44.000,47.929,12.413,1323.680929
16 Dec 2019 19:09:45.000,48.227,12.362,1326.384041
16 Dec 2019 19:09:46.000,48.525,12.311,1329.118689
16 Dec 2019 19:09:47.000,48.821,12.260,1331.884674
16 Dec 2019 19:09:48.000,49.116,12.208,1334.681801
16 Dec 2019 19:09:49.000,49.410,12.155,1337.509870
16 Dec 2019 19:09:50.000,49.702,12.103,1340.368683
16 Dec 2019 19:09:51.000,49.993,12.050,1343.258041
16 Dec 2019 19:09:52.000,50.282,11.996,1346.177744
16 Dec 2019 19:09:53.000,50.570,11.942,1349.127592
16 Dec 2019 19:09:54.000,50.857,11.888,1352.107385
16 Dec 2019 19:09:55.000,51.143,11.834,1355.116923
16 Dec 2019 19:09:56.000,51.427,11.779,1358.156004
16 Dec 2019 19:09:57.000,51.709,11.724,1361.224427
16 Dec 2019 19:09:58.000,51.991,11.668,1364.321992
16 Dec 2019 19:09:59.000,52.271,11.612,1367.448498
16 Dec 2019 19:10:00.000,52.549,11.556,1370.603742
16 Dec 2019 19:10:01.000,52.826,11.500,1373.787524
16 Dec 2019 19:10:02.000,53.102,11.443,1376.999643
16 Dec 2019 19:10:03.000,53.377,11.386,1380.239897
16 Dec 2019 19:10:04.000,53.650,11.329,1383.508086
16 Dec 2019 19:10:05.000,53.921,11.271,1386.804008
16 Dec 2019 19:10:06.000,54.191,11.213,1390.127464
16 Dec 2019 19:10:07.000,54.460,11.155,1393.478251
16 Dec 2019 19:10:08.000,54.728,11.097,1396.856171
16 Dec 2019 19:10:09.000,54.994,11.038,1400.261021
16 Dec 2019 19:10:10.000,55.258,10.980,1403.692607
16 Dec 2019 19:10:11.000,55.522,10.920,1407.150726
16 Dec 2019 19:10:12.000,55.784,10.861,1410.635181
16 Dec 2019 19:10:13.000,56.044,10.802,1414.145772
16 Dec 2019 19:10:14.000,56.303,10.742,1417.682303
16 Dec 2019 19:10:15.000,56.561,10.682,1421.244572
16 Dec 2019 19:10:16.000,56.818,10.622,1424.832389
16 Dec 2019 19:10:17.000,57.073,10.562,1428.445555
16 Dec 2019 19:10:18.000,57.326,10.501,1432.083874
16 Dec 2019 19:10:19.000,57.578,10.441,1435.747151
16 Dec 2019 19:10:20.000,57.829,10.380,1439.435189
16 Dec 2019 19:10:21.000,58.079,10.319,1443.147799
16 Dec 2019 19:10:22.000,58.327,10.258,1446.884787
16 Dec 2019 19:10:23.000,58.574,10.196,1450.645959
16 Dec 2019 19:10:24.000,58.819,10.135,1454.431121
16 Dec 2019 19:10:25.000,59.063,10.073,1458.240088
16 Dec 2019 19:10:26.000,59.306,10.012,1462.072667
16 Dec 2019 19:10:27.000,59.548,9.950,1465.928670
16 Dec 2019 19:10:28.000,59.788,9.888,1469.807903
16 Dec 2019 19:10:29.000,60.026,9.826,1473.710187
16 Dec 2019 19:10:30.000,60.264,9.763,1477.635331
16 Dec 2019 19:10:31.000,60.500,9.701,1481.583147
16 Dec 2019 19:10:32.000,60.734,9.639,1485.553455
16 Dec 2019 19:10:33.000,60.968,9.576,1489.546068
16 Dec 2019 19:10:34.000,61.200,9.514,1493.560800
16 Dec 2019 19:10:35.000,61.431,9.451,1497.597476
16 Dec 2019 19:10:36.000,61.660,9.388,1501.655911
16 Dec 2019 19:10:37.000,61.888,9.325,1505.735921
16 Dec 2019 19:10:38.000,62.115,9.262,1509.837333
16 Dec 2019 19:10:39.000,62.341,9.199,1513.959967
16 Dec 2019 19:10:40.000,62.565,9.136,1518.103641
16 Dec 2019 19:10:41.000,62.788,9.073,1522.268187
16 Dec 2019 19:10:42.000,63.009,9.010,1526.453421
16 Dec 2019 19:10:43.000,63.230,8.946,1530.659177
16 Dec 2019 19:10:44.000,63.449,8.883,1534.885277
16 Dec 2019 19:10:45.000,63.667,8.820,1539.131548
16 Dec 2019 19:10:46.000,63.883,8.756,1543.397823
16 Dec 2019 19:10:47.000,64.099,8.693,1547.683927
16 Dec 2019 19:10:48.000,64.313,8.629,1551.989698
16 Dec 2019 19:10:49.000,64.526,8.566,1556.314963
16 Dec 2019 19:10:50.000,64.737,8.502,1560.659554
16 Dec 2019 19:10:51.000,64.948,8.439,1565.023311
16 Dec 2019 19:10:52.000,65.157,8.375,1569.406062
16 Dec 2019 19:10:53.000,65.365,8.311,1573.807652
16 Dec 2019 19:10:54.000,65.572,8.248,1578.227912
16 Dec 2019 19:10:55.000,65.777,8.184,1582.666686
16 Dec 2019 19:10:56.000,65.982,8.120,1587.123808
16 Dec 2019 19:10:57.000,66.185,8.057,1591.599125
16 Dec 2019 19:10:58.000,66.387,7.993,1596.092474
16 Dec 2019 19:10:59.000,66.587,7.929,1600.603704
16 Dec 2019 19:11:00.000,66.787,7.866,1605.132653
16 Dec 2019 19:11:01.000,66.985,7.802,1609.679172
16 Dec 2019 19:11:02.000,67.183,7.739,1614.243103
16 Dec 2019 19:11:03.000,67.379,7.675,1618.824300
16 Dec 2019 19:11:04.000,67.574,7.611,1623.422604
16 Dec 2019 19:11:05.000,67.768,7.548,1628.037872
16 Dec 2019 19:11:06.000,67.960,7.484,1632.669950
16 Dec 2019 19:11:07.000,68.152,7.421,1637.318695
16 Dec 2019 19:11:08.000,68.342,7.357,1641.983955
16 Dec 2019 19:11:09.000,68.532,7.294,1646.665588
16 Dec 2019 19:11:10.000,68.720,7.230,1651.363452
16 Dec 2019 19:11:11.000,68.907,7.167,1656.077398
16 Dec 2019 19:11:12.000,69.093,7.103,1660.807291
16 Dec 2019 19:11:13.000,69.278,7.040,1665.552982
16 Dec 2019 19:11:14.000,69.462,6.977,1670.314339
16 Dec 2019 19:11:15.000,69.644,6.913,1675.091216
16 Dec 2019 19:11:16.000,69.826,6.850,1679.883478
16 Dec 2019 19:11:17.000,70.007,6.787,1684.690994
16 Dec 2019 19:11:18.000,70.186,6.724,1689.513620
16 Dec 2019 19:11:19.000,70.365,6.661,1694.351230
16 Dec 2019 19:11:20.000,70.542,6.598,1699.203682
16 Dec 2019 19:11:21.000,70.718,6.535,1704.070849
16 Dec 2019 19:11:22.000,70.894,6.472,1708.952603
16 Dec 2019 19:11:23.000,71.068,6.409,1713.848807
16 Dec 2019 19:11:24.000,71.241,6.346,1718.759335
16 Dec 2019 19:11:25.000,71.414,6.283,1723.684064
16 Dec 2019 19:11:26.000,71.585,6.221,1728.622860
16 Dec 2019 19:11:27.000,71.755,6.158,1733.575603
16 Dec 2019 19:11:28.000,71.925,6.095,1738.542163
16 Dec 2019 19:11:29.000,72.093,6.033,1743.522419
16 Dec 2019 19:11:30.000,72.260,5.970,1748.516253
16 Dec 2019 19:11:31.000,72.427,5.908,1753.523536
16 Dec 2019 19:11:32.000,72.592,5.846,1758.544151
16 Dec 2019 19:11:33.000,72.756,5.783,1763.577983
16 Dec 2019 19:11:34.000,72.920,5.721,1768.624905
16 Dec 2019 19:11:35.000,73.082,5.659,1773.684804
16 Dec 2019 19:11:36.000,73.244,5.597,1778.757565
16 Dec 2019 19:11:37.000,73.405,5.535,1783.843075
16 Dec 2019 19:11:38.000,73.564,5.473,1788.941212
16 Dec 2019 19:11:39.000,73.723,5.412,1794.051868
16 Dec 2019 19:11:40.000,73.881,5.350,1799.174933
16 Dec 2019 19:11:41.000,74.038,5.288,1804.310290
16 Dec 2019 19:11:42.000,74.194,5.227,1809.457830
16 Dec 2019 19:11:43.000,74.349,5.165,1814.617449
16 Dec 2019 19:11:44.000,74.503,5.104,1819.789031
16 Dec 2019 19:11:45.000,74.657,5.042,1824.972473
16 Dec 2019 19:11:46.000,74.809,4.981,1830.167667
16 Dec 2019 19:11:47.000,74.961,4.920,1835.374512
16 Dec 2019 19:11:48.000,75.111,4.859,1840.592896
16 Dec 2019 19:11:49.000,75.261,4.798,1845.822719
16 Dec 2019 19:11:50.000,75.410,4.737,1851.063879
16 Dec 2019 19:11:51.000,75.558,4.676,1856.316277
16 Dec 2019 19:11:52.000,75.706,4.615,1861.579805
16 Dec 2019 19:11:53.000,75.852,4.555,1866.854366
16 Dec 2019 19:11:54.000,75.998,4.494,1872.139863
16 Dec 2019 19:11:55.000,76.143,4.434,1877.436200
16 Dec 2019 19:11:56.000,76.287,4.373,1882.743272
16 Dec 2019 19:11:57.000,76.430,4.313,1888.060987
16 Dec 2019 19:11:58.000,76.572,4.253,1893.389250
16 Dec 2019 19:11:59.000,76.714,4.193,1898.727969
16 Dec 2019 19:12:00.000,76.854,4.133,1904.077043
16 Dec 2019 19:12:01.000,76.994,4.073,1909.436384
16 Dec 2019 19:12:02.000,77.133,4.013,1914.805898
16 Dec 2019 19:12:03.000,77.272,3.953,1920.185494
16 Dec 2019 19:12:04.000,77.409,3.894,1925.575087
16 Dec 2019 19:12:05.000,77.546,3.834,1930.974578
16 Dec 2019 19:12:06.000,77.682,3.775,1936.383884
16 Dec 2019 19:12:07.000,77.818,3.715,1941.802915
16 Dec 2019 19:12:08.000,77.952,3.656,1947.231585
16 Dec 2019 19:12:09.000,78.086,3.597,1952.669810
16 Dec 2019 19:12:10.000,78.219,3.538,1958.117499
16 Dec 2019 19:12:11.000,78.351,3.479,1963.574569
16 Dec 2019 19:12:12.000,78.483,3.420,1969.040938
16 Dec 2019 19:12:13.000,78.614,3.361,1974.516520
16 Dec 2019 19:12:14.000,78.744,3.302,1980.001235
16 Dec 2019 19:12:15.000,78.873,3.244,1985.495004
16 Dec 2019 19:12:16.000,79.002,3.185,1990.997739
16 Dec 2019 19:12:17.000,79.130,3.127,1996.509363
16 Dec 2019 19:12:18.000,79.257,3.068,2002.029796
16 Dec 2019 19:12:19.000,79.384,3.010,2007.558960
16 Dec 2019 19:12:20.000,79.510,2.952,2013.096777
16 Dec 2019 19:12:21.000,79.635,2.894,2018.643173
16 Dec 2019 19:12:22.000,79.759,2.836,2024.198064
16 Dec 2019 19:12:23.000,79.883,2.778,2029.761378
16 Dec 2019 19:12:24.000,80.006,2.720,2035.333040
16 Dec 2019 19:12:25.000,80.129,2.663,2040.912975
16 Dec 2019 19:12:26.000,80.251,2.605,2046.501109
16 Dec 2019 19:12:27.000,80.372,2.548,2052.097369
16 Dec 2019 19:12:28.000,80.492,2.490,2057.701686
16 Dec 2019 19:12:29.000,80.612,2.433,2063.313981
16 Dec 2019 19:12:30.000,80.731,2.376,2068.934187
16 Dec 2019 19:12:31.000,80.850,2.319,2074.562233
16 Dec 2019 19:12:32.000,80.968,2.262,2080.198050
16 Dec 2019 19:12:33.000,81.085,2.205,2085.841567
16 Dec 2019 19:12:34.000,81.202,2.148,2091.492716
16 Dec 2019 19:12:35.000,81.318,2.091,2097.151430
16 Dec 2019 19:12:36.000,81.433,2.035,2102.817641
16 Dec 2019 19:12:37.000,81.548,1.978,2108.491286
16 Dec 2019 19:12:38.000,81.662,1.922,2114.172291
16 Dec 2019 19:12:39.000,81.776,1.866,2119.860596
16 Dec 2019 19:12:40.000,81.889,1.809,2125.556133
16 Dec 2019 19:12:41.000,82.001,1.753,2131.258841
16 Dec 2019 19:12:42.000,82.113,1.697,2136.968654
16 Dec 2019 19:12:43.000,82.224,1.641,2142.685509
16 Dec 2019 19:12:44.000,82.335,1.585,2148.409345
16 Dec 2019 19:12:45.000,82.445,1.530,2154.140098
16 Dec 2019 19:12:46.000,82.554,1.474,2159.877708
16 Dec 2019 19:12:47.000,82.663,1.418,2165.622117
16 Dec 2019 19:12:48.000,82.772,1.363,2171.373259
16 Dec 2019 19:12:49.000,82.880,1.308,2177.131075
16 Dec 2019 19:12:50.000,82.987,1.252,2182.895508
16 Dec 2019 19:12:51.000,83.093,1.197,2188.666499
16 Dec 2019 19:12:52.000,83.199,1.142,2194.443989
16 Dec 2019 19:12:53.000,83.305,1.087,2200.227921
16 Dec 2019 19:12:54.000,83.410,1.032,2206.018237
16 Dec 2019 19:12:55.000,83.515,0.977,2211.814882
16 Dec 2019 19:12:56.000,83.619,0.923,2217.617799
16 Dec 2019 19:12:57.000,83.722,0.868,2223.426932
16 Dec 2019 19:12:58.000,83.825,0.813,2229.242227
16 Dec 2019 19:12:59.000,83.927,0.759,2235.063629
16 Dec 2019 19:13:00.000,84.029,0.705,2240.891083
16 Dec 2019 19:13:01.000,84.130,0.650,2246.724541
16 Dec 2019 19:13:02.000,84.231,0.596,2252.563940
16 Dec 2019 19:13:03.000,84.331,0.542,2258.409234
16 Dec 2019 19:13:04.000,84.431,0.488,2264.260368
16 Dec 2019 19:13:05.000,84.531,0.434,2270.117292
16 Dec 2019 19:13:06.000,84.629,0.380,2275.979955
16 Dec 2019 19:13:07.000,84.728,0.327,2281.848305
16 Dec 2019 19:13:08.000,84.825,0.273,2287.722292
16 Dec 2019 19:13:09.000,84.923,0.219,2293.601867
16 Dec 2019 19:13:10.000,85.020,0.166,2299.486979
16 Dec 2019 19:13:11.000,85.116,0.113,2305.377581
16 Dec 2019 19:13:12.000,85.212,0.059,2311.273623
16 Dec 2019 19:13:13.000,85.307,0.006,2317.175057
16 Dec 2019 19:13:14.000,85.402,-0.047,2323.081837
16 Dec 2019 19:13:14.157,85.417,-0.055,2324.010031
16 Dec 2019 20:40:02.506,309.945,-0.055,2328.092179
16 Dec 2019 20:40:03.000,309.946,-0.025,2324.671667
16 Dec 2019 20:40:04.000,309.949,0.037,2317.750038
16 Dec 2019 20:40:05.000,309.952,0.099,2310.828395
16 Dec 2019 20:40:06.000,309.955,0.162,2303.906748
16 Dec 2019 20:40:07.000,309.957,0.225,2296.985101
16 Dec 2019 20:40:08.000,309.960,0.287,2290.063469
16 Dec 2019 20:40:09.000,309.963,0.350,2283.141857
16 Dec 2019 20:40:10.000,309.966,0.414,2276.220270
16 Dec 2019 20:40:11.000,309.969,0.477,2269.298724
16 Dec 2019 20:40:12.000,309.972,0.541,2262.377223
16 Dec 2019 20:40:13.000,309.975,0.604,2255.455774
16 Dec 2019 20:40:14.000,309.977,0.668,2248.534391
16 Dec 2019 20:40:15.000,309.980,0.733,2241.613081
16 Dec 2019 20:40:16.000,309.983,0.797,2234.691849
16 Dec 2019 20:40:17.000,309.986,0.862,2227.770710
16 Dec 2019 20:40:18.000,309.989,0.926,2220.849670
16 Dec 2019 20:40:19.000,309.992,0.992,2213.928739
16 Dec 2019 20:40:20.000,309.994,1.057,2207.007923
16 Dec 2019 20:40:21.000,309.997,1.122,2200.087238
16 Dec 2019 20:40:22.000,310.000,1.188,2193.166690
16 Dec 2019 20:40:23.000,310.003,1.254,2186.246285
16 Dec 2019 20:40:24.000,310.006,1.320,2179.326039
16 Dec 2019 20:40:25.000,310.008,1.386,2172.405960
16 Dec 2019 20:40:26.000,310.011,1.453,2165.486053
16 Dec 2019 20:40:27.000,310.014,1.520,2158.566336
16 Dec 2019 20:40:28.000,310.017,1.587,2151.646814
16 Dec 2019 20:40:29.000,310.020,1.654,2144.727496
16 Dec 2019 20:40:30.000,310.022,1.721,2137.808398
16 Dec 2019 20:40:31.000,310.025,1.789,2130.889526
16 Dec 2019 20:40:32.000,310.028,1.857,2123.970893
16 Dec 2019 20:40:33.000,310.031,1.925,2117.052504
16 Dec 2019 20:40:34.000,310.034,1.994,2110.134378
16 Dec 2019 20:40:35.000,310.036,2.063,2103.216521
16 Dec 2019 20:40:36.000,310.039,2.131,2096.298942
16 Dec 2019 20:40:37.000,310.042,2.201,2089.381658
16 Dec 2019 20:40:38.000,310.045,2.270,2082.464677
16 Dec 2019 20:40:39.000,310.048,2.340,2075.548008
16 Dec 2019 20:40:40.000,310.050,2.410,2068.631668
16 Dec 2019 20:40:41.000,310.053,2.480,2061.715665
16 Dec 2019 20:40:42.000,310.056,2.551,2054.800009
16 Dec 2019 20:40:43.000,310.059,2.621,2047.884716
16 Dec 2019 20:40:44.000,310.061,2.692,2040.969797
16 Dec 2019 20:40:45.000,310.064,2.764,2034.055263
16 Dec 2019 20:40:46.000,310.067,2.835,2027.141124
16 Dec 2019 20:40:47.000,310.070,2.907,2020.227397
16 Dec 2019 20:40:48.000,310.072,2.979,2013.314093
16 Dec 2019 20:40:49.000,310.075,3.052,2006.401222
16 Dec 2019 20:40:50.000,310.078,3.124,1999.488801
16 Dec 2019 20:40:51.000,310.080,3.197,1992.576841
16 Dec 2019 20:40:52.000,310.083,3.271,1985.665352
16 Dec 2019 20:40:53.000,310.086,3.344,1978.754354
16 Dec 2019 20:40:54.000,310.089,3.418,1971.843856
16 Dec 2019 20:40:55.000,310.091,3.492,1964.933870
16 Dec 2019 20:40:56.000,310.094,3.567,1958.024415
16 Dec 2019 20:40:57.000,310.097,3.641,1951.115502
16 Dec 2019 20:40:58.000,310.099,3.717,1944.207145
16 Dec 2019 20:40:59.000,310.102,3.792,1937.299356
16 Dec 2019 20:41:00.000,310.105,3.868,1930.392154
16 Dec 2019 20:41:01.000,310.108,3.944,1923.485552
16 Dec 2019 20:41:02.000,310.110,4.020,1916.579562
16 Dec 2019 20:41:03.000,310.113,4.097,1909.674203
16 Dec 2019 20:41:04.000,310.116,4.174,1902.769489
16 Dec 2019 20:41:05.000,310.118,4.251,1895.865432
16 Dec 2019 20:41:06.000,310.121,4.329,1888.962053
16 Dec 2019 20:41:07.000,310.124,4.407,1882.059366
16 Dec 2019 20:41:08.000,310.126,4.485,1875.157385
16 Dec 2019 20:41:09.000,310.129,4.564,1868.256125
16 Dec 2019 20:41:10.000,310.132,4.643,1861.355607
16 Dec 2019 20:41:11.000,310.134,4.723,1854.455845
16 Dec 2019 20:41:12.000,310.137,4.802,1847.556853
16 Dec 2019 20:41:13.000,310.140,4.883,1840.658654
16 Dec 2019 20:41:14.000,310.142,4.963,1833.761262
16 Dec 2019 20:41:15.000,310.145,5.044,1826.864692
16 Dec 2019 20:41:16.000,310.148,5.125,1819.968967
16 Dec 2019 20:41:17.000,310.150,5.207,1813.074102
16 Dec 2019 20:41:18.000,310.153,5.289,1806.180116
16 Dec 2019 20:41:19.000,310.155,5.372,1799.287024
16 Dec 2019 20:41:20.000,310.158,5.454,1792.394849
16 Dec 2019 20:41:21.000,310.161,5.538,1785.503610
16 Dec 2019 20:41:22.000,310.163,5.621,1778.613320
16 Dec 2019 20:41:23.000,310.166,5.705,1771.724007
16 Dec 2019 20:41:24.000,310.168,5.790,1764.835686
16 Dec 2019 20:41:25.000,310.171,5.875,1757.948375
16 Dec 2019 20:41:26.000,310.174,5.960,1751.062100
16 Dec 2019 20:41:27.000,310.176,6.046,1744.176878
16 Dec 2019 20:41:28.000,310.179,6.132,1737.292730
16 Dec 2019 20:41:29.000,310.181,6.219,1730.409675
16 Dec 2019 20:41:30.000,310.184,6.306,1723.527740
16 Dec 2019 20:41:31.000,310.187,6.393,1716.646943
16 Dec 2019 20:41:32.000,310.189,6.481,1709.767304
16 Dec 2019 20:41:33.000,310.192,6.570,1702.888851
16 Dec 2019 20:41:34.000,310.194,6.659,1696.011603
16 Dec 2019 20:41:35.000,310.197,6.748,1689.135581
16 Dec 2019 20:41:36.000,310.199,6.838,1682.260814
16 Dec 2019 20:41:37.000,310.202,6.928,1675.387323
16 Dec 2019 20:41:38.000,310.204,7.019,1668.515132
16 Dec 2019 20:41:39.000,310.207,7.110,1661.644262
16 Dec 2019 20:41:40.000,310.209,7.202,1654.774744
16 Dec 2019 20:41:41.000,310.212,7.294,1647.906600
16 Dec 2019 20:41:42.000,310.215,7.387,1641.039853
16 Dec 2019 20:41:43.000,310.217,7.480,1634.174535
16 Dec 2019 20:41:44.000,310.220,7.574,1627.310669
16 Dec 2019 20:41:45.000,310.222,7.669,1620.448281
16 Dec 2019 20:41:46.000,310.225,7.764,1613.587397
16 Dec 2019 20:41:47.000,310.227,7.859,1606.728049
16 Dec 2019 20:41:48.000,310.230,7.955,1599.870263
16 Dec 2019 20:41:49.000,310.232,8.052,1593.014063
16 Dec 2019 20:41:50.000,310.235,8.149,1586.159486
16 Dec 2019 20:41:51.000,310.237,8.247,1579.306557
16 Dec 2019 20:41:52.000,310.239,8.345,1572.455306
16 Dec 2019 20:41:53.000,310.242,8.444,1565.605760
16 Dec 2019 20:41:54.000,310.244,8.543,1558.757957
16 Dec 2019 20:41:55.000,310.247,8.643,1551.911924
16 Dec 2019 20:41:56.000,310.249,8.744,1545.067691
16 Dec 2019 20:41:57.000,310.252,8.845,1538.225295
16 Dec 2019 20:41:58.000,310.254,8.947,1531.384767
16 Dec 2019 20:41:59.000,310.257,9.050,1524.546140
16 Dec 2019 20:42:00.000,310.259,9.153,1517.709445
16 Dec 2019 20:42:01.000,310.261,9.257,1510.874723
16 Dec 2019 20:42:02.000,310.264,9.362,1504.042005
16 Dec 2019 20:42:03.000,310.266,9.467,1497.211324
16 Dec 2019 20:42:04.000,310.269,9.573,1490.382723
16 Dec 2019 20:42:05.000,310.271,9.679,1483.556236
16 Dec 2019 20:42:06.000,310.273,9.787,1476.731900
16 Dec 2019 20:42:07.000,310.276,9.895,1469.909750
16 Dec 2019 20:42:08.000,310.278,10.003,1463.089832
16 Dec 2019 20:42:09.000,310.281,10.113,1456.272181
16 Dec 2019 20:42:10.000,310.283,10.223,1449.456836
16 Dec 2019 20:42:11.000,310.285,10.334,1442.643843
16 Dec 2019 20:42:12.000,310.288,10.446,1435.833240
16 Dec 2019 20:42:13.000,310.290,10.558,1429.025071
16 Dec 2019 20:42:14.000,310.292,10.671,1422.219376
16 Dec 2019 20:42:15.000,310.295,10.785,1415.416203
16 Dec 2019 20:42:16.000,310.297,10.900,1408.615596
16 Dec 2019 20:42:17.000,310.299,11.016,1401.817600
16 Dec 2019 20:42:18.000,310.302,11.132,1395.022258
16 Dec 2019 20:42:19.000,310.304,11.250,1388.229623
16 Dec 2019 20:42:20.000,310.306,11.368,1381.439741
16 Dec 2019 20:42:21.000,310.308,11.487,1374.652660
16 Dec 2019 20:42:22.000,310.311,11.607,1367.868429
16 Dec 2019 20:42:23.000,310.313,11.727,1361.087102
16 Dec 2019 20:42:24.000,310.315,11.849,1354.308730
16 Dec 2019 20:42:25.000,310.317,11.972,1347.533362
16 Dec 2019 20:42:26.000,310.320,12.095,1340.761057
16 Dec 2019 20:42:27.000,310.322,12.219,1333.991868
16 Dec 2019 20:42:28.000,310.324,12.345,1327.225851
16 Dec 2019 20:42:29.000,310.326,12.471,1320.463060
16 Dec 2019 20:42:30.000,310.329,12.599,1313.703558
16 Dec 2019 20:42:31.000,310.331,12.727,1306.947402
16 Dec 2019 20:42:32.000,310.333,12.856,1300.194652
16 Dec 2019 20:42:33.000,310.335,12.987,1293.445367
16 Dec 2019 20:42:34.000,310.337,13.118,1286.699616
16 Dec 2019 20:42:35.000,310.340,13.250,1279.957459
16 Dec 2019 20:42:36.000,310.342,13.384,1273.218962
