vcc_sched/network/input/access_odugs_wj2xoh_vcc-b_44431.csv

"Access","Start Time (UTCG)","Stop Time (UTCG)","Duration (sec)"
1,16 Dec 2019 17:27:55.648,16 Dec 2019 17:35:36.335,460.687
2,16 Dec 2019 19:04:29.872,16 Dec 2019 19:14:16.429,586.557
3,16 Dec 2019 20:40:46.180,16 Dec 2019 20:51:28.196,642.016
4,16 Dec 2019 22:18:51.572,16 Dec 2019 22:25:01.850,370.278
5,17 Dec 2019 11:43:40.723,17 Dec 2019 11:52:39.995,539.272
6,17 Dec 2019 13:18:58.136,17 Dec 2019 13:29:38.981,640.845
7,17 Dec 2019 14:56:55.858,17 Dec 2019 15:05:51.065,535.207
8,17 Dec 2019 16:35:29.246,17 Dec 2019 16:42:56.806,447.560
9,17 Dec 2019 18:12:27.754,17 Dec 2019 18:21:33.748,545.994
10,17 Dec 2019 19:48:39.487,17 Dec 2019 19:59:24.221,644.734
11,17 Dec 2019 21:25:46.652,17 Dec 2019 21:34:26.306,519.654
12,18 Dec 2019 10:52:53.278,18 Dec 2019 10:59:44.389,411.111
13,18 Dec 2019 12:26:50.406,18 Dec 2019 12:37:32.795,642.390
14,18 Dec 2019 14:04:11.356,18 Dec 2019 14:13:47.465,576.110
15,18 Dec 2019 15:42:51.529,18 Dec 2019 15:50:26.801,455.272
16,18 Dec 2019 17:20:20.993,18 Dec 2019 17:28:45.484,504.491
17,18 Dec 2019 18:56:36.195,18 Dec 2019 19:07:05.245,629.049
18,18 Dec 2019 20:33:12.990,18 Dec 2019 20:43:09.857,596.867
19,19 Dec 2019 11:34:58.228,19 Dec 2019 11:45:19.485,621.258
20,19 Dec 2019 13:11:33.865,19 Dec 2019 13:21:45.124,611.259
21,19 Dec 2019 14:50:05.208,19 Dec 2019 14:58:06.749,481.541
22,19 Dec 2019 16:28:06.685,19 Dec 2019 16:35:56.327,469.642
23,19 Dec 2019 18:04:33.920,19 Dec 2019 18:14:33.451,599.531
24,19 Dec 2019 19:40:53.816,19 Dec 2019 19:51:28.605,634.789
25,19 Dec 2019 21:19:39.280,19 Dec 2019 21:24:11.161,271.881
26,20 Dec 2019 10:43:25.497,20 Dec 2019 10:52:54.585,569.088
27,20 Dec 2019 12:19:06.308,20 Dec 2019 12:29:41.716,635.408
28,20 Dec 2019 13:57:15.113,20 Dec 2019 14:05:54.622,519.509
29,20 Dec 2019 15:35:42.062,20 Dec 2019 15:43:11.527,449.466
30,20 Dec 2019 17:12:30.423,20 Dec 2019 17:21:51.319,560.897
31,20 Dec 2019 18:48:42.697,20 Dec 2019 18:59:28.355,645.658
32,20 Dec 2019 20:26:06.423,20 Dec 2019 20:34:02.139,475.716
33,21 Dec 2019 09:52:20.625,21 Dec 2019 10:00:09.045,468.420
34,21 Dec 2019 11:26:51.017,21 Dec 2019 11:37:34.963,643.945
35,21 Dec 2019 13:04:26.419,21 Dec 2019 13:13:47.505,561.085
36,21 Dec 2019 14:43:05.851,21 Dec 2019 14:50:35.341,449.490
37,21 Dec 2019 16:20:23.260,21 Dec 2019 16:29:02.111,518.851
38,21 Dec 2019 17:56:36.016,21 Dec 2019 18:07:12.184,636.169
39,21 Dec 2019 19:33:21.842,21 Dec 2019 19:42:55.380,573.537
40,22 Dec 2019 09:02:15.534,22 Dec 2019 09:06:30.343,254.809
41,22 Dec 2019 10:34:50.325,22 Dec 2019 10:45:22.244,631.919
42,22 Dec 2019 12:11:43.437,22 Dec 2019 12:21:42.578,599.141
43,22 Dec 2019 13:50:19.666,22 Dec 2019 13:58:09.349,469.683
44,22 Dec 2019 15:28:09.626,22 Dec 2019 15:36:10.174,480.548
45,22 Dec 2019 17:04:31.191,22 Dec 2019 17:14:42.356,611.165
46,22 Dec 2019 18:40:55.885,22 Dec 2019 18:51:19.907,624.022
47,22 Dec 2019 20:21:17.016,22 Dec 2019 20:22:16.167,59.151
48,23 Dec 2019 09:43:07.422,23 Dec 2019 09:52:59.831,592.409
49,23 Dec 2019 11:19:09.439,23 Dec 2019 11:29:37.415,627.976
50,23 Dec 2019 12:57:27.786,23 Dec 2019 13:05:52.239,504.453
51,23 Dec 2019 14:35:46.564,23 Dec 2019 14:43:20.710,454.147
52,23 Dec 2019 16:12:25.979,23 Dec 2019 16:22:01.186,575.208
53,23 Dec 2019 17:48:39.874,23 Dec 2019 17:59:23.740,643.865
54,23 Dec 2019 19:26:24.890,23 Dec 2019 19:33:24.884,419.994
55,24 Dec 2019 08:51:48.430,24 Dec 2019 09:00:20.993,512.563
56,24 Dec 2019 10:26:46.934,24 Dec 2019 10:37:29.738,642.804
57,24 Dec 2019 12:04:35.480,24 Dec 2019 12:13:41.231,545.751
58,24 Dec 2019 13:43:12.060,24 Dec 2019 13:50:38.583,446.523
59,24 Dec 2019 15:20:18.019,24 Dec 2019 15:29:11.612,533.594
60,24 Dec 2019 16:56:29.467,24 Dec 2019 17:07:10.638,641.171
61,24 Dec 2019 18:33:26.370,24 Dec 2019 18:42:30.733,544.364
62,25 Dec 2019 08:01:10.868,25 Dec 2019 08:07:07.568,356.700
63,25 Dec 2019 09:34:38.174,25 Dec 2019 09:45:17.105,638.930
64,25 Dec 2019 11:11:47.455,25 Dec 2019 11:21:33.412,585.956
65,25 Dec 2019 12:50:26.579,25 Dec 2019 12:58:06.481,459.902
66,25 Dec 2019 14:28:04.633,25 Dec 2019 14:36:17.602,492.969
67,25 Dec 2019 16:04:21.801,25 Dec 2019 16:14:43.049,621.248
68,25 Dec 2019 17:40:52.575,25 Dec 2019 17:51:01.967,609.392
69,26 Dec 2019 08:42:45.908,26 Dec 2019 08:52:56.314,610.406
70,26 Dec 2019 10:19:07.372,26 Dec 2019 10:29:26.189,618.817
71,26 Dec 2019 11:57:33.614,26 Dec 2019 12:05:44.022,490.408
72,26 Dec 2019 13:35:42.820,26 Dec 2019 13:43:24.144,461.324
73,26 Dec 2019 15:12:14.548,26 Dec 2019 15:22:03.199,588.650
74,26 Dec 2019 16:48:31.136,26 Dec 2019 16:59:10.307,639.172
75,26 Dec 2019 18:26:45.039,26 Dec 2019 18:32:31.610,346.571
76,27 Dec 2019 07:51:14.820,27 Dec 2019 08:00:22.075,547.255
77,27 Dec 2019 09:26:37.967,27 Dec 2019 09:37:17.258,639.291
78,27 Dec 2019 11:04:38.318,27 Dec 2019 11:13:28.765,530.447
79,27 Dec 2019 12:43:10.041,27 Dec 2019 12:50:36.447,446.406
80,27 Dec 2019 14:20:05.423,27 Dec 2019 14:29:13.764,548.341
81,27 Dec 2019 15:56:16.640,27 Dec 2019 16:07:00.548,643.908
82,27 Dec 2019 17:33:27.162,27 Dec 2019 17:41:55.363,508.201
83,28 Dec 2019 07:00:16.165,28 Dec 2019 07:07:22.494,426.329
84,28 Dec 2019 08:34:21.525,28 Dec 2019 08:45:04.297,642.773
85,28 Dec 2019 10:11:45.740,28 Dec 2019 10:21:17.711,571.971
86,28 Dec 2019 11:50:25.711,28 Dec 2019 11:57:58.197,452.486
87,28 Dec 2019 13:27:51.861,28 Dec 2019 13:36:18.330,506.468
88,28 Dec 2019 15:04:05.826,28 Dec 2019 15:14:35.451,629.626
89,28 Dec 2019 16:40:44.135,28 Dec 2019 16:50:34.599,590.464
90,29 Dec 2019 06:11:00.343,29 Dec 2019 06:12:46.575,106.232
91,29 Dec 2019 07:42:20.516,29 Dec 2019 07:52:44.442,623.927
92,29 Dec 2019 09:18:59.940,29 Dec 2019 09:29:08.137,608.197
93,29 Dec 2019 10:57:32.327,29 Dec 2019 11:05:30.089,477.762
94,29 Dec 2019 12:35:30.934,29 Dec 2019 12:43:21.571,470.637
95,29 Dec 2019 14:11:56.237,29 Dec 2019 14:21:57.239,601.002
96,29 Dec 2019 15:48:16.614,29 Dec 2019 15:58:47.991,631.376
97,29 Dec 2019 17:27:14.948,29 Dec 2019 17:31:14.279,239.331
98,30 Dec 2019 06:50:38.687,30 Dec 2019 07:00:13.384,574.697
99,30 Dec 2019 08:26:23.950,30 Dec 2019 08:36:57.658,633.709
100,30 Dec 2019 10:04:34.691,30 Dec 2019 10:13:10.200,515.509
101,30 Dec 2019 11:42:59.762,30 Dec 2019 11:50:28.813,449.051
102,30 Dec 2019 13:19:45.605,30 Dec 2019 13:29:08.379,562.774
103,30 Dec 2019 14:55:57.626,30 Dec 2019 15:06:41.874,644.248
104,30 Dec 2019 16:33:25.156,30 Dec 2019 16:41:08.400,463.245
105,31 Dec 2019 05:59:23.920,31 Dec 2019 06:07:22.599,478.679
106,31 Dec 2019 07:34:00.166,31 Dec 2019 07:44:43.986,643.820
107,31 Dec 2019 09:11:38.088,31 Dec 2019 09:20:55.578,557.490
108,31 Dec 2019 10:50:16.878,31 Dec 2019 10:57:44.523,447.645
109,31 Dec 2019 12:27:31.476,31 Dec 2019 12:36:12.100,520.624
110,31 Dec 2019 14:03:43.357,31 Dec 2019 14:14:19.502,636.144
111,31 Dec 2019 15:40:30.853,31 Dec 2019 15:49:57.548,566.695
112,1 Jan 2020 05:09:04.085,1 Jan 2020 05:13:43.598,279.512
113,1 Jan 2020 06:41:50.913,1 Jan 2020 06:52:24.517,633.604
114,1 Jan 2020 08:18:46.969,1 Jan 2020 08:28:43.354,596.386
115,1 Jan 2020 09:57:23.677,1 Jan 2020 10:05:10.525,466.848
116,1 Jan 2020 11:35:11.027,1 Jan 2020 11:43:12.727,481.700
117,1 Jan 2020 13:11:31.143,1 Jan 2020 13:21:43.196,612.053
118,1 Jan 2020 14:47:56.445,1 Jan 2020 14:58:16.677,620.232
119,2 Jan 2020 05:49:59.311,2 Jan 2020 05:59:55.607,596.295
120,2 Jan 2020 07:26:04.723,2 Jan 2020 07:36:31.032,626.310
121,2 Jan 2020 09:04:24.371,2 Jan 2020 09:12:45.644,501.273
122,2 Jan 2020 10:42:41.234,2 Jan 2020 10:50:15.502,454.269
123,2 Jan 2020 12:19:18.688,2 Jan 2020 12:28:55.288,576.601
124,2 Jan 2020 13:55:32.517,2 Jan 2020 14:06:14.547,642.030
125,2 Jan 2020 15:33:21.906,2 Jan 2020 15:40:08.305,406.399
126,3 Jan 2020 04:58:31.221,3 Jan 2020 05:07:10.774,519.553
127,3 Jan 2020 06:33:33.913,3 Jan 2020 06:44:16.321,642.408
128,3 Jan 2020 08:11:24.297,3 Jan 2020 08:20:27.102,542.805
129,3 Jan 2020 09:49:59.945,3 Jan 2020 09:57:25.425,445.480
130,3 Jan 2020 11:27:03.627,3 Jan 2020 11:35:58.692,535.065
131,3 Jan 2020 13:03:14.476,3 Jan 2020 13:13:55.141,640.665
132,3 Jan 2020 14:40:13.139,3 Jan 2020 14:49:10.451,537.312
133,4 Jan 2020 04:07:42.855,4 Jan 2020 04:13:53.161,370.306
134,4 Jan 2020 05:41:16.829,4 Jan 2020 05:51:56.774,639.945
135,4 Jan 2020 07:18:28.291,4 Jan 2020 07:28:11.928,583.637
136,4 Jan 2020 08:57:07.440,4 Jan 2020 09:04:45.401,457.962
137,4 Jan 2020 10:34:43.248,4 Jan 2020 10:42:57.360,494.112
138,4 Jan 2020 12:10:59.357,4 Jan 2020 12:21:20.998,621.641
139,4 Jan 2020 13:47:30.812,4 Jan 2020 13:57:36.241,605.429
140,5 Jan 2020 04:49:16.184,5 Jan 2020 04:59:29.226,613.042
141,5 Jan 2020 06:25:40.121,5 Jan 2020 06:35:57.481,617.360
142,5 Jan 2020 08:04:07.118,5 Jan 2020 08:12:15.192,488.075
143,5 Jan 2020 09:42:14.526,5 Jan 2020 09:49:56.301,461.774
144,5 Jan 2020 11:18:44.784,5 Jan 2020 11:28:34.360,589.576
145,5 Jan 2020 12:55:01.421,5 Jan 2020 13:05:38.508,637.088
146,5 Jan 2020 14:33:20.583,5 Jan 2020 14:38:51.966,331.383
147,6 Jan 2020 03:57:36.534,6 Jan 2020 04:06:48.517,551.983
148,6 Jan 2020 05:33:02.597,6 Jan 2020 05:43:41.422,638.825
149,6 Jan 2020 07:11:04.166,6 Jan 2020 07:19:52.386,528.220
150,6 Jan 2020 08:49:34.824,6 Jan 2020 08:57:00.815,445.991
151,6 Jan 2020 10:26:28.444,6 Jan 2020 10:35:37.905,549.461
152,6 Jan 2020 12:02:39.262,6 Jan 2020 12:13:22.330,643.068
153,6 Jan 2020 13:39:51.580,6 Jan 2020 13:48:12.780,501.200

