vcc_sched/network/input/access_odugs_wj2xoh_vcc-c_44430.csv

"Access","Start Time (UTCG)","Stop Time (UTCG)","Duration (sec)"
1,16 Dec 2019 16:47:57.962,16 Dec 2019 16:55:23.658,445.696
2,16 Dec 2019 18:25:03.836,16 Dec 2019 18:33:53.556,529.720
3,16 Dec 2019 20:01:13.271,16 Dec 2019 20:11:52.760,639.490
4,16 Dec 2019 21:38:05.721,16 Dec 2019 21:47:15.488,549.767
5,17 Dec 2019 11:05:46.692,17 Dec 2019 11:11:21.461,334.769
6,17 Dec 2019 12:39:01.001,17 Dec 2019 12:49:37.405,636.404
7,17 Dec 2019 14:16:04.401,17 Dec 2019 14:25:52.435,588.034
8,17 Dec 2019 15:54:40.858,17 Dec 2019 16:02:21.676,460.818
9,17 Dec 2019 17:32:19.549,17 Dec 2019 17:40:28.280,488.731
10,17 Dec 2019 19:08:35.431,17 Dec 2019 19:18:53.435,618.003
11,17 Dec 2019 20:45:02.439,17 Dec 2019 20:55:14.942,612.503
12,18 Dec 2019 11:46:40.341,18 Dec 2019 11:56:44.829,604.488
13,18 Dec 2019 13:22:54.206,18 Dec 2019 13:33:14.625,620.418
14,18 Dec 2019 15:01:16.158,18 Dec 2019 15:09:29.248,493.090
15,18 Dec 2019 16:39:26.028,18 Dec 2019 16:47:03.788,457.760
16,18 Dec 2019 18:15:57.565,18 Dec 2019 18:25:41.372,583.807
17,18 Dec 2019 19:52:11.042,18 Dec 2019 20:02:51.015,639.973
18,18 Dec 2019 21:30:13.232,18 Dec 2019 21:36:23.007,369.775
19,19 Dec 2019 10:54:42.136,19 Dec 2019 11:03:37.206,535.070
20,19 Dec 2019 12:29:55.054,19 Dec 2019 12:40:34.537,639.483
21,19 Dec 2019 14:07:49.354,19 Dec 2019 14:16:43.687,534.334
22,19 Dec 2019 15:46:20.709,19 Dec 2019 15:53:45.498,444.789
23,19 Dec 2019 17:23:17.254,19 Dec 2019 17:32:19.441,542.187
24,19 Dec 2019 18:59:26.158,19 Dec 2019 19:10:08.439,642.281
25,19 Dec 2019 20:36:29.447,19 Dec 2019 20:45:10.171,520.724
26,20 Dec 2019 10:03:20.072,20 Dec 2019 10:10:00.182,400.110
27,20 Dec 2019 11:37:09.356,20 Dec 2019 11:47:49.676,640.320
28,20 Dec 2019 13:14:25.656,20 Dec 2019 13:24:01.857,576.201
29,20 Dec 2019 14:53:03.307,20 Dec 2019 15:00:36.989,453.682
30,20 Dec 2019 16:30:31.745,20 Dec 2019 16:38:51.554,499.809
31,20 Dec 2019 18:06:44.495,20 Dec 2019 18:17:10.002,625.508
32,20 Dec 2019 19:43:17.383,20 Dec 2019 19:53:15.003,597.619
33,21 Dec 2019 10:44:39.813,21 Dec 2019 10:54:56.900,617.086
34,21 Dec 2019 12:21:09.210,21 Dec 2019 12:31:20.924,611.715
35,21 Dec 2019 13:59:36.839,21 Dec 2019 14:07:38.577,481.738
36,21 Dec 2019 15:37:37.911,21 Dec 2019 15:45:22.779,464.868
37,21 Dec 2019 17:14:03.519,21 Dec 2019 17:23:58.036,594.517
38,21 Dec 2019 18:50:19.756,21 Dec 2019 19:00:54.073,634.318
39,21 Dec 2019 20:28:52.986,21 Dec 2019 20:33:45.797,292.811
40,22 Dec 2019 09:52:30.790,22 Dec 2019 10:01:51.239,560.449
41,22 Dec 2019 11:28:03.088,22 Dec 2019 11:38:38.413,635.325
42,22 Dec 2019 13:06:06.569,22 Dec 2019 13:14:47.966,521.397
43,22 Dec 2019 14:44:32.833,22 Dec 2019 14:51:58.722,445.889
44,22 Dec 2019 16:21:20.834,22 Dec 2019 16:30:35.228,554.394
45,22 Dec 2019 17:57:29.954,22 Dec 2019 18:08:13.319,643.366
46,22 Dec 2019 19:34:46.161,22 Dec 2019 19:42:52.330,486.169
47,23 Dec 2019 09:00:52.167,23 Dec 2019 09:08:22.134,449.967
48,23 Dec 2019 10:35:09.754,23 Dec 2019 10:45:51.885,642.130
49,23 Dec 2019 12:12:37.986,23 Dec 2019 12:22:02.010,564.023
50,23 Dec 2019 13:51:15.355,23 Dec 2019 13:58:43.748,448.393
51,23 Dec 2019 15:28:33.790,23 Dec 2019 15:37:05.157,511.367
52,23 Dec 2019 17:04:44.249,23 Dec 2019 17:15:15.902,631.653
53,23 Dec 2019 18:41:24.069,23 Dec 2019 18:51:03.664,579.594
54,24 Dec 2019 08:10:29.623,24 Dec 2019 08:13:43.276,193.653
55,24 Dec 2019 09:42:31.759,24 Dec 2019 09:52:58.451,626.691
56,24 Dec 2019 11:19:15.584,24 Dec 2019 11:29:17.740,602.155
57,24 Dec 2019 12:57:47.566,24 Dec 2019 13:05:39.169,471.603
58,24 Dec 2019 14:35:39.336,24 Dec 2019 14:43:32.609,473.273
59,24 Dec 2019 16:11:59.949,24 Dec 2019 16:22:04.224,604.275
60,24 Dec 2019 17:48:19.703,24 Dec 2019 17:58:46.121,626.419
61,24 Dec 2019 19:27:43.628,24 Dec 2019 19:30:38.281,174.653
62,25 Dec 2019 08:50:12.775,25 Dec 2019 08:59:53.855,581.079
63,25 Dec 2019 10:26:02.733,25 Dec 2019 10:36:32.581,629.848
64,25 Dec 2019 12:04:14.312,25 Dec 2019 12:12:43.254,508.942
65,25 Dec 2019 13:42:34.332,25 Dec 2019 13:50:03.196,448.864
66,25 Dec 2019 15:19:14.642,25 Dec 2019 15:28:40.802,566.160
67,25 Dec 2019 16:55:24.694,25 Dec 2019 17:06:07.379,642.685
68,25 Dec 2019 18:32:56.498,25 Dec 2019 18:40:21.342,444.844
69,26 Dec 2019 07:58:20.334,26 Dec 2019 08:06:29.904,489.570
70,26 Dec 2019 09:33:02.033,26 Dec 2019 09:43:44.125,642.092
71,26 Dec 2019 11:10:41.229,26 Dec 2019 11:19:52.933,551.704
72,26 Dec 2019 12:49:16.922,26 Dec 2019 12:56:41.908,444.986
73,26 Dec 2019 14:26:25.777,26 Dec 2019 14:35:08.943,523.166
74,26 Dec 2019 16:02:34.728,26 Dec 2019 16:13:11.136,636.408
75,26 Dec 2019 17:39:22.668,26 Dec 2019 17:48:40.793,558.125
76,27 Dec 2019 07:07:19.585,27 Dec 2019 07:12:20.787,301.202
77,27 Dec 2019 08:40:15.944,27 Dec 2019 08:50:49.653,633.709
78,27 Dec 2019 10:17:13.180,27 Dec 2019 10:27:05.111,591.932
79,27 Dec 2019 11:55:48.190,27 Dec 2019 12:03:31.041,462.851
80,27 Dec 2019 13:33:30.388,27 Dec 2019 13:41:33.098,482.710
81,27 Dec 2019 15:09:46.896,27 Dec 2019 15:19:59.892,612.995
82,27 Dec 2019 16:46:10.949,27 Dec 2019 16:56:27.143,616.194
83,28 Dec 2019 07:47:47.665,28 Dec 2019 07:57:45.428,597.763
84,28 Dec 2019 09:23:53.852,28 Dec 2019 09:34:17.106,623.255
85,28 Dec 2019 11:02:12.411,28 Dec 2019 11:10:29.587,497.176
86,28 Dec 2019 12:40:25.245,28 Dec 2019 12:47:58.783,453.538
87,28 Dec 2019 14:16:58.749,28 Dec 2019 14:26:36.095,577.346
88,28 Dec 2019 15:53:10.408,28 Dec 2019 16:03:50.630,640.222
89,28 Dec 2019 17:31:01.499,28 Dec 2019 17:37:36.184,394.685
90,29 Dec 2019 06:55:43.162,29 Dec 2019 07:04:24.846,521.685
91,29 Dec 2019 08:30:46.037,29 Dec 2019 08:41:26.477,640.440
92,29 Dec 2019 10:08:35.237,29 Dec 2019 10:17:34.658,539.420
93,29 Dec 2019 11:47:07.934,29 Dec 2019 11:54:31.402,443.468
94,29 Dec 2019 13:24:07.792,29 Dec 2019 13:33:02.777,534.985
95,29 Dec 2019 15:00:15.958,29 Dec 2019 15:10:55.676,639.719
96,29 Dec 2019 16:37:13.368,29 Dec 2019 16:46:06.202,532.833
97,30 Dec 2019 06:04:18.929,30 Dec 2019 06:10:30.717,371.787
98,30 Dec 2019 07:37:52.166,30 Dec 2019 07:48:30.636,638.469
99,30 Dec 2019 09:15:01.859,30 Dec 2019 09:24:43.076,581.217
100,30 Dec 2019 10:53:38.586,30 Dec 2019 11:01:14.193,455.607
101,30 Dec 2019 12:31:11.158,30 Dec 2019 12:39:24.085,492.927
102,30 Dec 2019 14:07:24.400,30 Dec 2019 14:17:45.016,620.616
103,30 Dec 2019 15:43:53.565,30 Dec 2019 15:53:57.081,603.515
104,31 Dec 2019 06:45:15.118,31 Dec 2019 06:55:26.238,611.121
105,31 Dec 2019 08:21:36.322,31 Dec 2019 08:31:52.020,615.699
106,31 Dec 2019 10:00:00.726,31 Dec 2019 10:08:06.988,486.262
107,31 Dec 2019 11:38:05.628,31 Dec 2019 11:45:45.321,459.693
108,31 Dec 2019 13:14:33.200,31 Dec 2019 13:24:21.025,587.826
109,31 Dec 2019 14:50:47.127,31 Dec 2019 15:01:23.044,635.917
110,31 Dec 2019 16:29:03.137,31 Dec 2019 16:34:34.898,331.761
111,1 Jan 2020 05:52:59.766,1 Jan 2020 06:02:07.769,548.003
112,1 Jan 2020 07:28:21.626,1 Jan 2020 07:38:59.000,637.374
113,1 Jan 2020 09:06:19.871,1 Jan 2020 09:15:07.225,527.354
114,1 Jan 2020 10:44:48.370,1 Jan 2020 10:52:12.140,443.769
115,1 Jan 2020 12:21:39.902,1 Jan 2020 12:30:46.549,546.647
116,1 Jan 2020 13:57:47.959,1 Jan 2020 14:08:29.530,641.570
117,1 Jan 2020 15:34:56.460,1 Jan 2020 15:43:19.643,503.183
118,2 Jan 2020 05:01:17.923,2 Jan 2020 05:08:22.738,424.816
119,2 Jan 2020 06:35:20.250,2 Jan 2020 06:46:01.517,641.267
120,2 Jan 2020 08:12:41.504,2 Jan 2020 08:22:11.665,570.161
121,2 Jan 2020 09:51:18.636,2 Jan 2020 09:58:48.604,449.968
122,2 Jan 2020 11:28:41.741,2 Jan 2020 11:37:05.408,503.667
123,2 Jan 2020 13:04:52.482,2 Jan 2020 13:15:19.567,627.085
124,2 Jan 2020 14:41:27.621,2 Jan 2020 14:51:15.878,588.257
125,3 Jan 2020 04:11:33.947,3 Jan 2020 04:12:46.144,72.197
126,3 Jan 2020 05:42:34.858,3 Jan 2020 05:52:56.493,621.635
127,3 Jan 2020 07:19:10.016,3 Jan 2020 07:29:17.363,607.348
128,3 Jan 2020 08:57:39.104,3 Jan 2020 09:05:35.482,476.378
129,3 Jan 2020 10:35:35.548,3 Jan 2020 10:43:22.646,467.098
130,3 Jan 2020 12:11:58.037,3 Jan 2020 12:21:55.554,597.517
131,3 Jan 2020 13:48:14.887,3 Jan 2020 13:58:44.626,629.739
132,3 Jan 2020 15:27:06.152,3 Jan 2020 15:31:12.764,246.612
133,4 Jan 2020 04:50:09.557,4 Jan 2020 04:59:39.221,569.664
134,4 Jan 2020 06:25:48.672,4 Jan 2020 06:36:21.756,633.084
135,4 Jan 2020 08:03:54.986,4 Jan 2020 08:12:30.651,515.665
136,4 Jan 2020 09:42:18.222,4 Jan 2020 09:49:44.012,445.790
137,4 Jan 2020 11:19:02.171,4 Jan 2020 11:28:20.159,557.988
138,4 Jan 2020 12:55:10.753,4 Jan 2020 13:05:52.694,641.941
139,4 Jan 2020 14:32:32.337,4 Jan 2020 14:40:20.718,468.382
140,5 Jan 2020 03:58:13.281,5 Jan 2020 04:06:00.080,466.799
141,5 Jan 2020 05:32:40.038,5 Jan 2020 05:43:22.369,642.331
142,5 Jan 2020 07:10:11.975,5 Jan 2020 07:19:30.904,558.929
143,5 Jan 2020 08:48:48.264,5 Jan 2020 08:56:14.247,445.983
144,5 Jan 2020 10:26:02.217,5 Jan 2020 10:34:36.924,514.708
145,5 Jan 2020 12:02:11.167,5 Jan 2020 12:12:43.530,632.363
146,5 Jan 2020 13:38:53.215,5 Jan 2020 13:48:23.455,570.240
147,6 Jan 2020 03:07:21.630,6 Jan 2020 03:11:22.810,241.181
148,6 Jan 2020 04:39:46.665,6 Jan 2020 04:50:16.341,629.675
149,6 Jan 2020 06:16:34.804,6 Jan 2020 06:26:33.167,598.363
150,6 Jan 2020 07:55:07.421,6 Jan 2020 08:02:55.070,467.649
151,6 Jan 2020 09:32:55.086,6 Jan 2020 09:40:50.601,475.515
152,6 Jan 2020 11:09:13.293,6 Jan 2020 11:19:19.630,606.337
153,6 Jan 2020 12:45:33.712,6 Jan 2020 12:55:55.346,621.633
154,6 Jan 2020 14:25:35.221,6 Jan 2020 14:27:05.102,89.881

