vcc_sched/network/input/access_vtgs_wj2xms_vcc-b_44431.csv

"Access","Start Time (UTCG)","Stop Time (UTCG)","Duration (sec)"
<<<<<<< HEAD
1,26 Mar 2020 01:24:30.688,26 Mar 2020 01:32:00.429,449.741
2,26 Mar 2020 03:01:15.186,26 Mar 2020 03:10:29.030,553.844
3,26 Mar 2020 04:37:21.561,26 Mar 2020 04:48:00.095,638.533
4,26 Mar 2020 06:14:35.727,26 Mar 2020 06:22:32.282,476.555
5,26 Mar 2020 19:40:25.102,26 Mar 2020 19:47:34.845,429.743
6,26 Mar 2020 21:14:30.478,26 Mar 2020 21:25:06.306,635.829
7,26 Mar 2020 22:51:49.565,26 Mar 2020 23:01:14.032,564.467
8,27 Mar 2020 00:30:18.812,27 Mar 2020 00:37:51.398,452.586
9,27 Mar 2020 02:07:33.702,27 Mar 2020 02:16:04.817,511.116
10,27 Mar 2020 03:43:41.557,27 Mar 2020 03:54:08.863,627.305
11,27 Mar 2020 05:20:17.953,27 Mar 2020 05:29:52.000,574.046
12,27 Mar 2020 18:49:44.628,27 Mar 2020 18:51:27.335,102.707
13,27 Mar 2020 20:21:00.563,27 Mar 2020 20:31:17.422,616.859
14,27 Mar 2020 21:57:33.623,27 Mar 2020 22:07:35.219,601.597
15,27 Mar 2020 23:35:56.341,27 Mar 2020 23:43:52.655,476.314
16,28 Mar 2020 01:13:44.133,28 Mar 2020 01:21:37.945,473.812
17,28 Mar 2020 02:50:02.721,28 Mar 2020 03:00:02.445,599.724
18,28 Mar 2020 04:26:18.829,28 Mar 2020 04:36:40.737,621.908
19,28 Mar 2020 06:05:33.506,28 Mar 2020 06:08:34.989,181.482
20,28 Mar 2020 19:27:51.186,28 Mar 2020 19:37:15.768,564.582
21,28 Mar 2020 21:03:27.649,28 Mar 2020 21:13:55.038,627.390
22,28 Mar 2020 22:41:28.430,28 Mar 2020 22:50:02.371,513.941
23,29 Mar 2020 00:19:43.251,29 Mar 2020 00:27:14.351,451.100
24,29 Mar 2020 01:56:22.410,29 Mar 2020 02:05:43.669,561.258
25,29 Mar 2020 03:32:29.182,29 Mar 2020 03:43:06.931,637.749
26,29 Mar 2020 05:09:53.726,29 Mar 2020 05:17:22.020,448.294
27,29 Mar 2020 18:35:11.870,29 Mar 2020 18:42:51.105,459.235
28,29 Mar 2020 20:09:34.501,29 Mar 2020 20:20:10.807,636.306
29,29 Mar 2020 21:47:01.016,29 Mar 2020 21:56:17.308,556.293
30,29 Mar 2020 23:25:29.395,29 Mar 2020 23:32:59.094,449.699
31,30 Mar 2020 01:02:37.819,30 Mar 2020 01:11:16.214,518.395
32,30 Mar 2020 02:38:44.367,30 Mar 2020 02:49:14.599,630.231
33,30 Mar 2020 04:15:25.940,30 Mar 2020 04:24:45.525,559.585
34,30 Mar 2020 17:43:43.220,30 Mar 2020 17:47:22.165,218.945
35,30 Mar 2020 19:15:56.993,30 Mar 2020 19:26:19.433,622.440
36,30 Mar 2020 20:52:39.160,30 Mar 2020 21:02:34.226,595.066
37,30 Mar 2020 22:31:04.167,30 Mar 2020 22:38:54.211,470.044
38,31 Mar 2020 00:08:45.739,31 Mar 2020 00:16:45.027,479.288
39,31 Mar 2020 01:45:01.244,31 Mar 2020 01:55:06.512,605.268
40,31 Mar 2020 03:21:19.908,31 Mar 2020 03:31:35.031,615.123
41,31 Mar 2020 18:22:39.070,31 Mar 2020 18:32:16.396,577.326
42,31 Mar 2020 19:58:26.730,31 Mar 2020 20:08:50.261,623.531
43,31 Mar 2020 21:36:32.380,31 Mar 2020 21:44:58.345,505.966
44,31 Mar 2020 23:14:42.834,31 Mar 2020 23:22:16.040,453.206
45,1 Apr 2020 00:51:17.145,1 Apr 2020 01:00:45.434,568.290
46,1 Apr 2020 02:27:24.620,1 Apr 2020 02:38:00.805,636.185
47,1 Apr 2020 04:05:00.867,1 Apr 2020 04:11:57.757,416.890
48,1 Apr 2020 17:29:48.795,1 Apr 2020 17:37:52.942,484.147
49,1 Apr 2020 19:04:26.685,1 Apr 2020 19:15:02.746,636.061
50,1 Apr 2020 20:42:00.026,1 Apr 2020 20:51:08.348,548.321
51,1 Apr 2020 22:20:26.972,1 Apr 2020 22:27:54.684,447.712
52,1 Apr 2020 23:57:29.292,2 Apr 2020 00:06:14.876,525.584
53,2 Apr 2020 01:33:34.894,2 Apr 2020 01:44:07.366,632.472
54,2 Apr 2020 03:10:22.101,2 Apr 2020 03:19:25.919,543.818
55,2 Apr 2020 16:37:54.192,2 Apr 2020 16:42:40.343,286.151
56,2 Apr 2020 18:10:41.802,2 Apr 2020 18:21:08.676,626.874
57,2 Apr 2020 19:47:32.431,2 Apr 2020 19:57:20.898,588.466
58,2 Apr 2020 21:25:59.098,2 Apr 2020 21:33:43.666,464.568
59,2 Apr 2020 23:03:34.524,2 Apr 2020 23:11:39.579,485.054
60,3 Apr 2020 00:39:47.391,3 Apr 2020 00:49:57.621,610.230
61,3 Apr 2020 02:16:08.888,3 Apr 2020 02:26:16.357,607.469
62,3 Apr 2020 17:17:15.711,3 Apr 2020 17:27:03.889,588.178
63,3 Apr 2020 18:53:13.693,3 Apr 2020 19:03:33.055,619.362
64,3 Apr 2020 20:31:23.613,3 Apr 2020 20:39:42.151,498.538
65,3 Apr 2020 22:09:29.436,3 Apr 2020 22:17:05.412,455.975
66,3 Apr 2020 23:45:59.390,3 Apr 2020 23:55:34.300,574.910
67,4 Apr 2020 01:22:07.832,4 Apr 2020 01:32:41.733,633.901
68,4 Apr 2020 02:59:57.407,4 Apr 2020 03:06:19.216,381.809
69,4 Apr 2020 16:24:15.361,4 Apr 2020 16:32:40.763,505.402
70,4 Apr 2020 17:59:06.916,4 Apr 2020 18:09:42.116,635.201
71,4 Apr 2020 19:36:46.509,4 Apr 2020 19:45:47.126,540.617
72,4 Apr 2020 21:15:11.524,4 Apr 2020 21:22:38.095,446.571
73,4 Apr 2020 22:52:08.128,4 Apr 2020 23:01:00.750,532.622
74,5 Apr 2020 00:28:13.106,5 Apr 2020 00:38:47.177,634.071
75,5 Apr 2020 02:05:06.413,5 Apr 2020 02:13:53.172,526.759
76,5 Apr 2020 15:32:01.815,5 Apr 2020 15:37:37.506,335.691
77,5 Apr 2020 17:05:14.863,5 Apr 2020 17:15:45.174,630.311
78,5 Apr 2020 18:42:13.345,5 Apr 2020 18:51:55.223,581.878
79,5 Apr 2020 20:20:41.093,5 Apr 2020 20:28:20.971,459.878
80,5 Apr 2020 21:58:10.505,5 Apr 2020 22:06:21.525,491.020
81,5 Apr 2020 23:34:21.140,5 Apr 2020 23:44:35.782,614.643
82,6 Apr 2020 01:10:45.740,6 Apr 2020 01:20:44.731,598.991
83,6 Apr 2020 16:11:40.923,6 Apr 2020 16:21:38.340,597.417
84,6 Apr 2020 17:47:48.454,6 Apr 2020 17:58:03.398,614.944
85,6 Apr 2020 19:26:02.068,6 Apr 2020 19:34:13.746,491.678
86,6 Apr 2020 21:04:03.079,6 Apr 2020 21:11:42.377,459.298
87,6 Apr 2020 22:40:29.124,6 Apr 2020 22:50:10.241,581.118
88,7 Apr 2020 00:16:38.785,7 Apr 2020 00:27:09.730,630.945
89,7 Apr 2020 01:54:43.789,7 Apr 2020 02:00:25.917,342.128
90,7 Apr 2020 15:18:31.197,7 Apr 2020 15:27:14.852,523.655
91,7 Apr 2020 16:53:35.094,7 Apr 2020 17:04:08.921,633.827
92,7 Apr 2020 18:31:20.385,7 Apr 2020 18:40:13.617,533.232
93,7 Apr 2020 20:09:43.038,7 Apr 2020 20:17:09.249,446.211
94,7 Apr 2020 21:46:34.332,7 Apr 2020 21:55:33.791,539.459
95,7 Apr 2020 23:22:38.970,7 Apr 2020 23:33:14.047,635.077
96,8 Apr 2020 00:59:38.869,8 Apr 2020 01:08:07.280,508.411
97,8 Apr 2020 14:26:02.339,8 Apr 2020 14:32:17.326,374.986
98,8 Apr 2020 15:59:36.058,8 Apr 2020 16:10:08.942,632.884
99,8 Apr 2020 17:36:41.801,8 Apr 2020 17:46:17.171,575.370
100,8 Apr 2020 19:15:10.103,8 Apr 2020 19:22:46.059,455.956
101,8 Apr 2020 20:52:33.693,8 Apr 2020 21:00:50.784,497.091
102,8 Apr 2020 22:28:42.453,8 Apr 2020 22:39:00.983,618.529
103,9 Apr 2020 00:05:10.420,9 Apr 2020 00:15:00.171,589.751
104,9 Apr 2020 15:05:54.553,9 Apr 2020 15:15:59.800,605.247
105,9 Apr 2020 16:42:10.907,9 Apr 2020 16:52:21.276,610.369
106,9 Apr 2020 18:20:27.679,9 Apr 2020 18:28:33.087,485.408
107,9 Apr 2020 19:58:23.772,9 Apr 2020 20:06:06.848,463.076
108,9 Apr 2020 21:34:46.338,9 Apr 2020 21:44:33.243,586.905
109,9 Apr 2020 23:10:57.436,9 Apr 2020 23:21:24.819,627.383
110,10 Apr 2020 00:49:20.771,10 Apr 2020 00:54:17.080,296.309
111,10 Apr 2020 14:12:36.001,10 Apr 2020 14:21:35.407,539.406
112,10 Apr 2020 15:47:51.123,10 Apr 2020 15:58:23.151,632.029
113,10 Apr 2020 17:25:41.575,10 Apr 2020 17:34:27.789,526.215
114,10 Apr 2020 19:04:01.513,10 Apr 2020 19:11:28.066,446.553
115,10 Apr 2020 20:40:47.891,10 Apr 2020 20:49:53.959,546.068
116,10 Apr 2020 22:16:52.450,10 Apr 2020 22:27:27.984,635.534
117,10 Apr 2020 23:53:59.450,11 Apr 2020 00:02:08.229,488.779
118,11 Apr 2020 13:19:54.082,11 Apr 2020 13:26:41.378,407.297
119,11 Apr 2020 14:53:45.278,11 Apr 2020 15:04:20.001,634.724
120,11 Apr 2020 16:30:57.737,11 Apr 2020 16:40:26.719,568.982
121,11 Apr 2020 18:09:26.096,11 Apr 2020 18:16:58.873,452.777
122,11 Apr 2020 19:46:44.098,11 Apr 2020 19:55:07.295,503.197
123,11 Apr 2020 21:22:51.309,11 Apr 2020 21:33:13.222,621.913
124,11 Apr 2020 22:59:22.875,11 Apr 2020 23:09:02.695,579.820
125,12 Apr 2020 13:59:56.446,12 Apr 2020 14:10:08.322,611.876
126,12 Apr 2020 15:36:20.978,12 Apr 2020 15:46:26.668,605.690
127,12 Apr 2020 17:14:40.387,12 Apr 2020 17:22:40.129,479.743
128,12 Apr 2020 18:52:31.529,12 Apr 2020 19:00:18.745,467.216
129,12 Apr 2020 20:28:51.009,12 Apr 2020 20:38:43.293,592.285
130,12 Apr 2020 22:05:03.743,12 Apr 2020 22:15:27.013,623.270
131,12 Apr 2020 23:43:49.898,12 Apr 2020 23:47:51.116,241.219
132,13 Apr 2020 13:06:29.544,13 Apr 2020 13:15:42.581,553.037
133,13 Apr 2020 14:41:54.909,13 Apr 2020 14:52:24.801,629.892
134,13 Apr 2020 16:19:50.009,13 Apr 2020 16:28:29.598,519.589
135,13 Apr 2020 17:58:06.948,13 Apr 2020 18:05:34.468,447.520
136,13 Apr 2020 19:34:48.807,13 Apr 2020 19:44:01.217,552.410
137,13 Apr 2020 21:10:53.506,13 Apr 2020 21:21:28.999,635.493
138,13 Apr 2020 22:48:08.148,13 Apr 2020 22:55:55.987,467.839
139,14 Apr 2020 12:13:36.078,14 Apr 2020 12:20:50.539,434.461
140,14 Apr 2020 13:47:42.420,14 Apr 2020 13:58:18.344,635.924
141,14 Apr 2020 15:25:01.061,14 Apr 2020 15:34:23.834,562.773
142,14 Apr 2020 17:03:29.045,14 Apr 2020 17:10:59.344,450.299
143,14 Apr 2020 18:40:41.723,14 Apr 2020 18:49:11.002,509.279
144,14 Apr 2020 20:16:47.677,14 Apr 2020 20:27:12.507,624.830
145,14 Apr 2020 21:53:23.054,14 Apr 2020 22:02:52.319,569.265
146,15 Apr 2020 11:22:25.572,15 Apr 2020 11:24:21.985,116.413
147,15 Apr 2020 12:53:46.490,15 Apr 2020 13:04:03.940,617.449
148,15 Apr 2020 14:30:18.585,15 Apr 2020 14:40:19.551,600.966
149,15 Apr 2020 16:08:40.141,15 Apr 2020 16:16:34.828,474.686
150,15 Apr 2020 17:46:26.363,15 Apr 2020 17:54:17.990,471.627
151,15 Apr 2020 19:22:43.119,15 Apr 2020 19:32:40.367,597.248
152,15 Apr 2020 20:58:57.648,15 Apr 2020 21:09:16.332,618.684
153,15 Apr 2020 22:38:15.353,15 Apr 2020 22:41:03.817,168.464
154,16 Apr 2020 12:00:11.625,16 Apr 2020 12:09:36.479,564.854
155,16 Apr 2020 13:35:46.372,16 Apr 2020 13:46:13.853,627.481
156,16 Apr 2020 15:13:45.633,16 Apr 2020 15:22:19.005,513.372
157,16 Apr 2020 16:51:59.337,16 Apr 2020 16:59:28.372,449.035
158,16 Apr 2020 18:28:37.064,16 Apr 2020 18:37:55.527,558.463
159,16 Apr 2020 20:04:42.101,16 Apr 2020 20:15:17.096,634.995
160,16 Apr 2020 21:42:04.950,16 Apr 2020 21:49:30.537,445.587
161,17 Apr 2020 11:07:07.733,17 Apr 2020 11:14:45.323,457.590
162,17 Apr 2020 12:41:27.388,17 Apr 2020 12:52:03.970,636.581
163,17 Apr 2020 14:18:51.710,17 Apr 2020 14:28:08.485,556.775
164,17 Apr 2020 15:57:18.929,17 Apr 2020 16:04:47.406,448.476
165,17 Apr 2020 17:34:26.572,17 Apr 2020 17:43:01.848,515.276
166,17 Apr 2020 19:10:31.524,17 Apr 2020 19:20:58.839,627.315
167,17 Apr 2020 20:47:10.918,17 Apr 2020 20:56:29.061,558.143
168,18 Apr 2020 10:15:18.802,18 Apr 2020 10:18:45.780,206.979
169,18 Apr 2020 11:47:24.571,18 Apr 2020 11:57:46.661,622.090
170,18 Apr 2020 13:24:03.649,18 Apr 2020 13:33:59.898,596.250
171,18 Apr 2020 15:02:26.904,18 Apr 2020 15:10:17.115,470.211
172,18 Apr 2020 16:40:08.274,18 Apr 2020 16:48:04.506,476.232
173,18 Apr 2020 18:16:22.639,18 Apr 2020 18:26:24.463,601.825
174,18 Apr 2020 19:52:39.118,18 Apr 2020 20:02:52.782,613.664
175,19 Apr 2020 10:53:42.073,19 Apr 2020 11:03:17.169,575.095
176,19 Apr 2020 12:29:25.423,19 Apr 2020 12:39:50.284,624.861
177,19 Apr 2020 14:07:28.379,19 Apr 2020 14:15:55.965,507.586
178,19 Apr 2020 15:45:38.696,19 Apr 2020 15:53:09.698,451.002
179,19 Apr 2020 17:22:12.652,19 Apr 2020 17:31:36.875,564.223
180,19 Apr 2020 18:58:18.191,19 Apr 2020 19:08:52.285,634.093
181,19 Apr 2020 20:35:49.861,19 Apr 2020 20:42:51.826,421.965
182,20 Apr 2020 10:00:28.599,20 Apr 2020 10:08:26.080,477.481
183,20 Apr 2020 11:35:00.099,20 Apr 2020 11:45:36.865,636.767
184,20 Apr 2020 13:12:29.617,20 Apr 2020 13:21:40.631,551.014
185,20 Apr 2020 14:50:55.736,20 Apr 2020 14:58:22.988,447.252
186,20 Apr 2020 16:27:58.643,20 Apr 2020 16:36:39.788,521.145
187,20 Apr 2020 18:04:02.817,20 Apr 2020 18:14:32.208,629.391
188,20 Apr 2020 19:40:46.404,20 Apr 2020 19:49:52.934,546.530
189,21 Apr 2020 09:08:16.612,21 Apr 2020 09:12:40.203,263.590
190,21 Apr 2020 10:40:50.573,21 Apr 2020 10:51:16.498,625.925
191,21 Apr 2020 12:17:36.093,21 Apr 2020 12:27:27.678,591.586
192,21 Apr 2020 13:56:00.636,21 Apr 2020 14:03:46.942,466.306
193,21 Apr 2020 15:33:37.281,21 Apr 2020 15:41:38.232,480.950
194,21 Apr 2020 17:09:49.551,21 Apr 2020 17:19:55.562,606.011
195,21 Apr 2020 18:46:08.089,21 Apr 2020 18:56:16.382,608.293
196,22 Apr 2020 09:47:00.745,22 Apr 2020 09:56:44.710,583.965
197,22 Apr 2020 11:22:51.985,22 Apr 2020 11:33:14.077,622.092
198,22 Apr 2020 13:00:58.202,22 Apr 2020 13:09:20.436,502.235
199,22 Apr 2020 14:39:05.019,22 Apr 2020 14:46:38.367,453.347
200,22 Apr 2020 16:15:35.558,22 Apr 2020 16:25:05.218,569.661
201,22 Apr 2020 17:51:41.734,22 Apr 2020 18:02:14.573,632.839
202,22 Apr 2020 19:29:22.891,22 Apr 2020 19:35:59.808,396.917
203,23 Apr 2020 08:53:38.360,23 Apr 2020 09:01:53.034,494.674
204,23 Apr 2020 10:28:20.462,23 Apr 2020 10:38:57.027,636.566
205,23 Apr 2020 12:05:54.717,23 Apr 2020 12:15:00.234,545.517
206,23 Apr 2020 13:44:19.449,23 Apr 2020 13:51:46.008,446.559
207,23 Apr 2020 15:21:17.934,23 Apr 2020 15:30:04.770,526.836
208,23 Apr 2020 16:57:21.521,23 Apr 2020 17:07:52.617,631.096
209,23 Apr 2020 18:34:09.455,23 Apr 2020 18:43:03.964,534.509
210,24 Apr 2020 08:01:09.052,24 Apr 2020 08:06:15.108,306.056
211,24 Apr 2020 09:34:04.405,24 Apr 2020 09:44:33.462,629.057
212,24 Apr 2020 11:10:55.860,24 Apr 2020 11:20:42.859,586.999
213,24 Apr 2020 12:49:21.311,24 Apr 2020 12:57:04.245,462.935
214,24 Apr 2020 14:26:53.381,24 Apr 2020 14:34:59.098,485.717
215,24 Apr 2020 16:03:03.826,24 Apr 2020 16:13:13.651,609.826
216,24 Apr 2020 17:39:24.520,24 Apr 2020 17:49:27.144,602.625
217,25 Apr 2020 08:40:07.508,25 Apr 2020 08:49:59.140,591.631
218,25 Apr 2020 10:16:05.993,25 Apr 2020 10:26:25.196,619.203
219,25 Apr 2020 11:54:15.055,25 Apr 2020 12:02:32.363,497.307
220,25 Apr 2020 13:32:18.321,25 Apr 2020 13:39:54.301,455.980
221,25 Apr 2020 15:08:45.760,25 Apr 2020 15:18:20.538,574.777
222,25 Apr 2020 16:44:52.689,25 Apr 2020 16:55:23.964,631.275
223,25 Apr 2020 18:22:44.079,25 Apr 2020 18:28:54.412,370.332
224,26 Apr 2020 07:46:36.768,26 Apr 2020 07:55:06.362,509.594
225,26 Apr 2020 09:21:28.404,26 Apr 2020 09:32:04.432,636.028
226,26 Apr 2020 10:59:06.965,26 Apr 2020 11:08:07.258,540.293
227,26 Apr 2020 12:37:30.073,26 Apr 2020 12:44:56.404,446.331
228,26 Apr 2020 14:14:24.433,26 Apr 2020 14:23:16.755,532.322
229,26 Apr 2020 15:50:27.600,26 Apr 2020 16:01:00.062,632.462
230,26 Apr 2020 17:27:20.008,26 Apr 2020 17:36:02.162,522.154
231,27 Apr 2020 06:53:53.282,27 Apr 2020 06:59:33.264,339.982
232,27 Apr 2020 08:27:05.980,27 Apr 2020 08:37:37.549,631.570
233,27 Apr 2020 10:04:02.888,27 Apr 2020 10:13:45.404,582.516
234,27 Apr 2020 11:42:28.898,27 Apr 2020 11:50:08.965,460.067
235,27 Apr 2020 13:19:56.577,27 Apr 2020 13:28:07.049,490.472
236,27 Apr 2020 14:56:05.439,27 Apr 2020 15:06:18.729,613.289
237,27 Apr 2020 16:32:28.358,27 Apr 2020 16:42:25.081,596.724
238,28 Apr 2020 07:33:02.249,28 Apr 2020 07:43:00.488,598.240
239,28 Apr 2020 09:09:07.377,28 Apr 2020 09:19:23.623,616.246
240,28 Apr 2020 10:47:18.898,28 Apr 2020 10:55:31.692,492.794
241,28 Apr 2020 12:25:18.603,28 Apr 2020 12:32:57.429,458.825
242,28 Apr 2020 14:01:43.241,28 Apr 2020 14:11:22.809,579.568
243,28 Apr 2020 15:37:51.011,28 Apr 2020 15:48:20.467,629.456
244,28 Apr 2020 17:15:53.483,28 Apr 2020 17:21:35.517,342.034
245,29 Apr 2020 06:39:23.604,29 Apr 2020 06:48:06.175,522.572
246,29 Apr 2020 08:14:23.848,29 Apr 2020 08:24:59.065,635.217
247,29 Apr 2020 09:52:06.297,29 Apr 2020 10:01:01.651,535.354
248,29 Apr 2020 11:30:27.595,29 Apr 2020 11:37:54.091,446.497
249,29 Apr 2020 13:07:18.132,29 Apr 2020 13:16:15.703,537.572
250,29 Apr 2020 14:43:21.019,29 Apr 2020 14:53:54.544,633.526
251,29 Apr 2020 16:20:18.011,29 Apr 2020 16:28:47.553,509.542
252,30 Apr 2020 05:46:27.965,30 Apr 2020 05:52:35.925,367.960
253,30 Apr 2020 07:19:55.210,30 Apr 2020 07:30:28.742,633.532
254,30 Apr 2020 08:56:57.105,30 Apr 2020 09:06:35.277,578.173
255,30 Apr 2020 10:35:23.385,30 Apr 2020 10:43:01.028,457.643
256,30 Apr 2020 12:12:46.875,30 Apr 2020 12:21:02.018,495.143
257,30 Apr 2020 13:48:54.354,30 Apr 2020 13:59:10.773,616.418
258,30 Apr 2020 15:25:19.543,30 Apr 2020 15:35:10.204,590.661
=======
1,3 Feb 2020 16:58:51.745,3 Feb 2020 17:08:15.926,564.181
2,3 Feb 2020 18:34:26.604,3 Feb 2020 18:45:01.717,635.113
3,3 Feb 2020 20:12:28.756,3 Feb 2020 20:21:12.890,524.134
4,3 Feb 2020 21:50:50.007,3 Feb 2020 21:58:25.800,455.793
5,3 Feb 2020 23:27:36.746,3 Feb 2020 23:36:57.717,560.972
6,4 Feb 2020 01:03:47.887,4 Feb 2020 01:14:27.743,639.856
7,4 Feb 2020 02:41:11.856,4 Feb 2020 02:48:54.007,462.151
8,4 Feb 2020 16:07:10.479,4 Feb 2020 16:14:48.347,457.869
9,4 Feb 2020 17:41:32.412,4 Feb 2020 17:52:14.832,642.420
10,4 Feb 2020 19:19:00.574,4 Feb 2020 19:28:25.837,565.262
11,4 Feb 2020 20:57:33.479,4 Feb 2020 21:05:10.323,456.845
12,4 Feb 2020 22:34:49.054,4 Feb 2020 22:43:29.418,520.364
13,5 Feb 2020 00:11:00.842,5 Feb 2020 00:21:32.635,631.793
14,5 Feb 2020 01:47:45.253,5 Feb 2020 01:57:10.539,565.286
15,5 Feb 2020 15:16:38.183,5 Feb 2020 15:20:18.308,220.125
16,5 Feb 2020 16:48:53.334,5 Feb 2020 16:59:21.349,628.015
17,5 Feb 2020 18:25:38.181,5 Feb 2020 18:35:40.709,602.528
18,5 Feb 2020 20:04:06.905,5 Feb 2020 20:12:04.706,477.801
19,5 Feb 2020 21:41:54.363,5 Feb 2020 21:49:58.224,483.861
20,5 Feb 2020 23:18:15.450,5 Feb 2020 23:28:23.189,607.739
21,6 Feb 2020 00:54:38.371,6 Feb 2020 01:04:56.353,617.982
22,6 Feb 2020 15:56:32.964,6 Feb 2020 16:06:17.139,584.174
23,6 Feb 2020 17:32:25.017,6 Feb 2020 17:42:54.963,629.946
24,6 Feb 2020 19:10:34.747,6 Feb 2020 19:19:07.612,512.865
25,6 Feb 2020 20:48:49.709,6 Feb 2020 20:56:29.488,459.779
26,6 Feb 2020 22:25:29.286,6 Feb 2020 22:35:01.943,572.657
27,7 Feb 2020 00:01:41.640,7 Feb 2020 00:12:20.342,638.702
28,7 Feb 2020 01:39:22.900,7 Feb 2020 01:46:20.009,417.109
29,7 Feb 2020 15:04:38.479,7 Feb 2020 15:12:54.389,495.909
30,7 Feb 2020 16:39:23.753,7 Feb 2020 16:50:06.177,642.424
31,7 Feb 2020 18:17:02.413,7 Feb 2020 18:26:16.220,553.807
32,7 Feb 2020 19:55:33.284,7 Feb 2020 20:03:08.039,454.755
33,7 Feb 2020 21:32:39.810,7 Feb 2020 21:41:32.097,532.287
34,7 Feb 2020 23:08:50.387,7 Feb 2020 23:19:26.587,636.200
35,8 Feb 2020 00:45:43.540,8 Feb 2020 00:54:45.937,542.397
36,8 Feb 2020 14:13:32.741,8 Feb 2020 14:18:49.597,316.857
37,8 Feb 2020 15:46:36.859,8 Feb 2020 15:57:11.675,634.816
38,8 Feb 2020 17:23:34.712,8 Feb 2020 17:33:27.569,592.857
39,8 Feb 2020 19:02:05.951,8 Feb 2020 19:09:56.348,470.396
40,8 Feb 2020 20:39:44.188,8 Feb 2020 20:47:57.921,493.733
41,8 Feb 2020 22:16:01.544,8 Feb 2020 22:26:17.761,616.217
42,8 Feb 2020 23:52:29.110,9 Feb 2020 00:02:36.093,606.983
43,9 Feb 2020 14:54:07.511,9 Feb 2020 15:04:07.809,600.298
44,9 Feb 2020 16:30:15.386,9 Feb 2020 16:40:38.998,623.612
45,9 Feb 2020 18:08:31.563,9 Feb 2020 18:16:53.806,502.243
46,9 Feb 2020 19:46:39.377,9 Feb 2020 19:54:24.640,465.263
47,9 Feb 2020 21:23:12.609,9 Feb 2020 21:32:56.316,583.707
48,9 Feb 2020 22:59:26.837,9 Feb 2020 23:10:02.572,635.734
49,10 Feb 2020 00:37:29.910,10 Feb 2020 00:43:31.454,361.543
50,10 Feb 2020 14:02:01.438,10 Feb 2020 14:10:48.230,526.792
51,10 Feb 2020 15:37:07.284,10 Feb 2020 15:47:48.074,640.790
52,10 Feb 2020 17:14:55.482,10 Feb 2020 17:23:57.846,542.364
53,10 Feb 2020 18:53:23.071,10 Feb 2020 19:00:57.453,454.381
54,10 Feb 2020 20:30:21.107,10 Feb 2020 20:39:25.239,544.131
55,10 Feb 2020 22:06:31.152,10 Feb 2020 22:17:10.314,639.161
56,10 Feb 2020 23:43:34.528,10 Feb 2020 23:52:09.939,515.412
57,11 Feb 2020 13:10:33.975,11 Feb 2020 13:16:56.944,382.969
58,11 Feb 2020 14:44:12.893,11 Feb 2020 14:54:52.228,639.336
59,11 Feb 2020 16:21:22.794,11 Feb 2020 16:31:05.456,582.662
60,11 Feb 2020 17:59:55.265,11 Feb 2020 18:07:39.666,464.401
61,11 Feb 2020 19:37:24.275,11 Feb 2020 19:45:48.489,504.214
62,11 Feb 2020 21:13:38.664,11 Feb 2020 21:24:02.236,623.571
63,11 Feb 2020 22:50:11.723,11 Feb 2020 23:00:05.171,593.449
64,12 Feb 2020 13:51:35.074,12 Feb 2020 14:01:48.182,613.108
65,12 Feb 2020 15:27:57.572,12 Feb 2020 15:38:13.863,616.291
66,12 Feb 2020 17:06:19.073,12 Feb 2020 17:14:31.494,492.421
67,12 Feb 2020 18:44:19.074,12 Feb 2020 18:52:11.100,472.026
68,12 Feb 2020 20:20:46.768,12 Feb 2020 20:30:40.777,594.009
69,12 Feb 2020 21:57:03.526,12 Feb 2020 22:07:34.418,630.892
70,12 Feb 2020 23:35:35.881,12 Feb 2020 23:40:25.345,289.464
71,13 Feb 2020 12:59:18.554,13 Feb 2020 13:08:30.607,552.053
72,13 Feb 2020 14:34:42.885,13 Feb 2020 14:45:20.582,637.697
73,13 Feb 2020 16:12:39.654,13 Feb 2020 16:21:30.746,531.092
74,13 Feb 2020 17:51:02.835,13 Feb 2020 17:58:38.468,455.634
75,13 Feb 2020 19:27:53.010,13 Feb 2020 19:37:08.734,555.724
76,13 Feb 2020 21:04:03.171,13 Feb 2020 21:14:43.798,640.628
77,13 Feb 2020 22:41:18.559,13 Feb 2020 22:49:22.224,483.664
78,14 Feb 2020 12:07:34.466,14 Feb 2020 12:14:47.714,433.248
79,14 Feb 2020 13:41:41.267,14 Feb 2020 13:52:23.131,641.863
80,14 Feb 2020 15:19:02.324,14 Feb 2020 15:28:34.404,572.080
81,14 Feb 2020 16:57:34.762,14 Feb 2020 17:05:14.637,459.875
82,14 Feb 2020 18:34:54.712,14 Feb 2020 18:43:29.776,515.063
83,14 Feb 2020 20:11:06.852,14 Feb 2020 20:21:36.582,629.730
84,14 Feb 2020 21:47:46.292,14 Feb 2020 21:57:23.505,577.213
85,15 Feb 2020 11:17:27.353,15 Feb 2020 11:19:34.347,126.994
86,15 Feb 2020 12:48:55.394,15 Feb 2020 12:59:18.471,623.077
87,15 Feb 2020 14:25:31.475,15 Feb 2020 14:35:39.596,608.121
88,15 Feb 2020 16:03:57.144,15 Feb 2020 16:12:00.688,483.544
89,15 Feb 2020 17:41:48.876,15 Feb 2020 17:49:48.708,479.833
90,15 Feb 2020 19:18:11.814,15 Feb 2020 19:28:15.262,603.448
91,15 Feb 2020 20:54:31.737,15 Feb 2020 21:04:55.859,624.121
92,15 Feb 2020 22:33:50.110,15 Feb 2020 22:36:52.409,182.299
93,16 Feb 2020 11:56:29.275,16 Feb 2020 12:06:02.033,572.758
94,16 Feb 2020 13:32:10.435,16 Feb 2020 13:42:43.769,633.333
95,16 Feb 2020 15:10:14.796,16 Feb 2020 15:18:54.932,520.136
96,16 Feb 2020 16:48:32.585,16 Feb 2020 16:56:10.975,458.390
97,16 Feb 2020 18:25:15.592,16 Feb 2020 18:34:42.488,566.896
98,16 Feb 2020 20:01:26.469,16 Feb 2020 20:12:07.032,640.563
99,16 Feb 2020 21:38:56.145,16 Feb 2020 21:46:22.291,446.147
100,17 Feb 2020 11:04:31.418,17 Feb 2020 11:12:24.649,473.231
101,17 Feb 2020 12:39:01.839,17 Feb 2020 12:49:44.455,642.615
102,17 Feb 2020 14:16:33.169,17 Feb 2020 14:25:54.439,561.270
103,17 Feb 2020 15:55:04.375,17 Feb 2020 16:02:41.212,456.836
104,17 Feb 2020 17:32:15.582,17 Feb 2020 17:41:01.661,526.079
105,17 Feb 2020 19:08:26.137,17 Feb 2020 19:19:00.793,634.656
106,17 Feb 2020 20:45:12.962,17 Feb 2020 20:54:30.985,558.024
107,18 Feb 2020 10:13:33.747,18 Feb 2020 10:17:53.767,260.020
108,18 Feb 2020 11:46:08.259,18 Feb 2020 11:56:38.821,630.562
109,18 Feb 2020 13:22:56.966,18 Feb 2020 13:32:56.227,599.261
110,18 Feb 2020 15:01:25.673,18 Feb 2020 15:09:21.384,475.711
>>>>>>> b66cc47a083ade7d67ccf52795bce1886e2910f0

