vcc_sched/network/input/access_uvags_wj2xmr_vcc-c_44430.csv

"Access","Start Time (UTCG)","Stop Time (UTCG)","Duration (sec)"
1,1 Dec 2019 18:38:27.889,1 Dec 2019 18:48:30.833,602.944
2,1 Dec 2019 20:14:36.927,1 Dec 2019 20:25:04.463,627.536
3,1 Dec 2019 21:52:46.155,1 Dec 2019 22:01:26.835,520.680
4,1 Dec 2019 23:30:44.504,1 Dec 2019 23:39:01.877,497.373
5,2 Dec 2019 01:07:19.444,2 Dec 2019 01:17:23.415,603.971
6,2 Dec 2019 02:43:40.127,2 Dec 2019 02:54:16.162,636.035
7,2 Dec 2019 04:22:05.759,2 Dec 2019 04:27:17.248,311.490
8,2 Dec 2019 17:46:46.813,2 Dec 2019 17:55:40.318,533.505
9,2 Dec 2019 19:21:57.160,2 Dec 2019 19:32:39.892,642.731
10,2 Dec 2019 20:59:41.609,2 Dec 2019 21:08:55.841,554.232
11,2 Dec 2019 22:37:58.299,2 Dec 2019 22:46:03.079,484.779
12,3 Dec 2019 00:14:54.450,3 Dec 2019 00:24:24.384,569.934
13,3 Dec 2019 01:51:09.910,3 Dec 2019 02:01:55.772,645.862
14,3 Dec 2019 03:28:25.582,3 Dec 2019 03:36:36.968,491.387
15,3 Dec 2019 16:55:40.470,3 Dec 2019 17:02:21.544,401.074
16,3 Dec 2019 18:29:29.822,3 Dec 2019 18:40:10.912,641.090
17,3 Dec 2019 20:06:39.274,3 Dec 2019 20:16:28.486,589.211
18,3 Dec 2019 21:45:01.917,3 Dec 2019 21:53:11.561,489.645
19,3 Dec 2019 23:22:24.700,3 Dec 2019 23:31:19.144,534.444
20,4 Dec 2019 00:58:43.027,4 Dec 2019 01:09:19.680,636.653
21,4 Dec 2019 02:35:25.127,4 Dec 2019 02:45:06.312,581.185
22,4 Dec 2019 17:37:17.671,4 Dec 2019 17:47:34.476,616.804
23,4 Dec 2019 19:13:43.016,4 Dec 2019 19:24:02.266,619.250
24,4 Dec 2019 20:51:57.587,4 Dec 2019 21:00:28.197,510.610
25,4 Dec 2019 22:29:47.637,4 Dec 2019 22:38:11.982,504.344
26,5 Dec 2019 00:06:16.894,5 Dec 2019 00:16:30.309,613.415
27,5 Dec 2019 01:42:40.886,5 Dec 2019 01:53:08.192,627.305
28,5 Dec 2019 03:21:56.152,5 Dec 2019 03:25:09.620,193.468
29,5 Dec 2019 16:45:24.984,5 Dec 2019 16:54:45.805,560.821
30,5 Dec 2019 18:20:55.886,5 Dec 2019 18:31:34.837,638.952
31,5 Dec 2019 19:58:49.408,5 Dec 2019 20:07:51.683,542.275
32,5 Dec 2019 21:37:01.039,5 Dec 2019 21:45:07.533,486.493
33,5 Dec 2019 23:13:49.179,5 Dec 2019 23:23:30.254,581.075
34,6 Dec 2019 00:50:05.111,6 Dec 2019 01:00:49.794,644.682
35,6 Dec 2019 02:27:37.162,6 Dec 2019 02:35:04.051,446.889
36,6 Dec 2019 15:54:01.109,6 Dec 2019 16:01:35.016,453.908
37,6 Dec 2019 17:28:20.434,6 Dec 2019 17:39:03.825,643.391
38,6 Dec 2019 19:05:42.028,6 Dec 2019 19:15:19.670,577.642
39,6 Dec 2019 20:44:04.021,6 Dec 2019 20:52:09.604,485.583
40,6 Dec 2019 22:21:17.500,6 Dec 2019 22:30:22.725,545.226
41,6 Dec 2019 23:57:33.697,7 Dec 2019 00:08:14.724,641.027
42,7 Dec 2019 01:34:24.238,7 Dec 2019 01:43:41.888,557.651
43,7 Dec 2019 15:03:45.400,7 Dec 2019 15:07:22.206,216.806
44,7 Dec 2019 16:35:59.245,7 Dec 2019 16:46:26.429,627.184
45,7 Dec 2019 18:12:39.580,7 Dec 2019 18:22:49.594,610.014
46,7 Dec 2019 19:50:58.027,7 Dec 2019 19:59:19.852,501.826
47,7 Dec 2019 21:28:39.313,7 Dec 2019 21:37:11.800,512.487
48,7 Dec 2019 23:05:03.824,7 Dec 2019 23:15:25.553,621.728
49,8 Dec 2019 00:41:32.105,8 Dec 2019 00:51:47.845,615.740
50,8 Dec 2019 15:43:55.942,8 Dec 2019 15:53:38.595,582.653
51,8 Dec 2019 17:19:45.386,8 Dec 2019 17:30:19.057,633.671
52,8 Dec 2019 18:57:46.705,8 Dec 2019 19:06:37.594,530.889
53,8 Dec 2019 20:35:52.174,8 Dec 2019 20:44:02.133,489.959
54,8 Dec 2019 22:12:33.117,8 Dec 2019 22:22:24.765,591.647
55,8 Dec 2019 23:48:50.381,8 Dec 2019 23:59:31.713,641.333
56,9 Dec 2019 01:26:43.256,9 Dec 2019 01:33:14.956,391.701
57,9 Dec 2019 14:52:17.531,9 Dec 2019 15:00:32.763,495.231
58,9 Dec 2019 16:27:02.133,9 Dec 2019 16:37:45.701,643.569
59,9 Dec 2019 18:04:34.714,9 Dec 2019 18:14:00.671,565.957
60,9 Dec 2019 19:42:54.624,9 Dec 2019 19:50:57.988,483.363
61,9 Dec 2019 21:19:59.222,9 Dec 2019 21:29:15.351,556.129
62,9 Dec 2019 22:56:14.149,9 Dec 2019 23:06:57.874,643.725
63,10 Dec 2019 00:33:14.827,10 Dec 2019 00:42:04.215,529.388
64,10 Dec 2019 14:01:25.764,10 Dec 2019 14:06:46.621,320.856
65,10 Dec 2019 15:34:32.327,10 Dec 2019 15:45:06.905,634.578
66,10 Dec 2019 17:11:26.436,10 Dec 2019 17:21:26.497,600.061
67,10 Dec 2019 18:49:47.317,10 Dec 2019 18:58:01.811,494.494
68,10 Dec 2019 20:27:19.616,10 Dec 2019 20:36:01.140,521.525
69,10 Dec 2019 22:03:40.301,10 Dec 2019 22:14:09.092,628.792
70,10 Dec 2019 23:40:13.892,10 Dec 2019 23:50:15.043,601.152
71,11 Dec 2019 14:42:19.136,11 Dec 2019 14:52:19.141,600.004
72,11 Dec 2019 16:18:25.487,11 Dec 2019 16:28:52.608,627.121
73,11 Dec 2019 17:56:33.317,11 Dec 2019 18:05:13.610,520.294
74,11 Dec 2019 19:34:31.733,11 Dec 2019 19:42:46.710,494.977
75,11 Dec 2019 21:11:06.352,11 Dec 2019 21:21:07.824,601.472
76,11 Dec 2019 22:47:25.765,11 Dec 2019 22:58:01.518,635.753
77,12 Dec 2019 00:25:46.589,12 Dec 2019 00:31:06.970,320.381
78,12 Dec 2019 13:50:28.083,12 Dec 2019 13:59:16.344,528.261
79,12 Dec 2019 15:25:34.723,12 Dec 2019 15:36:16.637,641.914
80,12 Dec 2019 17:03:17.155,12 Dec 2019 17:12:31.529,554.374
81,12 Dec 2019 18:41:33.670,12 Dec 2019 18:49:36.623,482.953
82,12 Dec 2019 20:18:29.954,12 Dec 2019 20:27:56.872,566.918
83,12 Dec 2019 21:54:44.430,12 Dec 2019 22:05:29.091,644.661
84,12 Dec 2019 23:31:57.303,12 Dec 2019 23:40:12.900,495.598
85,13 Dec 2019 12:59:13.386,13 Dec 2019 13:05:43.735,390.350
86,13 Dec 2019 14:32:56.667,13 Dec 2019 14:43:36.081,639.414
87,13 Dec 2019 16:10:03.423,13 Dec 2019 16:19:53.026,589.602
88,13 Dec 2019 17:48:25.321,13 Dec 2019 17:56:34.047,488.726
89,13 Dec 2019 19:25:48.632,13 Dec 2019 19:34:39.822,531.190
90,13 Dec 2019 21:02:06.354,13 Dec 2019 21:12:40.880,634.526
91,13 Dec 2019 22:38:46.370,13 Dec 2019 22:48:29.677,583.307
92,14 Dec 2019 13:40:34.172,14 Dec 2019 13:50:47.775,613.603
93,14 Dec 2019 15:16:56.024,14 Dec 2019 15:27:15.550,619.525
94,14 Dec 2019 16:55:09.071,14 Dec 2019 17:03:39.742,510.671
95,14 Dec 2019 18:32:59.769,14 Dec 2019 18:41:21.082,501.313
96,14 Dec 2019 20:09:28.928,14 Dec 2019 20:19:39.353,610.425
97,14 Dec 2019 21:45:51.321,14 Dec 2019 21:56:19.163,627.842
98,14 Dec 2019 23:24:54.805,14 Dec 2019 23:28:32.466,217.662
99,15 Dec 2019 12:48:31.755,15 Dec 2019 12:57:46.704,554.948
100,15 Dec 2019 14:23:58.036,15 Dec 2019 14:34:36.717,638.681
101,15 Dec 2019 16:01:49.179,15 Dec 2019 16:10:52.278,543.099
102,15 Dec 2019 17:40:01.132,15 Dec 2019 17:48:05.391,484.259
103,15 Dec 2019 19:16:49.777,15 Dec 2019 19:26:27.176,577.399
104,15 Dec 2019 20:53:04.565,15 Dec 2019 21:03:48.371,643.806
105,15 Dec 2019 22:30:32.275,15 Dec 2019 22:38:07.352,455.078
106,16 Dec 2019 11:56:59.575,16 Dec 2019 12:04:22.138,442.563
107,16 Dec 2019 13:31:12.036,16 Dec 2019 13:41:54.087,642.050
108,16 Dec 2019 15:08:30.376,16 Dec 2019 15:18:09.215,578.839
109,16 Dec 2019 16:46:51.925,16 Dec 2019 16:54:56.519,484.593
110,16 Dec 2019 18:24:06.458,16 Dec 2019 18:33:07.680,541.222
111,16 Dec 2019 20:00:22.036,16 Dec 2019 20:11:00.888,638.852
112,16 Dec 2019 21:37:09.700,16 Dec 2019 21:46:31.611,561.911
113,17 Dec 2019 11:06:46.181,17 Dec 2019 11:09:44.987,178.806
114,17 Dec 2019 12:38:40.706,17 Dec 2019 12:49:04.754,624.047
115,17 Dec 2019 14:15:16.843,17 Dec 2019 14:25:27.937,611.095
116,17 Dec 2019 15:53:33.801,17 Dec 2019 16:00:00.000,386.199

