vcc_sched/network/input/access_vtgs_wj2xms_vcc-c_44430.csv

"Access","Start Time (UTCG)","Stop Time (UTCG)","Duration (sec)"
1,16 Dec 2019 16:46:55.147,16 Dec 2019 16:54:34.664,459.517
2,16 Dec 2019 18:24:18.965,16 Dec 2019 18:32:49.242,510.277
3,16 Dec 2019 20:00:32.432,16 Dec 2019 20:11:00.555,628.122
4,16 Dec 2019 21:37:09.958,16 Dec 2019 21:46:55.354,585.396
5,17 Dec 2019 12:38:37.484,17 Dec 2019 12:48:54.403,616.919
6,17 Dec 2019 14:15:09.660,17 Dec 2019 14:25:18.198,608.538
7,17 Dec 2019 15:53:34.870,17 Dec 2019 16:01:39.069,484.199
8,17 Dec 2019 17:31:30.065,17 Dec 2019 17:39:25.750,475.685
9,17 Dec 2019 19:07:55.038,17 Dec 2019 19:17:55.325,600.287
10,17 Dec 2019 20:44:14.430,17 Dec 2019 20:54:42.197,627.767
11,17 Dec 2019 22:23:12.836,17 Dec 2019 22:27:03.843,231.006
12,18 Dec 2019 11:46:30.732,18 Dec 2019 11:55:54.029,563.296
13,18 Dec 2019 13:22:07.341,18 Dec 2019 13:32:39.534,632.193
14,18 Dec 2019 15:00:10.325,18 Dec 2019 15:08:51.312,520.987
15,18 Dec 2019 16:38:30.635,18 Dec 2019 16:46:06.017,455.382
16,18 Dec 2019 18:15:16.231,18 Dec 2019 18:24:39.074,562.842
17,18 Dec 2019 19:51:27.422,18 Dec 2019 20:02:08.692,641.270
18,18 Dec 2019 21:28:52.802,18 Dec 2019 21:36:33.274,460.473
19,19 Dec 2019 10:54:52.997,19 Dec 2019 11:02:31.645,458.648
20,19 Dec 2019 12:29:17.367,19 Dec 2019 12:39:57.181,639.814
21,19 Dec 2019 14:06:46.813,19 Dec 2019 14:16:08.464,561.650
22,19 Dec 2019 15:45:19.381,19 Dec 2019 15:52:54.412,455.030
23,19 Dec 2019 17:22:33.450,19 Dec 2019 17:31:15.187,521.736
24,19 Dec 2019 18:58:44.918,19 Dec 2019 19:09:18.298,633.381
25,19 Dec 2019 20:35:30.192,19 Dec 2019 20:44:54.921,564.729
26,20 Dec 2019 10:04:21.915,20 Dec 2019 10:08:09.002,227.087
27,20 Dec 2019 11:36:42.288,20 Dec 2019 11:47:08.319,626.032
28,20 Dec 2019 13:13:28.834,20 Dec 2019 13:23:27.626,598.792
29,20 Dec 2019 14:51:57.920,20 Dec 2019 14:59:52.644,474.724
30,20 Dec 2019 16:29:43.815,20 Dec 2019 16:37:48.164,484.349
31,20 Dec 2019 18:06:04.117,20 Dec 2019 18:16:13.495,609.378
32,20 Dec 2019 19:42:27.512,20 Dec 2019 19:52:45.616,618.104
33,21 Dec 2019 10:44:25.635,21 Dec 2019 10:54:08.888,583.252
34,21 Dec 2019 12:20:19.852,21 Dec 2019 12:30:46.243,626.391
35,21 Dec 2019 13:58:30.587,21 Dec 2019 14:06:59.488,508.901
36,21 Dec 2019 15:36:44.351,21 Dec 2019 15:44:23.332,458.981
37,21 Dec 2019 17:13:22.620,21 Dec 2019 17:22:56.777,574.157
38,21 Dec 2019 18:49:35.078,21 Dec 2019 19:00:14.382,639.305
39,21 Dec 2019 20:27:18.640,21 Dec 2019 20:34:11.202,412.562
40,22 Dec 2019 09:52:34.410,22 Dec 2019 10:00:51.266,496.856
41,22 Dec 2019 11:27:22.546,22 Dec 2019 11:38:01.895,639.349
42,22 Dec 2019 13:05:02.757,22 Dec 2019 13:14:12.152,549.395
43,22 Dec 2019 14:43:33.139,22 Dec 2019 14:51:05.587,452.447
44,22 Dec 2019 16:20:37.933,22 Dec 2019 16:29:31.282,533.349
45,22 Dec 2019 17:56:48.185,22 Dec 2019 18:07:25.327,637.142
46,22 Dec 2019 19:33:42.594,22 Dec 2019 19:42:42.711,540.117
47,23 Dec 2019 09:01:30.409,23 Dec 2019 09:06:53.009,322.600
48,23 Dec 2019 10:34:39.385,23 Dec 2019 10:45:11.930,632.545
49,23 Dec 2019 12:11:39.267,23 Dec 2019 12:21:27.664,588.396
50,23 Dec 2019 13:50:10.854,23 Dec 2019 13:57:57.557,466.703
51,23 Dec 2019 15:27:47.250,23 Dec 2019 15:36:01.204,493.954
52,23 Dec 2019 17:04:03.772,23 Dec 2019 17:14:21.110,617.338
53,23 Dec 2019 18:40:32.027,23 Dec 2019 18:50:37.889,605.862
54,24 Dec 2019 09:42:13.486,24 Dec 2019 09:52:12.764,599.278
55,24 Dec 2019 11:18:23.889,24 Dec 2019 11:28:43.344,619.455
56,24 Dec 2019 12:56:41.197,24 Dec 2019 13:04:58.771,497.573
57,24 Dec 2019 14:34:47.527,24 Dec 2019 14:42:31.726,464.198
58,24 Dec 2019 16:11:19.355,24 Dec 2019 16:21:04.160,584.804
59,24 Dec 2019 17:47:33.798,24 Dec 2019 17:58:09.189,635.391
60,24 Dec 2019 19:25:40.674,24 Dec 2019 19:31:33.466,352.792
61,25 Dec 2019 08:50:10.408,25 Dec 2019 08:58:58.221,527.812
62,25 Dec 2019 10:25:19.496,25 Dec 2019 10:35:56.757,637.261
63,25 Dec 2019 12:03:09.470,25 Dec 2019 12:12:06.708,537.238
64,25 Dec 2019 13:41:36.358,25 Dec 2019 13:49:08.098,451.740
65,25 Dec 2019 15:18:32.495,25 Dec 2019 15:27:37.394,544.900
66,25 Dec 2019 16:54:42.270,25 Dec 2019 17:05:21.635,639.365
67,25 Dec 2019 18:31:47.460,25 Dec 2019 18:40:18.464,511.004
68,26 Dec 2019 07:58:44.758,26 Dec 2019 08:05:13.060,388.302
69,26 Dec 2019 09:32:28.573,26 Dec 2019 09:43:05.357,636.784
70,26 Dec 2019 11:09:40.800,26 Dec 2019 11:19:18.346,577.546
71,26 Dec 2019 12:48:13.536,26 Dec 2019 12:55:53.794,460.257
72,26 Dec 2019 14:25:40.461,26 Dec 2019 14:34:04.691,504.230
73,26 Dec 2019 16:01:54.030,26 Dec 2019 16:12:18.157,624.127
74,26 Dec 2019 17:38:28.069,26 Dec 2019 17:48:18.950,590.881
75,27 Dec 2019 08:39:53.937,27 Dec 2019 08:50:05.918,611.981
76,27 Dec 2019 10:16:19.300,27 Dec 2019 10:26:30.885,611.585
77,27 Dec 2019 11:54:41.989,27 Dec 2019 12:02:49.189,487.200
78,27 Dec 2019 13:32:40.223,27 Dec 2019 13:40:31.036,470.814
79,27 Dec 2019 15:09:06.482,27 Dec 2019 15:19:01.170,594.688
80,27 Dec 2019 16:45:23.629,27 Dec 2019 16:55:53.101,629.472
81,27 Dec 2019 18:24:02.709,27 Dec 2019 18:28:36.262,273.552
82,28 Dec 2019 07:47:40.166,28 Dec 2019 07:56:53.279,553.113
83,28 Dec 2019 09:23:08.080,28 Dec 2019 09:33:41.834,633.754
84,28 Dec 2019 11:01:06.798,28 Dec 2019 11:09:52.172,525.374
85,28 Dec 2019 12:39:29.024,28 Dec 2019 12:47:01.850,452.826
86,28 Dec 2019 14:16:17.200,28 Dec 2019 14:25:33.413,556.213
87,28 Dec 2019 15:52:27.200,28 Dec 2019 16:03:07.214,640.014
88,28 Dec 2019 17:29:45.193,28 Dec 2019 17:37:41.800,476.607
89,29 Dec 2019 06:55:57.837,29 Dec 2019 07:03:16.210,438.373
90,29 Dec 2019 08:30:09.670,29 Dec 2019 08:40:48.721,639.050
91,29 Dec 2019 10:07:33.308,29 Dec 2019 10:16:59.711,566.403
92,29 Dec 2019 11:46:05.864,29 Dec 2019 11:53:41.330,455.466
93,29 Dec 2019 13:23:23.537,29 Dec 2019 13:31:58.479,514.942
94,29 Dec 2019 14:59:34.926,29 Dec 2019 15:10:04.600,629.674
95,29 Dec 2019 16:36:15.746,29 Dec 2019 16:45:48.710,572.964
96,30 Dec 2019 06:05:41.862,30 Dec 2019 06:08:19.183,157.321
97,30 Dec 2019 07:37:26.723,30 Dec 2019 07:47:48.567,621.844
98,30 Dec 2019 09:14:05.969,30 Dec 2019 09:24:08.903,602.934
99,30 Dec 2019 10:52:32.822,30 Dec 2019 11:00:30.762,477.940
100,30 Dec 2019 12:30:22.510,30 Dec 2019 12:38:21.096,478.586
101,30 Dec 2019 14:06:44.042,30 Dec 2019 14:16:47.744,603.702
102,30 Dec 2019 15:43:04.602,30 Dec 2019 15:53:26.096,621.494
103,30 Dec 2019 17:22:39.112,30 Dec 2019 17:25:05.244,146.132
104,31 Dec 2019 06:45:03.112,31 Dec 2019 06:54:36.944,573.831
105,31 Dec 2019 08:20:48.152,31 Dec 2019 08:31:17.187,629.035
106,31 Dec 2019 09:58:54.591,31 Dec 2019 10:07:28.563,513.972
107,31 Dec 2019 11:37:11.142,31 Dec 2019 11:44:46.727,455.585
108,31 Dec 2019 13:13:52.115,31 Dec 2019 13:23:19.245,567.131
109,31 Dec 2019 14:50:02.999,31 Dec 2019 15:00:42.050,639.051
110,31 Dec 2019 16:27:36.390,31 Dec 2019 16:34:52.121,435.731
111,1 Jan 2020 05:53:06.909,1 Jan 2020 06:01:05.136,478.227
112,1 Jan 2020 07:27:42.519,1 Jan 2020 07:38:22.099,639.580
113,1 Jan 2020 09:05:16.646,1 Jan 2020 09:14:31.788,555.142
114,1 Jan 2020 10:43:47.767,1 Jan 2020 10:51:20.130,452.363
115,1 Jan 2020 12:20:56.558,1 Jan 2020 12:29:42.435,525.877
116,1 Jan 2020 13:57:06.486,1 Jan 2020 14:07:40.429,633.943
117,1 Jan 2020 15:33:55.207,1 Jan 2020 15:43:07.046,551.839
118,2 Jan 2020 05:02:06.796,2 Jan 2020 05:06:43.821,277.024
119,2 Jan 2020 06:34:51.614,2 Jan 2020 06:45:20.860,629.246
120,2 Jan 2020 08:11:43.755,2 Jan 2020 08:21:37.436,593.682
121,2 Jan 2020 09:50:13.570,2 Jan 2020 09:58:03.496,469.926
122,2 Jan 2020 11:27:54.463,2 Jan 2020 11:36:01.754,487.291
123,2 Jan 2020 13:04:12.077,2 Jan 2020 13:14:23.844,611.767
124,2 Jan 2020 14:40:36.777,2 Jan 2020 14:50:48.141,611.364
125,3 Jan 2020 05:42:18.817,3 Jan 2020 05:52:09.569,590.752
126,3 Jan 2020 07:18:19.590,3 Jan 2020 07:28:42.855,623.265
127,3 Jan 2020 08:56:32.713,3 Jan 2020 09:04:55.907,503.195
128,3 Jan 2020 10:34:42.740,3 Jan 2020 10:42:22.591,459.852
129,3 Jan 2020 12:11:17.291,3 Jan 2020 12:20:54.817,577.525
130,3 Jan 2020 13:47:29.693,3 Jan 2020 13:58:06.136,636.443
131,3 Jan 2020 15:25:22.066,3 Jan 2020 15:31:48.438,386.372
132,4 Jan 2020 04:50:10.544,4 Jan 2020 04:58:41.206,510.662
133,4 Jan 2020 06:25:06.975,4 Jan 2020 06:35:45.566,638.591
134,4 Jan 2020 08:02:50.679,4 Jan 2020 08:11:54.601,543.922
135,4 Jan 2020 09:41:19.189,4 Jan 2020 09:48:50.121,450.932
136,4 Jan 2020 11:18:19.595,4 Jan 2020 11:27:16.436,536.841
137,4 Jan 2020 12:54:28.730,4 Jan 2020 13:05:05.632,636.902
138,4 Jan 2020 14:31:26.621,4 Jan 2020 14:40:13.793,527.172
139,5 Jan 2020 03:58:45.348,5 Jan 2020 04:04:36.533,351.185
140,5 Jan 2020 05:32:08.421,5 Jan 2020 05:42:42.921,634.500
141,5 Jan 2020 07:09:12.534,5 Jan 2020 07:18:56.519,583.985
142,5 Jan 2020 08:47:44.120,5 Jan 2020 08:55:27.385,463.265
143,5 Jan 2020 10:25:16.160,5 Jan 2020 10:33:32.860,496.700
144,5 Jan 2020 12:01:30.617,5 Jan 2020 12:11:49.453,618.836
145,5 Jan 2020 13:38:00.210,5 Jan 2020 13:47:59.199,598.988
146,6 Jan 2020 04:39:26.967,6 Jan 2020 04:49:31.432,604.465
147,6 Jan 2020 06:15:42.271,6 Jan 2020 06:25:58.877,616.606
148,6 Jan 2020 07:54:01.029,6 Jan 2020 08:02:14.221,493.192
149,6 Jan 2020 09:32:03.863,6 Jan 2020 09:39:49.305,465.442
150,6 Jan 2020 11:08:32.776,6 Jan 2020 11:18:20.062,587.287
151,6 Jan 2020 12:44:47.305,6 Jan 2020 12:55:19.471,632.166
152,6 Jan 2020 14:23:04.100,6 Jan 2020 14:28:28.872,324.772

