vcc_sched/network/input/access_odugs_wj2xoh_vcc-b_44431.csv

"Access","Start Time (UTCG)","Stop Time (UTCG)","Duration (sec)"
<<<<<<< HEAD
1,26 Mar 2020 01:25:26.869,26 Mar 2020 01:32:57.347,450.478
2,26 Mar 2020 03:01:56.659,26 Mar 2020 03:11:31.776,575.117
3,26 Mar 2020 04:38:04.694,26 Mar 2020 04:48:43.596,638.903
4,26 Mar 2020 06:15:51.784,26 Mar 2020 06:22:26.923,395.139
5,26 Mar 2020 19:40:09.283,26 Mar 2020 19:48:44.437,515.155
6,26 Mar 2020 21:15:06.521,26 Mar 2020 21:25:44.139,637.618
7,26 Mar 2020 22:52:51.351,26 Mar 2020 23:01:48.858,537.507
8,27 Mar 2020 00:31:21.006,27 Mar 2020 00:38:41.210,440.205
9,27 Mar 2020 02:08:17.970,27 Mar 2020 02:17:09.173,531.203
10,27 Mar 2020 03:44:22.479,27 Mar 2020 03:55:00.213,637.734
11,27 Mar 2020 05:21:15.142,27 Mar 2020 05:30:10.069,534.927
12,27 Mar 2020 18:48:02.790,27 Mar 2020 18:53:57.468,354.678
13,27 Mar 2020 20:21:25.292,27 Mar 2020 20:31:59.810,634.518
14,27 Mar 2020 21:58:29.114,27 Mar 2020 22:08:09.328,580.214
15,27 Mar 2020 23:37:02.225,27 Mar 2020 23:44:35.663,453.439
16,28 Mar 2020 01:14:32.988,28 Mar 2020 01:22:40.798,487.811
17,28 Mar 2020 02:50:42.999,28 Mar 2020 03:01:00.083,617.084
18,28 Mar 2020 04:27:07.360,28 Mar 2020 04:37:12.432,605.072
19,28 Mar 2020 19:28:01.802,28 Mar 2020 19:38:05.920,604.118
20,28 Mar 2020 21:04:15.099,28 Mar 2020 21:14:29.939,614.839
21,28 Mar 2020 22:42:34.459,28 Mar 2020 22:50:40.373,485.913
22,29 Mar 2020 00:20:38.199,29 Mar 2020 00:28:12.458,454.258
23,29 Mar 2020 01:57:03.531,29 Mar 2020 02:06:45.802,582.271
24,29 Mar 2020 03:33:12.944,29 Mar 2020 03:43:48.734,635.791
25,29 Mar 2020 05:11:16.647,29 Mar 2020 05:17:08.969,352.322
26,29 Mar 2020 18:35:01.689,29 Mar 2020 18:43:56.134,534.445
27,29 Mar 2020 20:10:12.498,29 Mar 2020 20:20:48.009,635.512
28,29 Mar 2020 21:48:03.761,29 Mar 2020 21:56:52.439,528.678
29,29 Mar 2020 23:26:30.583,29 Mar 2020 23:33:50.263,439.680
30,30 Mar 2020 01:03:21.414,30 Mar 2020 01:12:20.484,539.070
31,30 Mar 2020 02:39:25.574,30 Mar 2020 02:50:04.572,638.999
32,30 Mar 2020 04:16:25.540,30 Mar 2020 04:25:00.277,514.737
33,30 Mar 2020 17:42:39.702,30 Mar 2020 17:49:14.980,395.278
34,30 Mar 2020 19:16:24.002,30 Mar 2020 19:27:00.774,636.772
35,30 Mar 2020 20:53:35.998,30 Mar 2020 21:03:08.329,572.331
36,30 Mar 2020 22:32:09.638,30 Mar 2020 22:39:38.354,448.716
37,31 Mar 2020 00:09:33.599,31 Mar 2020 00:17:48.414,494.815
38,31 Mar 2020 01:45:41.528,31 Mar 2020 01:56:03.095,621.567
39,31 Mar 2020 03:22:09.678,31 Mar 2020 03:32:04.520,594.842
40,31 Mar 2020 18:22:52.627,31 Mar 2020 18:33:04.749,612.121
41,31 Mar 2020 19:59:15.785,31 Mar 2020 20:09:24.898,609.113
42,31 Mar 2020 21:37:38.678,31 Mar 2020 21:45:37.080,478.401
43,31 Mar 2020 23:15:36.590,31 Mar 2020 23:23:15.223,458.633
44,1 Apr 2020 00:51:57.992,1 Apr 2020 01:01:46.886,588.895
45,1 Apr 2020 02:28:09.064,1 Apr 2020 02:38:40.906,631.843
46,1 Apr 2020 04:06:32.938,1 Apr 2020 04:11:34.773,301.834
47,1 Apr 2020 17:29:43.336,1 Apr 2020 17:38:54.293,550.957
48,1 Apr 2020 19:05:06.518,1 Apr 2020 19:15:39.390,632.872
49,1 Apr 2020 20:43:03.609,1 Apr 2020 20:51:43.832,520.223
50,1 Apr 2020 22:21:27.121,1 Apr 2020 22:28:47.164,440.043
51,1 Apr 2020 23:58:12.304,2 Apr 2020 00:07:18.958,546.653
52,2 Apr 2020 01:34:16.432,2 Apr 2020 01:44:55.965,639.533
53,2 Apr 2020 03:11:24.411,2 Apr 2020 03:19:37.110,492.698
54,2 Apr 2020 16:37:08.096,2 Apr 2020 16:44:16.707,428.612
55,2 Apr 2020 18:11:10.939,2 Apr 2020 18:21:49.094,638.155
56,2 Apr 2020 19:48:30.507,2 Apr 2020 19:57:55.049,564.542
57,2 Apr 2020 21:27:04.054,2 Apr 2020 21:34:28.955,444.901
58,2 Apr 2020 23:04:21.483,2 Apr 2020 23:12:43.362,501.878
59,3 Apr 2020 00:40:27.728,3 Apr 2020 00:50:53.132,625.404
60,3 Apr 2020 02:17:00.003,3 Apr 2020 02:26:43.589,583.587
61,3 Apr 2020 15:46:31.267,3 Apr 2020 15:47:46.926,75.659
62,3 Apr 2020 17:17:31.931,3 Apr 2020 17:27:50.692,618.761
63,3 Apr 2020 18:54:04.260,3 Apr 2020 19:04:07.474,603.213
64,3 Apr 2020 20:32:30.060,3 Apr 2020 20:40:21.663,471.603
65,3 Apr 2020 22:10:22.071,3 Apr 2020 22:18:05.548,463.477
66,3 Apr 2020 23:46:40.020,3 Apr 2020 23:56:35.032,595.011
67,4 Apr 2020 01:22:53.019,4 Apr 2020 01:33:20.131,627.111
68,4 Apr 2020 03:01:42.865,4 Apr 2020 03:05:42.098,239.233
69,4 Apr 2020 16:24:13.966,4 Apr 2020 16:33:39.081,565.115
70,4 Apr 2020 17:59:48.481,4 Apr 2020 18:10:18.283,629.802
71,4 Apr 2020 19:37:50.814,4 Apr 2020 19:46:23.012,512.198
72,4 Apr 2020 21:16:10.621,4 Apr 2020 21:23:31.826,441.205
73,4 Apr 2020 22:52:50.635,4 Apr 2020 23:02:04.558,553.923
74,5 Apr 2020 00:28:55.019,5 Apr 2020 00:39:34.404,639.385
75,5 Apr 2020 02:06:11.786,5 Apr 2020 02:14:00.496,468.709
76,5 Apr 2020 15:31:26.990,5 Apr 2020 15:39:03.551,456.561
77,5 Apr 2020 17:05:45.985,5 Apr 2020 17:16:24.777,638.793
78,5 Apr 2020 18:43:12.547,5 Apr 2020 18:52:29.464,556.917
79,5 Apr 2020 20:21:45.445,5 Apr 2020 20:29:07.411,441.967
80,5 Apr 2020 21:58:56.651,5 Apr 2020 22:07:25.579,508.927
81,5 Apr 2020 23:35:01.570,5 Apr 2020 23:45:30.197,628.627
82,6 Apr 2020 01:11:38.290,6 Apr 2020 01:21:09.651,571.361
83,6 Apr 2020 14:39:56.106,6 Apr 2020 14:43:18.306,202.200
84,6 Apr 2020 16:11:59.585,6 Apr 2020 16:22:23.783,624.198
85,6 Apr 2020 17:48:40.427,6 Apr 2020 17:58:37.652,597.225
86,6 Apr 2020 19:27:08.545,6 Apr 2020 19:34:54.071,465.526
87,6 Apr 2020 21:04:54.663,6 Apr 2020 21:12:43.343,468.681
88,6 Apr 2020 22:41:09.597,6 Apr 2020 22:51:10.212,600.614
89,7 Apr 2020 00:17:24.758,7 Apr 2020 00:27:46.415,621.657
90,7 Apr 2020 01:56:53.354,7 Apr 2020 01:59:23.990,150.636
91,7 Apr 2020 15:18:33.340,7 Apr 2020 15:28:10.624,577.284
92,7 Apr 2020 16:54:18.281,7 Apr 2020 17:04:44.674,626.393
93,7 Apr 2020 18:32:25.293,7 Apr 2020 18:40:49.942,504.649
94,7 Apr 2020 20:10:41.089,7 Apr 2020 20:18:04.160,443.071
95,7 Apr 2020 21:47:16.399,7 Apr 2020 21:56:37.252,560.853
96,7 Apr 2020 23:23:21.293,7 Apr 2020 23:33:59.908,638.614
97,8 Apr 2020 01:00:47.717,8 Apr 2020 01:08:10.365,442.648
98,8 Apr 2020 14:25:35.745,8 Apr 2020 14:33:36.062,480.317
99,8 Apr 2020 16:00:09.034,8 Apr 2020 16:10:47.831,638.798
100,8 Apr 2020 17:37:42.036,8 Apr 2020 17:46:51.544,549.509
101,8 Apr 2020 19:16:13.779,8 Apr 2020 19:23:33.650,439.871
102,8 Apr 2020 20:53:19.111,8 Apr 2020 21:01:55.004,515.893
103,8 Apr 2020 22:29:23.022,8 Apr 2020 22:39:54.308,631.286
104,9 Apr 2020 00:06:04.517,9 Apr 2020 00:15:22.719,558.202
105,9 Apr 2020 13:33:38.107,9 Apr 2020 13:38:08.054,269.947
106,9 Apr 2020 15:06:15.459,9 Apr 2020 15:16:44.054,628.595
107,9 Apr 2020 16:43:04.189,9 Apr 2020 16:52:55.414,591.224
108,9 Apr 2020 18:21:34.078,9 Apr 2020 18:29:14.258,460.180
109,9 Apr 2020 19:59:14.373,9 Apr 2020 20:07:08.527,474.154
110,9 Apr 2020 21:35:26.698,9 Apr 2020 21:45:32.424,605.726
111,9 Apr 2020 23:11:44.245,9 Apr 2020 23:21:59.791,615.546
112,10 Apr 2020 14:12:41.283,10 Apr 2020 14:22:29.016,587.733
113,10 Apr 2020 15:48:35.826,10 Apr 2020 15:58:58.555,622.729
114,10 Apr 2020 17:26:46.982,10 Apr 2020 17:35:04.594,497.611
115,10 Apr 2020 19:04:58.534,10 Apr 2020 19:12:24.078,445.543
116,10 Apr 2020 20:41:29.594,10 Apr 2020 20:50:57.010,567.416
117,10 Apr 2020 22:17:35.223,10 Apr 2020 22:28:12.481,637.258
118,10 Apr 2020 23:55:12.302,11 Apr 2020 00:02:06.584,414.282
119,11 Apr 2020 13:19:33.905,11 Apr 2020 13:27:54.590,500.685
120,11 Apr 2020 14:54:19.992,11 Apr 2020 15:04:58.251,638.260
121,11 Apr 2020 16:31:58.892,11 Apr 2020 16:41:01.268,542.375
122,11 Apr 2020 18:10:29.046,11 Apr 2020 18:17:47.593,438.547
123,11 Apr 2020 19:47:28.870,11 Apr 2020 19:56:11.591,522.721
124,11 Apr 2020 21:23:32.054,11 Apr 2020 21:34:05.455,633.402
125,11 Apr 2020 23:00:18.628,11 Apr 2020 23:09:22.799,544.171
126,12 Apr 2020 12:27:17.026,12 Apr 2020 12:32:36.321,319.295
127,12 Apr 2020 14:00:19.424,12 Apr 2020 14:10:51.533,632.109
128,12 Apr 2020 15:37:15.476,12 Apr 2020 15:47:00.734,585.257
129,12 Apr 2020 17:15:46.615,12 Apr 2020 17:23:22.163,455.548
130,12 Apr 2020 18:53:21.220,12 Apr 2020 19:01:21.029,479.809
131,12 Apr 2020 20:29:31.311,12 Apr 2020 20:39:41.658,610.347
132,12 Apr 2020 22:05:51.428,12 Apr 2020 22:16:00.267,608.838
133,13 Apr 2020 13:06:37.630,13 Apr 2020 13:16:34.332,596.703
134,13 Apr 2020 14:42:41.040,13 Apr 2020 14:52:59.910,618.871
135,13 Apr 2020 16:20:55.817,13 Apr 2020 16:29:06.918,491.101
136,13 Apr 2020 17:59:02.964,13 Apr 2020 18:06:31.494,448.530
137,13 Apr 2020 19:35:30.203,13 Apr 2020 19:45:03.810,573.607
138,13 Apr 2020 21:11:36.756,13 Apr 2020 21:22:12.139,635.383
139,13 Apr 2020 22:49:25.659,13 Apr 2020 22:55:48.997,383.338
140,14 Apr 2020 12:13:21.127,14 Apr 2020 12:21:59.399,518.271
141,14 Apr 2020 13:48:18.752,14 Apr 2020 13:58:56.044,637.292
142,14 Apr 2020 15:26:03.048,14 Apr 2020 15:34:58.594,535.546
143,14 Apr 2020 17:04:31.232,14 Apr 2020 17:11:49.168,437.936
144,14 Apr 2020 18:41:25.920,14 Apr 2020 18:50:15.291,529.372
145,14 Apr 2020 20:17:28.627,14 Apr 2020 20:28:03.659,635.032
146,14 Apr 2020 21:54:20.582,14 Apr 2020 22:03:09.909,529.327
147,15 Apr 2020 11:20:48.817,15 Apr 2020 11:26:47.076,358.259
148,15 Apr 2020 12:54:11.382,15 Apr 2020 13:04:46.221,634.839
149,15 Apr 2020 14:31:14.205,15 Apr 2020 14:40:53.584,579.379
150,15 Apr 2020 16:09:46.123,15 Apr 2020 16:17:17.740,451.617
151,15 Apr 2020 17:47:15.213,15 Apr 2020 17:55:20.779,485.566
152,15 Apr 2020 19:23:23.395,15 Apr 2020 19:33:37.915,614.520
153,15 Apr 2020 20:59:46.261,15 Apr 2020 21:09:47.872,601.611
154,16 Apr 2020 12:00:22.228,16 Apr 2020 12:10:26.616,604.388
155,16 Apr 2020 13:36:33.828,16 Apr 2020 13:46:48.708,614.881
156,16 Apr 2020 15:14:51.746,16 Apr 2020 15:22:56.866,485.120
157,16 Apr 2020 16:52:54.401,16 Apr 2020 17:00:26.323,451.922
158,16 Apr 2020 18:29:18.204,16 Apr 2020 18:38:57.631,579.427
159,16 Apr 2020 20:05:25.856,16 Apr 2020 20:15:58.903,633.048
160,16 Apr 2020 21:43:28.018,16 Apr 2020 21:49:17.340,349.323
161,17 Apr 2020 11:06:57.146,17 Apr 2020 11:15:50.652,533.507
162,17 Apr 2020 12:42:05.237,17 Apr 2020 12:52:41.180,635.943
163,17 Apr 2020 14:19:54.435,17 Apr 2020 14:28:43.492,529.057
164,17 Apr 2020 15:58:20.334,17 Apr 2020 16:05:38.291,437.957
165,17 Apr 2020 17:35:10.259,17 Apr 2020 17:44:06.063,535.804
166,17 Apr 2020 19:11:12.707,17 Apr 2020 19:21:48.912,636.205
167,17 Apr 2020 20:48:10.340,17 Apr 2020 20:56:44.059,513.719
168,18 Apr 2020 10:14:11.739,18 Apr 2020 10:20:41.963,390.224
169,18 Apr 2020 11:47:51.229,18 Apr 2020 11:58:28.128,636.899
170,18 Apr 2020 13:25:00.304,18 Apr 2020 13:34:33.934,573.630
171,18 Apr 2020 15:03:32.564,18 Apr 2020 15:11:00.914,448.350
172,18 Apr 2020 16:40:56.361,18 Apr 2020 16:49:07.710,491.349
173,18 Apr 2020 18:17:02.929,18 Apr 2020 18:27:21.191,618.262
174,18 Apr 2020 19:53:28.694,18 Apr 2020 20:03:22.614,593.920
175,19 Apr 2020 10:53:54.958,19 Apr 2020 11:04:05.900,610.942
176,19 Apr 2020 12:30:14.115,19 Apr 2020 12:40:24.937,610.821
177,19 Apr 2020 14:08:34.708,19 Apr 2020 14:16:34.396,479.688
178,19 Apr 2020 15:46:32.842,19 Apr 2020 15:54:08.488,455.645
179,19 Apr 2020 17:22:53.585,19 Apr 2020 17:32:38.450,584.866
180,19 Apr 2020 18:59:02.473,19 Apr 2020 19:09:32.782,630.308
181,19 Apr 2020 20:37:19.728,19 Apr 2020 20:42:31.228,311.500
182,20 Apr 2020 10:00:21.742,20 Apr 2020 10:09:28.479,546.737
183,20 Apr 2020 11:35:39.360,20 Apr 2020 11:46:13.651,634.291
184,20 Apr 2020 13:13:32.991,20 Apr 2020 13:22:15.912,522.921
185,20 Apr 2020 14:51:56.348,20 Apr 2020 14:59:14.887,438.538
186,20 Apr 2020 16:28:41.882,20 Apr 2020 16:37:43.867,541.985
187,20 Apr 2020 18:04:44.255,20 Apr 2020 18:15:21.228,636.973
188,20 Apr 2020 19:41:47.850,20 Apr 2020 19:50:05.259,497.409
189,21 Apr 2020 09:07:24.816,21 Apr 2020 09:14:21.860,417.044
190,21 Apr 2020 10:41:18.872,21 Apr 2020 10:51:57.250,638.377
191,21 Apr 2020 12:18:33.703,21 Apr 2020 12:28:01.748,568.046
192,21 Apr 2020 13:57:05.920,21 Apr 2020 14:04:31.619,445.698
193,21 Apr 2020 15:34:24.672,21 Apr 2020 15:42:41.761,497.089
194,21 Apr 2020 17:10:29.882,21 Apr 2020 17:20:51.473,621.592
195,21 Apr 2020 18:46:58.667,21 Apr 2020 18:56:44.513,585.846
196,22 Apr 2020 09:47:15.702,22 Apr 2020 09:57:32.215,616.513
197,22 Apr 2020 11:23:41.834,22 Apr 2020 11:33:48.559,606.724
198,22 Apr 2020 13:02:04.662,22 Apr 2020 13:09:59.450,474.788
199,22 Apr 2020 14:39:58.309,22 Apr 2020 14:47:37.909,459.600
200,22 Apr 2020 16:16:16.320,22 Apr 2020 16:26:06.254,589.933
201,22 Apr 2020 17:52:26.564,22 Apr 2020 18:02:53.784,627.220
202,22 Apr 2020 19:31:01.429,22 Apr 2020 19:35:29.975,268.546
203,23 Apr 2020 08:53:34.740,23 Apr 2020 09:02:52.983,558.242
204,23 Apr 2020 10:29:01.048,23 Apr 2020 10:39:33.445,632.397
205,23 Apr 2020 12:06:58.659,23 Apr 2020 12:15:35.810,517.151
206,23 Apr 2020 13:45:19.281,23 Apr 2020 13:52:38.874,439.594
207,23 Apr 2020 15:22:00.778,23 Apr 2020 15:31:08.670,547.893
208,23 Apr 2020 16:58:03.231,23 Apr 2020 17:08:40.607,637.376
209,23 Apr 2020 18:35:13.065,23 Apr 2020 18:43:13.513,480.448
210,24 Apr 2020 08:00:27.440,24 Apr 2020 08:07:47.305,439.866
211,24 Apr 2020 09:34:34.226,24 Apr 2020 09:45:13.579,639.353
212,24 Apr 2020 11:11:54.343,24 Apr 2020 11:21:16.991,562.648
213,24 Apr 2020 12:50:26.172,24 Apr 2020 12:57:49.788,443.616
214,24 Apr 2020 14:27:40.143,24 Apr 2020 14:36:02.877,502.734
215,24 Apr 2020 16:03:44.220,24 Apr 2020 16:14:08.760,624.540
216,24 Apr 2020 17:40:16.127,24 Apr 2020 17:49:53.587,577.460
217,25 Apr 2020 07:09:01.246,25 Apr 2020 07:11:07.020,125.774
218,25 Apr 2020 08:40:24.355,25 Apr 2020 08:50:45.572,621.217
219,25 Apr 2020 10:16:56.916,25 Apr 2020 10:26:59.548,602.632
220,25 Apr 2020 11:55:21.583,25 Apr 2020 12:03:11.977,470.393
221,25 Apr 2020 13:33:10.805,25 Apr 2020 13:40:54.514,463.709
222,25 Apr 2020 15:09:26.393,25 Apr 2020 15:19:21.030,594.637
223,25 Apr 2020 16:45:38.084,25 Apr 2020 16:56:01.921,623.837
224,25 Apr 2020 18:24:34.443,25 Apr 2020 18:28:12.223,217.780
225,26 Apr 2020 07:46:35.971,26 Apr 2020 07:56:04.219,568.247
226,26 Apr 2020 09:22:10.213,26 Apr 2020 09:32:40.521,630.308
227,26 Apr 2020 11:00:11.396,26 Apr 2020 11:08:43.147,511.752
228,26 Apr 2020 12:38:29.129,26 Apr 2020 12:45:50.177,441.048
229,26 Apr 2020 14:15:06.929,26 Apr 2020 14:24:20.437,553.508
230,26 Apr 2020 15:51:09.599,26 Apr 2020 16:01:47.057,637.458
231,26 Apr 2020 17:28:25.926,26 Apr 2020 17:36:08.833,462.907
232,27 Apr 2020 06:53:19.187,27 Apr 2020 07:00:58.630,459.442
233,27 Apr 2020 08:27:37.205,27 Apr 2020 08:38:17.099,639.893
234,27 Apr 2020 10:05:02.155,27 Apr 2020 10:14:19.623,557.468
235,27 Apr 2020 11:43:33.306,27 Apr 2020 11:50:55.353,442.047
236,27 Apr 2020 13:20:42.774,27 Apr 2020 13:29:11.007,508.233
237,27 Apr 2020 14:56:45.914,27 Apr 2020 15:07:13.041,627.128
238,27 Apr 2020 16:33:21.012,27 Apr 2020 16:42:49.851,568.839
239,28 Apr 2020 06:01:20.034,28 Apr 2020 06:04:42.014,201.981
240,28 Apr 2020 07:33:20.820,28 Apr 2020 07:43:45.972,625.152
241,28 Apr 2020 09:09:59.291,28 Apr 2020 09:19:57.871,598.581
242,28 Apr 2020 10:48:25.426,28 Apr 2020 10:56:11.909,466.482
243,28 Apr 2020 12:26:10.338,28 Apr 2020 12:33:58.232,467.894
244,28 Apr 2020 14:02:23.773,28 Apr 2020 14:12:22.751,598.978
245,28 Apr 2020 15:38:36.977,28 Apr 2020 15:48:57.201,620.224
246,28 Apr 2020 17:18:02.317,28 Apr 2020 17:20:34.357,152.039
247,29 Apr 2020 06:39:25.314,29 Apr 2020 06:49:02.239,576.926
248,29 Apr 2020 08:15:06.798,29 Apr 2020 08:25:34.873,628.075
249,29 Apr 2020 09:53:11.141,29 Apr 2020 10:01:37.876,506.735
250,29 Apr 2020 11:31:25.903,29 Apr 2020 11:38:48.707,442.805
251,29 Apr 2020 13:08:00.332,29 Apr 2020 13:17:19.132,558.800
252,29 Apr 2020 14:44:03.315,29 Apr 2020 14:54:40.569,637.254
253,29 Apr 2020 16:21:26.382,29 Apr 2020 16:28:51.232,444.849
254,30 Apr 2020 05:45:59.726,30 Apr 2020 05:53:56.076,476.350
255,30 Apr 2020 07:20:27.737,30 Apr 2020 07:31:07.795,640.058
256,30 Apr 2020 08:57:57.091,30 Apr 2020 09:07:09.603,552.512
257,30 Apr 2020 10:36:27.311,30 Apr 2020 10:43:48.239,440.928
258,30 Apr 2020 12:13:32.559,30 Apr 2020 12:22:06.099,513.539
259,30 Apr 2020 13:49:34.929,30 Apr 2020 14:00:04.318,629.389
260,30 Apr 2020 15:26:13.273,30 Apr 2020 15:35:33.319,560.046
=======
1,3 Feb 2020 16:59:00.986,3 Feb 2020 17:09:06.934,605.947
2,3 Feb 2020 18:35:13.254,3 Feb 2020 18:45:36.835,623.581
3,3 Feb 2020 20:13:34.602,3 Feb 2020 20:21:50.672,496.070
4,3 Feb 2020 21:51:45.732,3 Feb 2020 21:59:23.250,457.518
5,3 Feb 2020 23:28:18.218,3 Feb 2020 23:38:00.008,581.789
6,4 Feb 2020 01:04:31.470,4 Feb 2020 01:15:10.243,638.774
7,4 Feb 2020 02:42:31.555,4 Feb 2020 02:48:44.580,373.025
8,4 Feb 2020 16:06:58.990,4 Feb 2020 16:15:54.368,535.378
9,4 Feb 2020 17:42:09.822,4 Feb 2020 17:52:52.266,642.444
10,4 Feb 2020 19:20:03.006,4 Feb 2020 19:29:00.985,537.979
11,4 Feb 2020 20:58:35.106,4 Feb 2020 21:06:01.067,445.961
12,4 Feb 2020 22:35:33.078,4 Feb 2020 22:44:33.572,540.494
13,5 Feb 2020 00:11:42.096,5 Feb 2020 00:22:22.923,640.827
14,5 Feb 2020 01:48:44.208,5 Feb 2020 01:57:26.224,522.016
15,5 Feb 2020 15:15:33.863,5 Feb 2020 15:22:11.791,397.928
16,5 Feb 2020 16:49:20.052,5 Feb 2020 17:00:02.847,642.795
17,5 Feb 2020 18:26:34.798,5 Feb 2020 18:36:14.930,580.132
18,5 Feb 2020 20:05:12.468,5 Feb 2020 20:12:48.775,456.307
19,5 Feb 2020 21:42:42.605,5 Feb 2020 21:51:01.393,498.788
20,5 Feb 2020 23:18:55.901,5 Feb 2020 23:29:19.801,623.901
21,6 Feb 2020 00:55:28.080,6 Feb 2020 01:05:26.058,597.978
22,6 Feb 2020 15:56:46.677,6 Feb 2020 16:07:05.404,618.728
23,6 Feb 2020 17:33:14.093,6 Feb 2020 17:43:29.690,615.597
24,6 Feb 2020 19:11:41.014,6 Feb 2020 19:19:46.524,485.510
25,6 Feb 2020 20:49:43.646,6 Feb 2020 20:57:28.601,464.956
26,6 Feb 2020 22:26:10.328,6 Feb 2020 22:36:03.240,592.912
27,7 Feb 2020 00:02:26.242,7 Feb 2020 00:13:00.294,634.052
28,7 Feb 2020 01:40:55.459,7 Feb 2020 01:45:56.536,301.077
29,7 Feb 2020 15:04:34.149,7 Feb 2020 15:13:54.864,560.715
30,7 Feb 2020 16:40:03.941,7 Feb 2020 16:50:42.797,638.856
31,7 Feb 2020 18:18:06.088,7 Feb 2020 18:26:51.952,525.865
32,7 Feb 2020 19:56:33.331,7 Feb 2020 20:04:00.798,447.466
33,7 Feb 2020 21:33:22.946,7 Feb 2020 21:42:35.980,553.035
34,7 Feb 2020 23:09:32.148,7 Feb 2020 23:20:14.792,642.644
35,8 Feb 2020 00:46:46.580,8 Feb 2020 00:54:56.251,489.670
36,8 Feb 2020 14:12:52.692,8 Feb 2020 14:20:20.318,447.626
37,8 Feb 2020 15:47:06.800,8 Feb 2020 15:57:51.803,645.003
38,8 Feb 2020 17:24:33.176,8 Feb 2020 17:34:01.911,568.734
39,8 Feb 2020 19:03:10.672,8 Feb 2020 19:10:42.219,451.546
40,8 Feb 2020 20:40:31.063,8 Feb 2020 20:49:01.678,510.616
41,8 Feb 2020 22:16:42.084,8 Feb 2020 22:27:12.715,630.631
42,8 Feb 2020 23:53:20.897,9 Feb 2020 00:03:02.327,581.430
43,9 Feb 2020 13:22:31.961,9 Feb 2020 13:25:31.478,179.517
44,9 Feb 2020 14:54:25.242,9 Feb 2020 15:04:53.784,628.542
45,9 Feb 2020 16:31:06.737,9 Feb 2020 16:41:13.452,606.715
46,9 Feb 2020 18:09:37.967,9 Feb 2020 18:17:33.997,476.030
47,9 Feb 2020 19:47:31.598,9 Feb 2020 19:55:25.193,473.595
48,9 Feb 2020 21:23:53.344,9 Feb 2020 21:33:56.473,603.128
49,9 Feb 2020 23:00:12.611,9 Feb 2020 23:10:39.868,627.257
50,10 Feb 2020 00:39:26.954,10 Feb 2020 00:42:42.359,195.405
51,10 Feb 2020 14:02:03.029,10 Feb 2020 14:11:44.385,581.356
52,10 Feb 2020 15:37:50.097,10 Feb 2020 15:48:24.023,633.926
53,10 Feb 2020 17:16:00.172,10 Feb 2020 17:24:34.300,514.128
54,10 Feb 2020 18:54:21.448,10 Feb 2020 19:01:52.150,450.701
55,10 Feb 2020 20:31:03.496,10 Feb 2020 20:40:28.638,565.142
56,10 Feb 2020 22:07:13.537,10 Feb 2020 22:17:56.359,642.822
57,10 Feb 2020 23:44:42.680,10 Feb 2020 23:52:13.907,451.226
58,11 Feb 2020 13:10:07.971,11 Feb 2020 13:18:15.123,487.152
59,11 Feb 2020 14:44:45.851,11 Feb 2020 14:55:31.195,645.344
60,11 Feb 2020 16:22:22.932,11 Feb 2020 16:31:40.037,557.105
61,11 Feb 2020 18:00:58.922,11 Feb 2020 18:08:27.418,448.496
62,11 Feb 2020 19:38:09.935,11 Feb 2020 19:46:52.582,522.647
63,11 Feb 2020 21:14:19.405,11 Feb 2020 21:24:55.450,636.045
64,11 Feb 2020 22:51:05.921,11 Feb 2020 23:00:27.648,561.728
65,12 Feb 2020 12:19:07.017,12 Feb 2020 12:23:58.379,291.362
66,12 Feb 2020 13:51:56.465,12 Feb 2020 14:02:32.230,635.765
67,12 Feb 2020 15:28:51.051,12 Feb 2020 15:38:48.155,597.104
68,12 Feb 2020 17:07:25.338,12 Feb 2020 17:15:13.101,467.764
69,12 Feb 2020 18:45:09.673,12 Feb 2020 18:53:12.849,483.177
70,12 Feb 2020 20:21:27.315,12 Feb 2020 20:31:39.659,612.345
71,12 Feb 2020 21:57:50.645,12 Feb 2020 22:08:08.934,618.288
72,13 Feb 2020 12:59:25.214,13 Feb 2020 13:09:23.297,598.083
73,13 Feb 2020 14:35:28.176,13 Feb 2020 14:45:55.991,627.815
74,13 Feb 2020 16:13:45.117,13 Feb 2020 16:22:08.048,502.931
75,13 Feb 2020 17:51:59.506,13 Feb 2020 17:59:34.987,455.481
76,13 Feb 2020 19:28:34.791,13 Feb 2020 19:38:11.462,576.672
77,13 Feb 2020 21:04:46.296,13 Feb 2020 21:15:27.597,641.301
78,13 Feb 2020 22:42:33.365,13 Feb 2020 22:49:18.341,404.976
79,14 Feb 2020 12:07:18.310,14 Feb 2020 12:15:57.543,519.233
80,14 Feb 2020 13:42:17.066,14 Feb 2020 13:53:01.097,644.031
81,14 Feb 2020 15:20:03.934,14 Feb 2020 15:29:09.341,545.407
82,14 Feb 2020 16:58:37.157,14 Feb 2020 17:06:04.303,447.146
83,14 Feb 2020 18:35:39.311,14 Feb 2020 18:44:33.971,534.660
84,14 Feb 2020 20:11:47.897,14 Feb 2020 20:22:27.977,640.080
85,14 Feb 2020 21:48:43.328,14 Feb 2020 21:57:41.859,538.531
86,15 Feb 2020 11:15:53.389,15 Feb 2020 11:21:56.626,363.237
87,15 Feb 2020 12:49:20.156,15 Feb 2020 13:00:00.872,640.716
88,15 Feb 2020 14:26:26.921,15 Feb 2020 14:36:13.838,586.917
89,15 Feb 2020 16:05:03.014,15 Feb 2020 16:12:43.829,460.815
90,15 Feb 2020 17:42:37.970,15 Feb 2020 17:50:51.417,493.447
91,15 Feb 2020 19:18:52.275,15 Feb 2020 19:29:12.765,620.490
92,15 Feb 2020 20:55:20.395,15 Feb 2020 21:05:27.448,607.052
93,16 Feb 2020 11:56:40.388,16 Feb 2020 12:06:51.878,611.490
94,16 Feb 2020 13:32:58.064,16 Feb 2020 13:43:18.745,620.681
95,16 Feb 2020 15:11:20.794,16 Feb 2020 15:19:33.217,492.423
96,16 Feb 2020 16:49:27.558,16 Feb 2020 16:57:09.158,461.600
97,16 Feb 2020 18:25:56.891,16 Feb 2020 18:35:44.386,587.495
98,16 Feb 2020 20:02:10.456,16 Feb 2020 20:12:48.507,638.052
99,16 Feb 2020 21:40:20.188,16 Feb 2020 21:46:08.033,347.845
100,17 Feb 2020 11:04:22.854,17 Feb 2020 11:13:28.380,545.526
101,17 Feb 2020 12:39:40.312,17 Feb 2020 12:50:21.581,641.269
102,17 Feb 2020 14:17:36.061,17 Feb 2020 14:26:29.851,533.790
103,17 Feb 2020 15:56:05.367,17 Feb 2020 16:03:32.786,447.418
104,17 Feb 2020 17:32:59.259,17 Feb 2020 17:42:05.737,546.479
105,17 Feb 2020 19:09:07.584,17 Feb 2020 19:19:50.288,642.703
106,17 Feb 2020 20:46:13.350,17 Feb 2020 20:54:44.742,511.391
107,18 Feb 2020 10:12:40.170,18 Feb 2020 10:19:37.069,416.899
108,18 Feb 2020 11:46:36.151,18 Feb 2020 11:57:19.825,643.675
109,18 Feb 2020 13:23:54.234,18 Feb 2020 13:33:30.520,576.286
110,18 Feb 2020 15:02:30.905,18 Feb 2020 15:10:06.159,455.254
>>>>>>> b66cc47a083ade7d67ccf52795bce1886e2910f0

