vcc_sched/network/input/access_vtgs_wj2xms_vcc-b_44431.csv

"Access","Start Time (UTCG)","Stop Time (UTCG)","Duration (sec)"
1,3 Feb 2020 16:58:51.745,3 Feb 2020 17:08:15.926,564.181
2,3 Feb 2020 18:34:26.604,3 Feb 2020 18:45:01.717,635.113
3,3 Feb 2020 20:12:28.756,3 Feb 2020 20:21:12.890,524.134
4,3 Feb 2020 21:50:50.007,3 Feb 2020 21:58:25.800,455.793
5,3 Feb 2020 23:27:36.746,3 Feb 2020 23:36:57.717,560.972
6,4 Feb 2020 01:03:47.887,4 Feb 2020 01:14:27.743,639.856
7,4 Feb 2020 02:41:11.856,4 Feb 2020 02:48:54.007,462.151
8,4 Feb 2020 16:07:10.479,4 Feb 2020 16:14:48.347,457.869
9,4 Feb 2020 17:41:32.412,4 Feb 2020 17:52:14.832,642.420
10,4 Feb 2020 19:19:00.574,4 Feb 2020 19:28:25.837,565.262
11,4 Feb 2020 20:57:33.479,4 Feb 2020 21:05:10.323,456.845
12,4 Feb 2020 22:34:49.054,4 Feb 2020 22:43:29.418,520.364
13,5 Feb 2020 00:11:00.842,5 Feb 2020 00:21:32.635,631.793
14,5 Feb 2020 01:47:45.253,5 Feb 2020 01:57:10.539,565.286
15,5 Feb 2020 15:16:38.183,5 Feb 2020 15:20:18.308,220.125
16,5 Feb 2020 16:48:53.334,5 Feb 2020 16:59:21.349,628.015
17,5 Feb 2020 18:25:38.181,5 Feb 2020 18:35:40.709,602.528
18,5 Feb 2020 20:04:06.905,5 Feb 2020 20:12:04.706,477.801
19,5 Feb 2020 21:41:54.363,5 Feb 2020 21:49:58.224,483.861
20,5 Feb 2020 23:18:15.450,5 Feb 2020 23:28:23.189,607.739
21,6 Feb 2020 00:54:38.371,6 Feb 2020 01:04:56.353,617.982
22,6 Feb 2020 15:56:32.964,6 Feb 2020 16:06:17.139,584.174
23,6 Feb 2020 17:32:25.017,6 Feb 2020 17:42:54.963,629.946
24,6 Feb 2020 19:10:34.747,6 Feb 2020 19:19:07.612,512.865
25,6 Feb 2020 20:48:49.709,6 Feb 2020 20:56:29.488,459.779
26,6 Feb 2020 22:25:29.286,6 Feb 2020 22:35:01.943,572.657
27,7 Feb 2020 00:01:41.640,7 Feb 2020 00:12:20.342,638.702
28,7 Feb 2020 01:39:22.900,7 Feb 2020 01:46:20.009,417.109
29,7 Feb 2020 15:04:38.479,7 Feb 2020 15:12:54.389,495.909
30,7 Feb 2020 16:39:23.753,7 Feb 2020 16:50:06.177,642.424
31,7 Feb 2020 18:17:02.413,7 Feb 2020 18:26:16.220,553.807
32,7 Feb 2020 19:55:33.284,7 Feb 2020 20:03:08.039,454.755
33,7 Feb 2020 21:32:39.810,7 Feb 2020 21:41:32.097,532.287
34,7 Feb 2020 23:08:50.387,7 Feb 2020 23:19:26.587,636.200
35,8 Feb 2020 00:45:43.540,8 Feb 2020 00:54:45.937,542.397
36,8 Feb 2020 14:13:32.741,8 Feb 2020 14:18:49.597,316.857
37,8 Feb 2020 15:46:36.859,8 Feb 2020 15:57:11.675,634.816
38,8 Feb 2020 17:23:34.712,8 Feb 2020 17:33:27.569,592.857
39,8 Feb 2020 19:02:05.951,8 Feb 2020 19:09:56.348,470.396
40,8 Feb 2020 20:39:44.188,8 Feb 2020 20:47:57.921,493.733
41,8 Feb 2020 22:16:01.544,8 Feb 2020 22:26:17.761,616.217
42,8 Feb 2020 23:52:29.110,9 Feb 2020 00:02:36.093,606.983
43,9 Feb 2020 14:54:07.511,9 Feb 2020 15:04:07.809,600.298
44,9 Feb 2020 16:30:15.386,9 Feb 2020 16:40:38.998,623.612
45,9 Feb 2020 18:08:31.563,9 Feb 2020 18:16:53.806,502.243
46,9 Feb 2020 19:46:39.377,9 Feb 2020 19:54:24.640,465.263
47,9 Feb 2020 21:23:12.609,9 Feb 2020 21:32:56.316,583.707
48,9 Feb 2020 22:59:26.837,9 Feb 2020 23:10:02.572,635.734
49,10 Feb 2020 00:37:29.910,10 Feb 2020 00:43:31.454,361.543
50,10 Feb 2020 14:02:01.438,10 Feb 2020 14:10:48.230,526.792
51,10 Feb 2020 15:37:07.284,10 Feb 2020 15:47:48.074,640.790
52,10 Feb 2020 17:14:55.482,10 Feb 2020 17:23:57.846,542.364
53,10 Feb 2020 18:53:23.071,10 Feb 2020 19:00:57.453,454.381
54,10 Feb 2020 20:30:21.107,10 Feb 2020 20:39:25.239,544.131
55,10 Feb 2020 22:06:31.152,10 Feb 2020 22:17:10.314,639.161
56,10 Feb 2020 23:43:34.528,10 Feb 2020 23:52:09.939,515.412
57,11 Feb 2020 13:10:33.975,11 Feb 2020 13:16:56.944,382.969
58,11 Feb 2020 14:44:12.893,11 Feb 2020 14:54:52.228,639.336
59,11 Feb 2020 16:21:22.794,11 Feb 2020 16:31:05.456,582.662
60,11 Feb 2020 17:59:55.265,11 Feb 2020 18:07:39.666,464.401
61,11 Feb 2020 19:37:24.275,11 Feb 2020 19:45:48.489,504.214
62,11 Feb 2020 21:13:38.664,11 Feb 2020 21:24:02.236,623.571
63,11 Feb 2020 22:50:11.723,11 Feb 2020 23:00:05.171,593.449
64,12 Feb 2020 13:51:35.074,12 Feb 2020 14:01:48.182,613.108
65,12 Feb 2020 15:27:57.572,12 Feb 2020 15:38:13.863,616.291
66,12 Feb 2020 17:06:19.073,12 Feb 2020 17:14:31.494,492.421
67,12 Feb 2020 18:44:19.074,12 Feb 2020 18:52:11.100,472.026
68,12 Feb 2020 20:20:46.768,12 Feb 2020 20:30:40.777,594.009
69,12 Feb 2020 21:57:03.526,12 Feb 2020 22:07:34.418,630.892
70,12 Feb 2020 23:35:35.881,12 Feb 2020 23:40:25.345,289.464
71,13 Feb 2020 12:59:18.554,13 Feb 2020 13:08:30.607,552.053
72,13 Feb 2020 14:34:42.885,13 Feb 2020 14:45:20.582,637.697
73,13 Feb 2020 16:12:39.654,13 Feb 2020 16:21:30.746,531.092
74,13 Feb 2020 17:51:02.835,13 Feb 2020 17:58:38.468,455.634
75,13 Feb 2020 19:27:53.010,13 Feb 2020 19:37:08.734,555.724
76,13 Feb 2020 21:04:03.171,13 Feb 2020 21:14:43.798,640.628
77,13 Feb 2020 22:41:18.559,13 Feb 2020 22:49:22.224,483.664
78,14 Feb 2020 12:07:34.466,14 Feb 2020 12:14:47.714,433.248
79,14 Feb 2020 13:41:41.267,14 Feb 2020 13:52:23.131,641.863
80,14 Feb 2020 15:19:02.324,14 Feb 2020 15:28:34.404,572.080
81,14 Feb 2020 16:57:34.762,14 Feb 2020 17:05:14.637,459.875
82,14 Feb 2020 18:34:54.712,14 Feb 2020 18:43:29.776,515.063
83,14 Feb 2020 20:11:06.852,14 Feb 2020 20:21:36.582,629.730
84,14 Feb 2020 21:47:46.292,14 Feb 2020 21:57:23.505,577.213
85,15 Feb 2020 11:17:27.353,15 Feb 2020 11:19:34.347,126.994
86,15 Feb 2020 12:48:55.394,15 Feb 2020 12:59:18.471,623.077
87,15 Feb 2020 14:25:31.475,15 Feb 2020 14:35:39.596,608.121
88,15 Feb 2020 16:03:57.144,15 Feb 2020 16:12:00.688,483.544
89,15 Feb 2020 17:41:48.876,15 Feb 2020 17:49:48.708,479.833
90,15 Feb 2020 19:18:11.814,15 Feb 2020 19:28:15.262,603.448
91,15 Feb 2020 20:54:31.737,15 Feb 2020 21:04:55.859,624.121
92,15 Feb 2020 22:33:50.110,15 Feb 2020 22:36:52.409,182.299
93,16 Feb 2020 11:56:29.275,16 Feb 2020 12:06:02.033,572.758
94,16 Feb 2020 13:32:10.435,16 Feb 2020 13:42:43.769,633.333
95,16 Feb 2020 15:10:14.796,16 Feb 2020 15:18:54.932,520.136
96,16 Feb 2020 16:48:32.585,16 Feb 2020 16:56:10.975,458.390
97,16 Feb 2020 18:25:15.592,16 Feb 2020 18:34:42.488,566.896
98,16 Feb 2020 20:01:26.469,16 Feb 2020 20:12:07.032,640.563
99,16 Feb 2020 21:38:56.145,16 Feb 2020 21:46:22.291,446.147
100,17 Feb 2020 11:04:31.418,17 Feb 2020 11:12:24.649,473.231
101,17 Feb 2020 12:39:01.839,17 Feb 2020 12:49:44.455,642.615
102,17 Feb 2020 14:16:33.169,17 Feb 2020 14:25:54.439,561.270
103,17 Feb 2020 15:55:04.375,17 Feb 2020 16:02:41.212,456.836
104,17 Feb 2020 17:32:15.582,17 Feb 2020 17:41:01.661,526.079
105,17 Feb 2020 19:08:26.137,17 Feb 2020 19:19:00.793,634.656
106,17 Feb 2020 20:45:12.962,17 Feb 2020 20:54:30.985,558.024
107,18 Feb 2020 10:13:33.747,18 Feb 2020 10:17:53.767,260.020
108,18 Feb 2020 11:46:08.259,18 Feb 2020 11:56:38.821,630.562
109,18 Feb 2020 13:22:56.966,18 Feb 2020 13:32:56.227,599.261
110,18 Feb 2020 15:01:25.673,18 Feb 2020 15:09:21.384,475.711

