vcc_sched/network/input/access_vtgs_wj2xms_vcc-a_44428.csv

"Access","Start Time (UTCG)","Stop Time (UTCG)","Duration (sec)"
1,3 Feb 2020 16:56:19.589,3 Feb 2020 17:05:36.881,557.292
2,3 Feb 2020 18:31:48.938,3 Feb 2020 18:42:25.319,636.381
3,3 Feb 2020 20:09:48.540,3 Feb 2020 20:18:36.173,527.633
4,3 Feb 2020 21:48:11.380,3 Feb 2020 21:55:46.411,455.031
5,3 Feb 2020 23:25:00.352,3 Feb 2020 23:34:17.862,557.510
6,4 Feb 2020 01:01:11.218,4 Feb 2020 01:11:51.197,639.978
7,4 Feb 2020 02:38:30.610,4 Feb 2020 02:46:24.781,474.171
8,4 Feb 2020 16:04:41.955,4 Feb 2020 16:12:06.585,444.631
9,4 Feb 2020 17:38:56.124,4 Feb 2020 17:49:38.140,642.016
10,4 Feb 2020 19:16:20.866,4 Feb 2020 19:25:49.541,568.675
11,4 Feb 2020 20:54:54.031,4 Feb 2020 21:02:31.921,457.891
12,4 Feb 2020 22:32:12.333,4 Feb 2020 22:40:49.253,516.920
13,5 Feb 2020 00:08:24.571,5 Feb 2020 00:18:54.883,630.312
14,5 Feb 2020 01:45:06.553,5 Feb 2020 01:54:38.114,571.561
15,5 Feb 2020 15:14:24.733,5 Feb 2020 15:17:22.249,177.516
16,5 Feb 2020 16:46:18.626,5 Feb 2020 16:56:44.032,625.406
17,5 Feb 2020 18:22:59.283,5 Feb 2020 18:33:04.564,605.281
18,5 Feb 2020 20:01:26.895,5 Feb 2020 20:09:27.226,480.331
19,5 Feb 2020 21:39:17.009,5 Feb 2020 21:47:18.152,481.142
20,5 Feb 2020 23:15:39.320,5 Feb 2020 23:25:44.395,605.076
21,6 Feb 2020 00:52:00.930,6 Feb 2020 01:02:21.878,620.948
22,6 Feb 2020 02:31:43.151,6 Feb 2020 02:33:53.583,130.432
23,6 Feb 2020 15:54:00.217,6 Feb 2020 16:03:38.676,578.459
24,6 Feb 2020 17:29:47.132,6 Feb 2020 17:40:18.718,631.587
25,6 Feb 2020 19:07:54.590,6 Feb 2020 19:16:30.810,516.220
26,6 Feb 2020 20:46:11.458,6 Feb 2020 20:53:49.933,458.474
27,6 Feb 2020 22:22:53.046,6 Feb 2020 22:32:22.320,569.274
28,6 Feb 2020 23:59:04.898,7 Feb 2020 00:09:44.246,639.348
29,7 Feb 2020 01:36:40.430,7 Feb 2020 01:43:52.315,431.885
30,7 Feb 2020 15:02:08.654,7 Feb 2020 15:10:13.676,485.023
31,7 Feb 2020 16:36:47.049,7 Feb 2020 16:47:29.577,642.528
32,7 Feb 2020 18:14:22.521,7 Feb 2020 18:23:39.790,557.269
33,7 Feb 2020 19:52:54.045,7 Feb 2020 20:00:29.288,455.243
34,7 Feb 2020 21:30:03.189,7 Feb 2020 21:38:51.923,528.734
35,7 Feb 2020 23:06:13.991,7 Feb 2020 23:16:49.098,635.107
36,8 Feb 2020 00:43:04.260,8 Feb 2020 00:52:14.171,549.912
37,8 Feb 2020 14:11:10.454,8 Feb 2020 14:16:01.892,291.438
38,8 Feb 2020 15:44:01.535,8 Feb 2020 15:54:34.416,632.880
39,8 Feb 2020 17:20:55.407,8 Feb 2020 17:30:51.230,595.823
40,8 Feb 2020 18:59:25.908,8 Feb 2020 19:07:18.428,472.520
41,8 Feb 2020 20:37:06.885,8 Feb 2020 20:45:17.572,490.687
42,8 Feb 2020 22:13:25.220,8 Feb 2020 22:23:39.037,613.818
43,8 Feb 2020 23:49:51.200,9 Feb 2020 00:00:01.930,610.730
44,9 Feb 2020 14:51:33.876,9 Feb 2020 15:01:29.439,595.563
45,9 Feb 2020 16:27:36.903,9 Feb 2020 16:38:02.499,625.596
46,9 Feb 2020 18:05:51.110,9 Feb 2020 18:14:16.517,505.407
47,9 Feb 2020 19:44:01.102,9 Feb 2020 19:51:44.556,463.454
48,9 Feb 2020 21:20:36.114,9 Feb 2020 21:30:16.557,580.442
49,9 Feb 2020 22:56:49.617,9 Feb 2020 23:07:26.559,636.942
50,10 Feb 2020 00:34:45.225,10 Feb 2020 00:41:05.506,380.281
51,10 Feb 2020 13:59:30.216,10 Feb 2020 14:08:07.899,517.683
52,10 Feb 2020 15:34:29.809,10 Feb 2020 15:45:11.159,641.350
53,10 Feb 2020 17:12:15.042,10 Feb 2020 17:21:20.884,545.841
54,10 Feb 2020 18:50:43.667,10 Feb 2020 18:58:17.981,454.315
55,10 Feb 2020 20:27:44.172,10 Feb 2020 20:36:44.692,540.520
56,10 Feb 2020 22:03:54.229,10 Feb 2020 22:14:32.705,638.475
57,10 Feb 2020 23:40:54.155,10 Feb 2020 23:49:38.558,524.403
58,11 Feb 2020 13:08:07.789,11 Feb 2020 13:14:11.890,364.101
59,11 Feb 2020 14:41:36.601,11 Feb 2020 14:52:14.611,638.010
60,11 Feb 2020 16:18:42.723,11 Feb 2020 16:28:28.531,585.807
61,11 Feb 2020 17:57:14.834,11 Feb 2020 18:05:00.916,466.082
62,11 Feb 2020 19:34:46.609,11 Feb 2020 19:43:07.513,500.905
63,11 Feb 2020 21:11:01.754,11 Feb 2020 21:21:23.207,621.453
64,11 Feb 2020 22:47:32.906,11 Feb 2020 22:57:30.973,598.067
65,12 Feb 2020 13:49:00.235,12 Feb 2020 13:59:09.464,609.229
66,12 Feb 2020 15:25:18.130,12 Feb 2020 15:35:36.709,618.579
67,12 Feb 2020 17:03:37.963,12 Feb 2020 17:11:53.313,495.350
68,12 Feb 2020 18:41:40.368,12 Feb 2020 18:49:30.127,469.759
69,12 Feb 2020 20:18:09.618,12 Feb 2020 20:28:00.501,590.882
70,12 Feb 2020 21:54:25.409,12 Feb 2020 22:04:58.113,632.704
71,12 Feb 2020 23:32:47.254,12 Feb 2020 23:38:02.102,314.848
72,13 Feb 2020 12:56:45.730,13 Feb 2020 13:05:50.088,544.358
73,13 Feb 2020 14:32:04.265,13 Feb 2020 14:42:42.947,638.682
74,13 Feb 2020 16:09:58.302,13 Feb 2020 16:18:52.846,534.544
75,13 Feb 2020 17:48:22.875,13 Feb 2020 17:55:57.895,455.020
76,13 Feb 2020 19:25:15.360,13 Feb 2020 19:34:27.450,552.089
77,13 Feb 2020 21:01:25.316,13 Feb 2020 21:12:05.698,640.382
78,13 Feb 2020 22:38:36.550,13 Feb 2020 22:46:51.003,494.453
79,14 Feb 2020 12:05:05.379,14 Feb 2020 12:12:03.542,418.163
80,14 Feb 2020 13:39:03.649,14 Feb 2020 13:49:44.739,641.090
81,14 Feb 2020 15:16:21.110,14 Feb 2020 15:25:56.485,575.375
82,14 Feb 2020 16:54:53.572,14 Feb 2020 17:02:34.653,461.081
83,14 Feb 2020 18:32:16.272,14 Feb 2020 18:40:47.815,511.543
84,14 Feb 2020 20:08:28.948,14 Feb 2020 20:18:56.866,627.918
85,14 Feb 2020 21:45:06.128,14 Feb 2020 21:54:48.938,582.810
86,15 Feb 2020 12:46:19.012,15 Feb 2020 12:56:38.963,619.950
87,15 Feb 2020 14:22:50.690,15 Feb 2020 14:33:01.384,610.694
88,15 Feb 2020 16:01:15.022,15 Feb 2020 16:09:21.206,486.184
89,15 Feb 2020 17:39:09.332,15 Feb 2020 17:47:06.487,477.156
90,15 Feb 2020 19:15:33.602,15 Feb 2020 19:25:34.105,600.503
91,15 Feb 2020 20:51:52.318,15 Feb 2020 21:02:18.901,626.583
92,15 Feb 2020 22:30:52.394,15 Feb 2020 22:34:36.246,223.852
93,16 Feb 2020 11:53:54.587,16 Feb 2020 12:03:20.818,566.231
94,16 Feb 2020 13:29:30.295,16 Feb 2020 13:40:05.008,634.713
95,16 Feb 2020 15:07:32.165,16 Feb 2020 15:16:15.686,523.521
96,16 Feb 2020 16:45:51.681,16 Feb 2020 16:53:28.926,457.245
97,16 Feb 2020 18:22:36.816,16 Feb 2020 18:32:00.099,563.283
98,16 Feb 2020 19:58:47.275,16 Feb 2020 20:09:28.061,640.785
99,16 Feb 2020 21:36:11.869,16 Feb 2020 21:43:51.078,459.208
100,17 Feb 2020 11:01:59.645,17 Feb 2020 11:09:40.371,460.726
101,17 Feb 2020 12:36:22.519,17 Feb 2020 12:47:04.877,642.358
102,17 Feb 2020 14:13:50.445,17 Feb 2020 14:23:15.121,564.676
103,17 Feb 2020 15:52:22.052,17 Feb 2020 15:59:59.594,457.543
104,17 Feb 2020 17:29:35.955,17 Feb 2020 17:38:18.348,522.393
105,17 Feb 2020 19:05:46.834,17 Feb 2020 19:16:20.012,633.178
106,17 Feb 2020 20:42:30.986,17 Feb 2020 20:51:55.732,564.745
107,18 Feb 2020 10:11:12.824,18 Feb 2020 10:14:58.356,225.532
108,18 Feb 2020 11:43:29.980,18 Feb 2020 11:53:58.093,628.113
109,18 Feb 2020 13:20:14.466,18 Feb 2020 13:30:16.553,602.087
110,18 Feb 2020 14:58:42.163,18 Feb 2020 15:06:40.193,478.030

