vcc_sched/network/input/access_uvags_wj2xmr_vcc-a_44428.csv

"Access","Start Time (UTCG)","Stop Time (UTCG)","Duration (sec)"
1,3 Feb 2020 16:56:37.872,3 Feb 2020 17:06:09.753,571.881
2,3 Feb 2020 18:32:15.733,3 Feb 2020 18:42:53.773,638.040
3,3 Feb 2020 20:10:11.906,3 Feb 2020 20:19:09.732,537.826
4,3 Feb 2020 21:48:20.840,3 Feb 2020 21:56:27.232,486.392
5,3 Feb 2020 23:25:05.393,3 Feb 2020 23:34:48.492,583.099
6,4 Feb 2020 01:01:20.888,4 Feb 2020 01:12:01.782,640.894
7,4 Feb 2020 02:39:00.112,4 Feb 2020 02:46:02.646,422.534
8,4 Feb 2020 16:04:52.940,4 Feb 2020 16:12:45.724,472.784
9,4 Feb 2020 17:39:21.603,4 Feb 2020 17:50:06.666,645.063
10,4 Feb 2020 19:16:46.722,4 Feb 2020 19:26:20.727,574.006
11,4 Feb 2020 20:55:07.678,4 Feb 2020 21:03:11.654,483.976
12,4 Feb 2020 22:32:17.342,4 Feb 2020 22:41:24.775,547.434
13,5 Feb 2020 00:08:32.172,5 Feb 2020 00:19:11.972,639.800
14,5 Feb 2020 01:45:25.505,5 Feb 2020 01:54:30.221,544.716
15,5 Feb 2020 15:14:06.401,5 Feb 2020 15:18:29.890,263.489
16,5 Feb 2020 16:46:41.814,5 Feb 2020 16:57:13.556,631.741
17,5 Feb 2020 18:23:26.299,5 Feb 2020 18:33:34.076,607.777
18,5 Feb 2020 20:01:45.198,5 Feb 2020 20:10:04.463,499.264
19,5 Feb 2020 21:39:23.045,5 Feb 2020 21:47:57.254,514.209
20,5 Feb 2020 23:15:45.453,5 Feb 2020 23:26:07.657,622.204
21,6 Feb 2020 00:52:14.630,6 Feb 2020 01:02:23.102,608.472
22,6 Feb 2020 15:54:19.868,6 Feb 2020 16:04:10.509,590.641
23,6 Feb 2020 17:30:14.122,6 Feb 2020 17:40:47.303,633.181
24,6 Feb 2020 19:08:16.983,6 Feb 2020 19:17:05.158,528.175
25,6 Feb 2020 20:46:19.942,6 Feb 2020 20:54:30.680,490.738
26,6 Feb 2020 22:22:58.249,6 Feb 2020 22:32:51.372,593.124
27,6 Feb 2020 23:59:15.312,7 Feb 2020 00:09:52.857,637.545
28,7 Feb 2020 01:37:15.732,7 Feb 2020 01:43:23.341,367.609
29,7 Feb 2020 15:02:22.331,7 Feb 2020 15:10:50.406,508.075
30,7 Feb 2020 16:37:12.999,7 Feb 2020 16:47:58.000,645.001
31,7 Feb 2020 18:14:47.797,7 Feb 2020 18:24:11.597,563.800
32,7 Feb 2020 19:53:06.403,7 Feb 2020 20:01:09.514,483.111
33,7 Feb 2020 21:30:08.128,7 Feb 2020 21:39:26.135,558.007
34,7 Feb 2020 23:06:22.122,7 Feb 2020 23:17:04.359,642.237
35,8 Feb 2020 00:43:25.395,8 Feb 2020 00:52:03.020,517.626
36,8 Feb 2020 14:11:08.374,8 Feb 2020 14:16:53.500,345.126
37,8 Feb 2020 15:44:25.482,8 Feb 2020 15:55:03.547,638.065
38,8 Feb 2020 17:21:22.220,8 Feb 2020 17:31:21.153,598.933
39,8 Feb 2020 18:59:42.900,8 Feb 2020 19:07:56.460,493.560
40,8 Feb 2020 20:37:12.507,8 Feb 2020 20:45:55.815,523.308
41,8 Feb 2020 22:13:31.721,8 Feb 2020 22:24:00.569,628.848
42,8 Feb 2020 23:50:06.126,9 Feb 2020 00:00:00.804,594.678
43,9 Feb 2020 14:51:54.698,9 Feb 2020 15:02:00.450,605.752
44,9 Feb 2020 16:28:04.010,9 Feb 2020 16:38:31.275,627.265
45,9 Feb 2020 18:06:12.447,9 Feb 2020 18:14:51.672,519.225
46,9 Feb 2020 19:44:08.745,9 Feb 2020 19:52:25.052,496.307
47,9 Feb 2020 21:20:41.524,9 Feb 2020 21:30:44.010,602.487
48,9 Feb 2020 22:57:00.832,9 Feb 2020 23:07:33.183,632.351
49,10 Feb 2020 00:35:29.635,10 Feb 2020 00:40:26.405,296.770
50,10 Feb 2020 13:59:45.976,10 Feb 2020 14:08:42.827,536.851
51,10 Feb 2020 15:34:56.140,10 Feb 2020 15:45:39.555,643.415
52,10 Feb 2020 17:12:39.645,10 Feb 2020 17:21:53.354,553.709
53,10 Feb 2020 18:50:54.821,10 Feb 2020 18:58:58.556,483.735
54,10 Feb 2020 20:27:49.107,10 Feb 2020 20:37:17.538,568.431
55,10 Feb 2020 22:04:02.929,10 Feb 2020 22:14:46.147,643.218
56,10 Feb 2020 23:41:17.950,10 Feb 2020 23:49:23.715,485.765
57,11 Feb 2020 13:08:12.657,11 Feb 2020 13:14:56.772,404.115
58,11 Feb 2020 14:42:01.202,11 Feb 2020 14:52:43.455,642.253
59,11 Feb 2020 16:19:09.234,11 Feb 2020 16:28:58.909,589.675
60,11 Feb 2020 17:57:30.516,11 Feb 2020 18:05:39.668,489.153
61,11 Feb 2020 19:34:51.926,11 Feb 2020 19:43:44.774,532.848
62,11 Feb 2020 21:11:08.653,11 Feb 2020 21:21:43.017,634.363
63,11 Feb 2020 22:47:49.214,11 Feb 2020 22:57:27.384,578.169
64,12 Feb 2020 13:49:22.057,12 Feb 2020 13:59:39.810,617.752
65,12 Feb 2020 15:25:45.259,12 Feb 2020 15:36:05.730,620.471
66,12 Feb 2020 17:03:58.178,12 Feb 2020 17:12:29.283,511.105
67,12 Feb 2020 18:41:47.302,12 Feb 2020 18:50:10.204,502.902
68,12 Feb 2020 20:18:15.280,12 Feb 2020 20:28:26.354,611.074
69,12 Feb 2020 21:54:37.502,12 Feb 2020 22:05:02.716,625.214
70,12 Feb 2020 23:33:50.203,12 Feb 2020 23:37:03.466,193.263
71,13 Feb 2020 12:57:03.171,13 Feb 2020 13:06:23.632,560.461
72,13 Feb 2020 14:32:30.902,13 Feb 2020 14:43:11.376,640.474
73,13 Feb 2020 16:10:22.129,13 Feb 2020 16:19:26.007,543.878
74,13 Feb 2020 17:48:32.931,13 Feb 2020 17:56:38.660,485.729
75,13 Feb 2020 19:25:20.360,13 Feb 2020 19:34:58.883,578.522
76,13 Feb 2020 21:01:34.621,13 Feb 2020 21:12:17.320,642.699
77,13 Feb 2020 22:39:03.677,13 Feb 2020 22:46:31.814,448.137
78,14 Feb 2020 12:05:14.472,14 Feb 2020 12:12:44.431,449.959
79,14 Feb 2020 13:39:28.813,14 Feb 2020 13:50:13.373,644.559
80,14 Feb 2020 15:16:47.226,14 Feb 2020 15:26:27.371,580.145
81,14 Feb 2020 16:55:07.966,14 Feb 2020 17:03:14.050,486.083
82,14 Feb 2020 18:32:21.384,14 Feb 2020 18:41:23.993,542.609
83,14 Feb 2020 20:08:36.282,14 Feb 2020 20:19:14.966,638.683
84,14 Feb 2020 21:45:24.014,14 Feb 2020 21:54:42.722,558.708
85,15 Feb 2020 11:14:40.980,15 Feb 2020 11:17:56.613,195.632
86,15 Feb 2020 12:46:41.704,15 Feb 2020 12:57:08.776,627.072
87,15 Feb 2020 14:23:17.766,15 Feb 2020 14:33:30.705,612.939
88,15 Feb 2020 16:01:34.059,15 Feb 2020 16:09:57.973,503.913
89,15 Feb 2020 17:39:15.683,15 Feb 2020 17:47:45.990,510.307
90,15 Feb 2020 19:15:39.549,15 Feb 2020 19:25:58.344,618.795
91,15 Feb 2020 20:52:05.369,15 Feb 2020 21:02:21.437,616.068
92,16 Feb 2020 11:54:13.428,16 Feb 2020 12:03:53.262,579.834
93,16 Feb 2020 13:29:57.159,16 Feb 2020 13:40:33.523,636.363
94,16 Feb 2020 15:07:55.137,16 Feb 2020 15:16:49.581,534.444
95,16 Feb 2020 16:46:00.751,16 Feb 2020 16:54:09.722,488.972
96,16 Feb 2020 18:22:41.930,16 Feb 2020 18:32:30.081,588.151
97,16 Feb 2020 19:58:57.236,16 Feb 2020 20:09:37.858,640.621
98,16 Feb 2020 21:36:43.369,16 Feb 2020 21:43:26.528,403.160
99,17 Feb 2020 11:02:11.718,17 Feb 2020 11:10:18.528,486.810
100,17 Feb 2020 12:36:48.164,17 Feb 2020 12:47:33.375,645.210
101,17 Feb 2020 14:14:16.072,17 Feb 2020 14:23:46.555,570.484
102,17 Feb 2020 15:52:35.209,17 Feb 2020 16:00:39.529,484.320
103,17 Feb 2020 17:29:40.946,17 Feb 2020 17:38:53.366,552.420
104,17 Feb 2020 19:05:54.638,17 Feb 2020 19:16:36.407,641.768
105,17 Feb 2020 20:42:50.694,17 Feb 2020 20:51:46.676,535.982
106,18 Feb 2020 10:11:02.442,18 Feb 2020 10:15:58.122,295.680
107,18 Feb 2020 11:43:53.429,18 Feb 2020 11:54:27.486,634.057
108,18 Feb 2020 13:20:41.402,18 Feb 2020 13:30:46.229,604.826
109,18 Feb 2020 14:58:59.995,18 Feb 2020 15:07:17.730,497.734

