vcc_sched/network/input/access_vtgs_wj2xms_vcc-a_44428.csv

"Access","Start Time (UTCG)","Stop Time (UTCG)","Duration (sec)"
1,16 Dec 2019 17:24:15.319,16 Dec 2019 17:31:52.533,457.214
2,16 Dec 2019 19:01:05.831,16 Dec 2019 19:10:27.764,561.932
3,16 Dec 2019 20:37:19.519,16 Dec 2019 20:48:02.989,643.470
4,16 Dec 2019 22:14:43.151,16 Dec 2019 22:22:36.998,473.847
5,17 Dec 2019 11:41:15.709,17 Dec 2019 11:48:47.043,451.334
6,17 Dec 2019 13:15:37.304,17 Dec 2019 13:26:18.643,641.339
7,17 Dec 2019 14:53:06.887,17 Dec 2019 15:02:33.004,566.116
8,17 Dec 2019 16:31:42.177,17 Dec 2019 16:39:20.437,458.261
9,17 Dec 2019 18:09:00.921,17 Dec 2019 18:17:42.725,521.804
10,17 Dec 2019 19:45:15.513,17 Dec 2019 19:55:50.052,634.539
11,17 Dec 2019 21:22:01.775,17 Dec 2019 21:31:32.882,571.107
12,18 Dec 2019 10:51:26.548,18 Dec 2019 10:54:59.130,212.582
13,18 Dec 2019 12:23:41.415,18 Dec 2019 12:34:07.998,626.583
14,18 Dec 2019 14:00:28.622,18 Dec 2019 14:10:30.606,601.984
15,18 Dec 2019 15:38:59.741,18 Dec 2019 15:46:57.990,478.250
16,18 Dec 2019 17:16:49.532,18 Dec 2019 17:24:55.217,485.685
17,18 Dec 2019 18:53:13.240,18 Dec 2019 19:03:23.712,610.473
18,18 Dec 2019 20:29:38.800,18 Dec 2019 20:40:00.280,621.481
19,18 Dec 2019 22:09:59.980,18 Dec 2019 22:10:56.384,56.404
20,19 Dec 2019 11:32:03.578,19 Dec 2019 11:41:47.328,583.750
21,19 Dec 2019 13:07:59.338,19 Dec 2019 13:18:27.871,628.533
22,19 Dec 2019 14:46:12.156,19 Dec 2019 14:54:43.948,511.792
23,19 Dec 2019 16:24:28.914,19 Dec 2019 16:32:10.238,461.324
24,19 Dec 2019 18:01:10.461,19 Dec 2019 18:10:46.327,575.866
25,19 Dec 2019 19:37:25.630,19 Dec 2019 19:48:07.169,641.539
26,19 Dec 2019 21:15:10.658,19 Dec 2019 21:22:08.264,417.605
27,20 Dec 2019 10:40:50.427,20 Dec 2019 10:49:09.393,498.966
28,20 Dec 2019 12:15:41.510,20 Dec 2019 12:26:22.535,641.025
29,20 Dec 2019 13:53:24.447,20 Dec 2019 14:02:35.699,551.252
30,20 Dec 2019 15:31:57.333,20 Dec 2019 15:39:32.330,454.997
31,20 Dec 2019 17:09:04.831,20 Dec 2019 17:18:00.855,536.024
32,20 Dec 2019 18:45:17.948,20 Dec 2019 18:55:57.316,639.367
33,20 Dec 2019 20:22:15.286,20 Dec 2019 20:31:16.905,541.618
34,21 Dec 2019 09:50:22.088,21 Dec 2019 09:55:53.472,331.384
35,21 Dec 2019 11:23:37.456,21 Dec 2019 11:34:12.111,634.655
36,21 Dec 2019 13:00:41.121,21 Dec 2019 13:10:30.458,589.336
37,21 Dec 2019 14:39:15.439,21 Dec 2019 14:47:03.937,468.498
38,21 Dec 2019 16:16:53.742,21 Dec 2019 16:25:11.222,497.479
39,21 Dec 2019 17:53:12.895,21 Dec 2019 18:03:33.211,620.316
40,21 Dec 2019 19:29:44.485,21 Dec 2019 19:39:51.099,606.613
41,22 Dec 2019 10:31:50.050,22 Dec 2019 10:41:53.289,603.239
42,22 Dec 2019 12:08:05.728,22 Dec 2019 12:18:25.721,619.992
43,22 Dec 2019 13:46:26.651,22 Dec 2019 13:54:44.677,498.026
44,22 Dec 2019 15:24:34.353,22 Dec 2019 15:32:22.256,467.903
45,22 Dec 2019 17:01:08.149,22 Dec 2019 17:10:57.114,588.965
46,22 Dec 2019 18:37:25.912,22 Dec 2019 18:48:02.559,636.647
47,22 Dec 2019 20:15:40.163,22 Dec 2019 20:21:23.302,343.139
48,23 Dec 2019 09:40:24.301,23 Dec 2019 09:49:20.477,536.176
49,23 Dec 2019 11:15:40.971,23 Dec 2019 11:26:19.202,638.231
50,23 Dec 2019 12:53:35.896,23 Dec 2019 13:02:32.248,536.352
51,23 Dec 2019 14:32:04.386,23 Dec 2019 14:39:38.887,454.501
52,23 Dec 2019 16:09:01.433,23 Dec 2019 16:18:11.728,550.294
53,23 Dec 2019 17:45:14.175,23 Dec 2019 17:55:56.085,641.910
54,23 Dec 2019 19:22:25.225,23 Dec 2019 19:30:50.153,504.928
55,24 Dec 2019 08:49:32.678,24 Dec 2019 08:56:20.598,407.920
56,24 Dec 2019 10:23:29.163,24 Dec 2019 10:34:08.558,639.395
57,24 Dec 2019 12:00:47.995,24 Dec 2019 12:10:23.835,575.840
58,24 Dec 2019 13:39:23.484,24 Dec 2019 13:47:04.509,461.025
59,24 Dec 2019 15:16:50.230,24 Dec 2019 15:25:20.611,510.381
60,24 Dec 2019 16:53:06.028,24 Dec 2019 17:03:34.472,628.444
61,24 Dec 2019 18:29:45.138,24 Dec 2019 18:39:32.483,587.345
62,25 Dec 2019 09:31:32.867,25 Dec 2019 09:41:50.848,617.982
63,25 Dec 2019 11:08:06.877,25 Dec 2019 11:18:16.794,609.917
64,25 Dec 2019 12:46:34.154,25 Dec 2019 12:54:39.728,485.574
65,25 Dec 2019 14:24:31.729,25 Dec 2019 14:32:28.342,476.614
66,25 Dec 2019 16:00:59.010,25 Dec 2019 16:10:59.993,600.983
67,25 Dec 2019 17:37:20.488,25 Dec 2019 17:47:49.074,628.586
68,25 Dec 2019 19:16:20.295,25 Dec 2019 19:20:13.500,233.205
69,26 Dec 2019 08:39:56.040,26 Dec 2019 08:49:21.568,565.528
70,26 Dec 2019 10:15:35.511,26 Dec 2019 10:26:08.786,633.274
71,26 Dec 2019 11:53:41.000,26 Dec 2019 12:02:22.767,521.767
72,26 Dec 2019 13:32:03.290,26 Dec 2019 13:39:39.994,456.704
73,26 Dec 2019 15:08:50.854,26 Dec 2019 15:18:15.141,564.287
74,26 Dec 2019 16:45:04.289,26 Dec 2019 16:55:46.291,642.003
75,26 Dec 2019 18:22:32.559,26 Dec 2019 18:30:11.703,459.144
76,27 Dec 2019 07:48:47.242,27 Dec 2019 07:56:31.572,464.329
77,27 Dec 2019 09:23:16.311,27 Dec 2019 09:33:57.521,641.210
78,27 Dec 2019 11:00:49.047,27 Dec 2019 11:10:10.839,561.792
79,27 Dec 2019 12:39:23.694,27 Dec 2019 12:46:59.726,456.033
80,27 Dec 2019 14:16:39.151,27 Dec 2019 14:25:23.146,523.995
81,27 Dec 2019 15:52:52.733,27 Dec 2019 16:03:27.438,634.705
82,27 Dec 2019 17:29:41.090,27 Dec 2019 17:39:04.162,563.072
83,28 Dec 2019 06:58:39.346,28 Dec 2019 07:02:47.381,248.034
84,28 Dec 2019 08:31:11.660,28 Dec 2019 08:41:40.331,628.672
85,28 Dec 2019 10:08:02.598,28 Dec 2019 10:18:01.195,598.597
86,28 Dec 2019 11:46:34.416,28 Dec 2019 11:54:29.203,474.786
87,28 Dec 2019 13:24:21.155,28 Dec 2019 13:32:28.246,487.091
88,28 Dec 2019 15:00:43.146,28 Dec 2019 15:10:54.864,611.718
89,28 Dec 2019 16:37:09.526,28 Dec 2019 16:47:26.603,617.077
90,29 Dec 2019 07:39:24.830,29 Dec 2019 07:49:13.461,588.631
91,29 Dec 2019 09:15:24.963,29 Dec 2019 09:25:51.400,626.438
92,29 Dec 2019 10:53:39.509,29 Dec 2019 11:02:07.353,507.844
93,29 Dec 2019 12:31:54.048,29 Dec 2019 12:39:35.483,461.435
94,29 Dec 2019 14:08:33.235,29 Dec 2019 14:18:10.940,577.705
95,29 Dec 2019 15:44:48.398,29 Dec 2019 15:55:27.882,639.484
96,29 Dec 2019 17:22:38.964,29 Dec 2019 17:29:19.924,400.960
97,30 Dec 2019 06:48:02.085,30 Dec 2019 06:56:30.052,507.967
98,30 Dec 2019 08:22:58.703,30 Dec 2019 08:33:39.164,640.461
99,30 Dec 2019 10:00:44.065,30 Dec 2019 10:09:51.566,547.501
100,30 Dec 2019 11:39:15.921,30 Dec 2019 11:46:49.561,453.640
101,30 Dec 2019 13:16:20.656,30 Dec 2019 13:25:18.589,537.933
102,30 Dec 2019 14:52:33.096,30 Dec 2019 15:03:12.032,638.935
103,30 Dec 2019 16:29:32.757,30 Dec 2019 16:38:25.745,532.988
104,31 Dec 2019 05:57:21.495,31 Dec 2019 06:03:11.414,349.919
105,31 Dec 2019 07:30:46.139,31 Dec 2019 07:41:22.011,635.872
106,31 Dec 2019 09:07:52.727,31 Dec 2019 09:17:39.017,586.291
107,31 Dec 2019 10:46:27.206,31 Dec 2019 10:54:13.170,465.964
108,31 Dec 2019 12:24:02.778,31 Dec 2019 12:32:21.711,498.934
109,31 Dec 2019 14:00:20.650,31 Dec 2019 14:10:41.635,620.985
110,31 Dec 2019 15:36:53.212,31 Dec 2019 15:46:55.004,601.793
111,1 Jan 2020 06:38:50.101,1 Jan 2020 06:48:56.692,606.592
112,1 Jan 2020 08:15:09.163,1 Jan 2020 08:25:27.139,617.976
113,1 Jan 2020 09:53:31.197,1 Jan 2020 10:01:46.107,494.910
114,1 Jan 2020 11:31:36.715,1 Jan 2020 11:39:25.148,468.433
115,1 Jan 2020 13:08:08.681,1 Jan 2020 13:17:58.974,590.293
116,1 Jan 2020 14:44:26.611,1 Jan 2020 14:55:00.779,634.169
117,1 Jan 2020 16:22:47.904,1 Jan 2020 16:28:11.398,323.494
118,2 Jan 2020 05:47:15.394,2 Jan 2020 05:56:17.813,542.419
119,2 Jan 2020 07:22:36.163,2 Jan 2020 07:33:13.615,637.452
120,2 Jan 2020 09:00:32.842,2 Jan 2020 09:09:26.120,533.278
121,2 Jan 2020 10:39:00.073,2 Jan 2020 10:46:33.932,453.859
122,2 Jan 2020 12:15:54.883,2 Jan 2020 12:25:06.740,551.857
123,2 Jan 2020 13:52:07.202,2 Jan 2020 14:02:48.216,641.013
124,2 Jan 2020 15:29:20.780,2 Jan 2020 15:37:36.660,495.880
125,3 Jan 2020 04:56:13.682,3 Jan 2020 05:03:13.113,419.431
126,3 Jan 2020 06:30:16.063,3 Jan 2020 06:40:56.092,640.029
127,3 Jan 2020 08:07:37.085,3 Jan 2020 08:17:10.346,573.260
128,3 Jan 2020 09:46:12.315,3 Jan 2020 09:53:51.658,459.343
129,3 Jan 2020 11:23:36.737,3 Jan 2020 11:32:08.473,511.736
130,3 Jan 2020 12:59:51.607,3 Jan 2020 13:10:20.224,628.617
131,3 Jan 2020 14:36:31.771,3 Jan 2020 14:46:14.093,582.322
132,4 Jan 2020 04:07:08.441,4 Jan 2020 04:08:18.528,70.087
133,4 Jan 2020 05:38:11.427,4 Jan 2020 05:48:31.660,620.233
134,4 Jan 2020 07:14:47.957,4 Jan 2020 07:24:56.098,608.142
135,4 Jan 2020 08:53:15.815,4 Jan 2020 09:01:19.115,483.299
136,4 Jan 2020 10:31:11.385,4 Jan 2020 10:39:08.755,477.370
137,4 Jan 2020 12:07:37.287,4 Jan 2020 12:17:39.127,601.840
138,4 Jan 2020 13:43:59.042,4 Jan 2020 13:54:24.908,625.866
139,4 Jan 2020 15:23:09.944,4 Jan 2020 15:26:35.574,205.630
140,5 Jan 2020 04:46:26.113,5 Jan 2020 04:55:55.915,569.802
141,5 Jan 2020 06:22:08.523,5 Jan 2020 06:32:41.001,632.479
142,5 Jan 2020 08:00:15.165,5 Jan 2020 08:08:54.584,519.419
143,5 Jan 2020 09:38:36.121,5 Jan 2020 09:46:12.724,456.603
144,5 Jan 2020 11:15:21.961,5 Jan 2020 11:24:47.419,565.458
145,5 Jan 2020 12:51:35.143,5 Jan 2020 13:02:15.925,640.783
146,5 Jan 2020 14:29:06.109,5 Jan 2020 14:36:35.977,449.868
147,6 Jan 2020 03:55:08.307,6 Jan 2020 04:03:00.054,471.747
148,6 Jan 2020 05:29:41.234,6 Jan 2020 05:40:22.734,641.500
149,6 Jan 2020 07:07:15.488,6 Jan 2020 07:16:35.270,559.781
150,6 Jan 2020 08:45:49.589,6 Jan 2020 08:53:24.685,455.096
151,6 Jan 2020 10:23:03.173,6 Jan 2020 10:31:48.317,525.144
152,6 Jan 2020 11:59:16.097,6 Jan 2020 12:09:50.586,634.489
153,6 Jan 2020 13:36:05.517,6 Jan 2020 13:45:23.610,558.093

