vcc_sched/network/input/access_vtgs_wj2xms_vcc-c_44430.csv

"Access","Start Time (UTCG)","Stop Time (UTCG)","Duration (sec)"
1,1 Dec 2019 18:38:07.242,1 Dec 2019 18:47:59.700,592.458
2,1 Dec 2019 20:14:09.870,1 Dec 2019 20:24:35.667,625.798
3,1 Dec 2019 21:52:24.734,1 Dec 2019 22:00:51.709,506.975
4,1 Dec 2019 23:30:36.770,1 Dec 2019 23:38:21.329,464.559
5,2 Dec 2019 01:07:14.034,2 Dec 2019 01:16:55.780,581.746
6,2 Dec 2019 02:43:29.017,2 Dec 2019 02:54:09.296,640.279
7,2 Dec 2019 04:21:23.160,2 Dec 2019 04:27:54.436,391.276
8,2 Dec 2019 17:46:31.235,2 Dec 2019 17:55:05.230,513.996
9,2 Dec 2019 19:21:30.884,2 Dec 2019 19:32:11.457,640.573
10,2 Dec 2019 20:59:17.006,2 Dec 2019 21:08:23.360,546.355
11,2 Dec 2019 22:37:47.092,2 Dec 2019 22:45:22.484,455.392
12,3 Dec 2019 00:14:49.498,3 Dec 2019 00:23:51.455,541.957
13,3 Dec 2019 01:51:01.245,3 Dec 2019 02:01:42.217,640.972
14,3 Dec 2019 03:28:02.057,3 Dec 2019 03:36:51.489,529.432
15,3 Dec 2019 16:55:35.822,3 Dec 2019 17:01:36.445,360.624
16,3 Dec 2019 18:29:05.257,3 Dec 2019 18:39:42.036,636.779
17,3 Dec 2019 20:06:12.799,3 Dec 2019 20:15:58.068,585.269
18,3 Dec 2019 21:44:46.265,3 Dec 2019 21:52:32.759,466.494
19,3 Dec 2019 23:22:19.374,3 Dec 2019 23:30:41.868,502.494
20,4 Dec 2019 00:58:36.123,4 Dec 2019 01:08:59.859,623.736
21,4 Dec 2019 02:35:08.860,4 Dec 2019 02:45:09.860,601.000
22,4 Dec 2019 17:36:55.839,4 Dec 2019 17:47:04.126,608.287
23,4 Dec 2019 19:13:15.919,4 Dec 2019 19:23:33.199,617.279
24,4 Dec 2019 20:51:37.475,4 Dec 2019 20:59:52.130,494.655
25,4 Dec 2019 22:29:40.748,4 Dec 2019 22:37:31.903,471.155
26,5 Dec 2019 00:06:11.210,5 Dec 2019 00:16:04.538,593.328
27,5 Dec 2019 01:42:28.764,5 Dec 2019 01:53:03.683,634.919
28,5 Dec 2019 03:20:52.965,5 Dec 2019 03:26:08.568,315.603
29,5 Dec 2019 16:45:07.431,5 Dec 2019 16:54:12.349,544.918
30,5 Dec 2019 18:20:29.253,5 Dec 2019 18:31:06.380,637.127
31,5 Dec 2019 19:58:25.706,5 Dec 2019 20:07:18.397,532.691
32,5 Dec 2019 21:36:51.127,5 Dec 2019 21:44:26.712,455.584
33,5 Dec 2019 23:13:44.162,5 Dec 2019 23:22:58.964,554.802
34,6 Dec 2019 00:49:55.740,6 Dec 2019 01:00:38.360,642.620
35,6 Dec 2019 02:27:09.744,6 Dec 2019 02:35:23.650,493.905
36,6 Dec 2019 15:53:51.575,6 Dec 2019 16:00:54.535,422.960
37,6 Dec 2019 17:27:55.208,6 Dec 2019 17:38:35.198,639.990
38,6 Dec 2019 19:05:16.017,6 Dec 2019 19:14:48.663,572.646
39,6 Dec 2019 20:43:49.876,6 Dec 2019 20:51:30.050,460.174
40,6 Dec 2019 22:21:12.424,6 Dec 2019 22:29:46.704,514.281
41,6 Dec 2019 23:57:26.289,7 Dec 2019 00:07:56.900,630.611
42,7 Dec 2019 01:34:06.108,7 Dec 2019 01:43:48.524,582.416
43,7 Dec 2019 15:04:25.641,7 Dec 2019 15:05:52.730,87.089
44,7 Dec 2019 16:35:36.407,7 Dec 2019 16:45:56.696,620.289
45,7 Dec 2019 18:12:12.559,7 Dec 2019 18:22:20.173,607.614
46,7 Dec 2019 19:50:39.302,7 Dec 2019 19:58:42.856,483.555
47,7 Dec 2019 21:28:33.094,7 Dec 2019 21:36:32.400,479.306
48,7 Dec 2019 23:04:57.809,7 Dec 2019 23:15:01.655,603.846
49,8 Dec 2019 00:41:18.844,8 Dec 2019 00:51:45.759,626.916
50,8 Dec 2019 02:20:30.693,8 Dec 2019 02:23:53.185,202.492
51,8 Dec 2019 15:43:36.783,8 Dec 2019 15:53:06.388,569.605
52,8 Dec 2019 17:19:18.494,8 Dec 2019 17:29:50.487,631.993
53,8 Dec 2019 18:57:24.030,8 Dec 2019 19:06:03.455,519.425
54,8 Dec 2019 20:35:43.402,8 Dec 2019 20:43:21.299,457.897
55,8 Dec 2019 22:12:27.973,8 Dec 2019 22:21:55.168,567.195
56,8 Dec 2019 23:48:40.232,8 Dec 2019 23:59:22.421,642.189
57,9 Dec 2019 01:26:10.402,9 Dec 2019 01:33:41.137,450.735
58,9 Dec 2019 14:52:04.705,9 Dec 2019 14:59:55.276,470.571
59,9 Dec 2019 16:26:36.357,9 Dec 2019 16:37:17.221,640.863
60,9 Dec 2019 18:04:09.295,9 Dec 2019 18:13:29.012,559.717
61,9 Dec 2019 19:42:41.930,9 Dec 2019 19:50:17.836,455.906
62,9 Dec 2019 21:19:54.275,9 Dec 2019 21:28:40.707,526.432
63,9 Dec 2019 22:56:06.190,9 Dec 2019 23:06:42.035,635.846
64,10 Dec 2019 00:32:54.473,10 Dec 2019 00:42:14.261,559.788
65,10 Dec 2019 14:01:31.324,10 Dec 2019 14:05:51.608,260.284
66,10 Dec 2019 15:34:08.621,10 Dec 2019 15:44:37.645,629.024
67,10 Dec 2019 17:10:59.601,10 Dec 2019 17:20:56.659,597.057
68,10 Dec 2019 18:49:30.022,10 Dec 2019 18:57:23.927,473.905
69,10 Dec 2019 20:27:13.914,10 Dec 2019 20:35:22.609,488.695
70,10 Dec 2019 22:03:33.908,10 Dec 2019 22:13:47.068,613.160
71,10 Dec 2019 23:39:59.345,10 Dec 2019 23:50:15.477,616.133
72,11 Dec 2019 14:41:58.635,11 Dec 2019 14:51:47.911,589.276
73,11 Dec 2019 16:17:58.440,11 Dec 2019 16:28:23.852,625.411
74,11 Dec 2019 17:56:11.772,11 Dec 2019 18:04:38.591,506.818
75,11 Dec 2019 19:34:23.941,11 Dec 2019 19:42:06.078,462.138
76,11 Dec 2019 21:11:01.001,11 Dec 2019 21:20:39.954,578.952
77,11 Dec 2019 22:47:14.764,11 Dec 2019 22:57:54.384,639.620
78,12 Dec 2019 00:25:05.272,12 Dec 2019 00:31:42.729,397.457
79,12 Dec 2019 13:50:12.809,12 Dec 2019 13:58:41.007,508.198
80,12 Dec 2019 15:25:08.501,12 Dec 2019 15:35:48.220,639.719
81,12 Dec 2019 17:02:52.450,12 Dec 2019 17:11:59.160,546.709
82,12 Dec 2019 18:41:22.332,12 Dec 2019 18:48:56.038,453.706
83,12 Dec 2019 20:18:25.042,12 Dec 2019 20:27:23.696,538.654
84,12 Dec 2019 21:54:35.864,12 Dec 2019 22:05:15.240,639.376
85,12 Dec 2019 23:31:34.203,12 Dec 2019 23:40:26.831,532.628
86,13 Dec 2019 12:59:09.775,13 Dec 2019 13:04:57.651,347.875
87,13 Dec 2019 14:32:32.211,13 Dec 2019 14:43:07.172,634.962
88,13 Dec 2019 16:09:36.890,13 Dec 2019 16:19:22.706,585.816
89,13 Dec 2019 17:48:09.471,13 Dec 2019 17:55:55.348,465.877
90,13 Dec 2019 19:25:43.304,13 Dec 2019 19:34:02.325,499.020
91,13 Dec 2019 21:01:59.541,13 Dec 2019 21:12:20.734,621.193
92,13 Dec 2019 22:38:30.360,13 Dec 2019 22:48:32.772,602.412
93,14 Dec 2019 13:40:12.530,14 Dec 2019 13:50:17.319,604.789
94,14 Dec 2019 15:16:28.925,14 Dec 2019 15:26:46.552,617.627
95,14 Dec 2019 16:54:48.744,14 Dec 2019 17:03:03.835,495.090
96,14 Dec 2019 18:32:52.796,14 Dec 2019 18:40:40.866,468.071
97,14 Dec 2019 20:09:23.322,14 Dec 2019 20:19:13.226,589.903
98,14 Dec 2019 21:45:39.388,14 Dec 2019 21:56:14.229,634.842
99,14 Dec 2019 23:23:56.787,14 Dec 2019 23:29:26.038,329.250
100,15 Dec 2019 12:48:14.553,15 Dec 2019 12:57:12.966,538.414
101,15 Dec 2019 14:23:31.460,15 Dec 2019 14:34:08.282,636.822
102,15 Dec 2019 16:01:25.296,15 Dec 2019 16:10:19.162,533.866
103,15 Dec 2019 17:39:51.029,15 Dec 2019 17:47:24.557,453.528
104,15 Dec 2019 19:16:44.813,15 Dec 2019 19:25:55.531,550.718
105,15 Dec 2019 20:52:55.347,15 Dec 2019 21:03:36.511,641.164
106,15 Dec 2019 22:30:05.685,15 Dec 2019 22:38:25.891,500.206
107,16 Dec 2019 11:56:50.941,16 Dec 2019 12:03:40.821,409.880
108,16 Dec 2019 13:30:46.942,16 Dec 2019 13:41:25.429,638.486
109,16 Dec 2019 15:08:04.255,16 Dec 2019 15:17:38.355,574.100
110,16 Dec 2019 16:46:37.497,16 Dec 2019 16:54:17.095,459.598
111,16 Dec 2019 18:24:01.380,16 Dec 2019 18:32:31.342,509.962
112,16 Dec 2019 20:00:14.754,16 Dec 2019 20:10:42.607,627.853
113,16 Dec 2019 21:36:51.994,16 Dec 2019 21:46:37.556,585.562
114,17 Dec 2019 12:38:18.089,17 Dec 2019 12:48:34.905,616.815
115,17 Dec 2019 14:14:49.785,17 Dec 2019 14:24:58.626,608.841
116,17 Dec 2019 15:53:14.760,17 Dec 2019 16:00:00.000,405.240

