vcc_sched/network/input/access_odugs_wj2xoh_vcc-a_44428.csv

"Access","Start Time (UTCG)","Stop Time (UTCG)","Duration (sec)"
1,3 Feb 2020 16:56:27.386,3 Feb 2020 17:06:28.819,601.433
2,3 Feb 2020 18:32:34.831,3 Feb 2020 18:43:00.583,625.752
3,3 Feb 2020 20:10:54.199,3 Feb 2020 20:19:13.648,499.449
4,3 Feb 2020 21:49:07.648,3 Feb 2020 21:56:43.332,455.684
5,3 Feb 2020 23:25:41.978,3 Feb 2020 23:35:20.417,578.439
6,4 Feb 2020 01:01:54.527,4 Feb 2020 01:12:34.442,639.915
7,4 Feb 2020 02:39:47.444,4 Feb 2020 02:46:18.583,391.139
8,4 Feb 2020 16:04:27.981,4 Feb 2020 16:13:14.617,526.635
9,4 Feb 2020 17:39:32.664,4 Feb 2020 17:50:15.852,643.187
10,4 Feb 2020 19:17:22.873,4 Feb 2020 19:26:24.547,541.673
11,4 Feb 2020 20:55:56.102,4 Feb 2020 21:03:22.055,445.953
12,4 Feb 2020 22:32:56.653,4 Feb 2020 22:41:53.446,536.792
13,5 Feb 2020 00:09:05.696,5 Feb 2020 00:19:45.782,640.085
14,5 Feb 2020 01:46:04.434,5 Feb 2020 01:54:55.273,530.838
15,5 Feb 2020 15:13:07.770,5 Feb 2020 15:19:27.922,380.152
16,5 Feb 2020 16:46:44.323,5 Feb 2020 16:57:25.987,641.664
17,5 Feb 2020 18:23:55.299,5 Feb 2020 18:33:38.775,583.476
18,5 Feb 2020 20:02:32.652,5 Feb 2020 20:10:10.776,458.125
19,5 Feb 2020 21:40:05.691,5 Feb 2020 21:48:21.091,495.401
20,5 Feb 2020 23:16:19.764,5 Feb 2020 23:26:41.492,621.728
21,6 Feb 2020 00:52:50.071,6 Feb 2020 01:02:52.586,602.515
22,6 Feb 2020 15:54:12.624,6 Feb 2020 16:04:27.720,615.096
23,6 Feb 2020 17:30:35.483,6 Feb 2020 17:40:53.554,618.071
24,6 Feb 2020 19:09:00.754,6 Feb 2020 19:17:09.366,488.612
25,6 Feb 2020 20:47:05.926,6 Feb 2020 20:54:48.570,462.644
26,6 Feb 2020 22:23:34.202,6 Feb 2020 22:33:23.934,589.732
27,6 Feb 2020 23:59:49.171,7 Feb 2020 00:10:24.981,635.810
28,7 Feb 2020 01:38:08.366,7 Feb 2020 01:43:33.815,325.449
29,7 Feb 2020 15:02:02.286,7 Feb 2020 15:11:15.695,553.409
30,7 Feb 2020 16:37:26.403,7 Feb 2020 16:48:06.429,640.026
31,7 Feb 2020 18:15:25.838,7 Feb 2020 18:24:15.342,529.503
32,7 Feb 2020 19:53:54.582,7 Feb 2020 20:01:21.445,446.863
33,7 Feb 2020 21:30:46.577,7 Feb 2020 21:39:55.911,549.334
34,7 Feb 2020 23:06:55.585,7 Feb 2020 23:17:37.947,642.362
35,8 Feb 2020 00:44:05.951,8 Feb 2020 00:52:26.219,500.268
36,8 Feb 2020 14:10:24.552,8 Feb 2020 14:17:38.005,433.453
37,8 Feb 2020 15:44:30.508,8 Feb 2020 15:55:14.944,644.436
38,8 Feb 2020 17:21:53.321,8 Feb 2020 17:31:25.529,572.208
39,8 Feb 2020 19:00:30.908,8 Feb 2020 19:08:03.745,452.837
40,8 Feb 2020 20:37:54.159,8 Feb 2020 20:46:21.185,507.026
41,8 Feb 2020 22:14:05.723,8 Feb 2020 22:24:34.518,628.796
42,8 Feb 2020 23:50:42.317,9 Feb 2020 00:00:29.260,586.943
43,9 Feb 2020 13:20:26.309,9 Feb 2020 13:22:27.115,120.805
44,9 Feb 2020 14:51:50.405,9 Feb 2020 15:02:16.087,625.682
45,9 Feb 2020 16:28:27.566,9 Feb 2020 16:38:37.028,609.462
46,9 Feb 2020 18:06:57.495,9 Feb 2020 18:14:56.303,478.809
47,9 Feb 2020 19:44:53.839,9 Feb 2020 19:52:44.695,470.857
48,9 Feb 2020 21:21:16.932,9 Feb 2020 21:31:17.082,600.150
49,9 Feb 2020 22:57:35.010,9 Feb 2020 23:08:04.689,629.679
50,10 Feb 2020 00:36:32.292,10 Feb 2020 00:40:26.732,234.441
51,10 Feb 2020 13:59:30.062,10 Feb 2020 14:09:05.299,575.237
52,10 Feb 2020 15:35:11.821,10 Feb 2020 15:45:47.305,635.484
53,10 Feb 2020 17:13:19.438,10 Feb 2020 17:21:57.106,517.668
54,10 Feb 2020 18:51:42.562,10 Feb 2020 18:59:12.092,449.531
55,10 Feb 2020 20:28:26.776,10 Feb 2020 20:37:48.266,561.490
56,10 Feb 2020 22:04:36.405,10 Feb 2020 22:15:19.434,643.029
57,10 Feb 2020 23:42:00.572,10 Feb 2020 23:49:44.642,464.070
58,11 Feb 2020 13:07:37.955,11 Feb 2020 13:15:33.424,475.469
59,11 Feb 2020 14:42:08.632,11 Feb 2020 14:52:53.925,645.293
60,11 Feb 2020 16:19:42.353,11 Feb 2020 16:29:03.026,560.673
61,11 Feb 2020 17:58:18.841,11 Feb 2020 18:05:48.081,449.240
62,11 Feb 2020 19:35:32.629,11 Feb 2020 19:44:11.532,518.903
63,11 Feb 2020 21:11:42.419,11 Feb 2020 21:22:16.976,634.557
64,11 Feb 2020 22:48:26.301,11 Feb 2020 22:57:54.668,568.366
65,12 Feb 2020 12:16:45.886,12 Feb 2020 12:21:08.010,262.123
66,12 Feb 2020 13:49:20.500,12 Feb 2020 13:59:54.087,633.587
67,12 Feb 2020 15:26:10.947,12 Feb 2020 15:36:11.044,600.096
68,12 Feb 2020 17:04:44.298,12 Feb 2020 17:12:34.462,470.165
69,12 Feb 2020 18:42:31.463,12 Feb 2020 18:50:31.534,480.072
70,12 Feb 2020 20:18:50.209,12 Feb 2020 20:28:59.801,609.592
71,12 Feb 2020 21:55:12.081,12 Feb 2020 22:05:33.521,621.440
72,12 Feb 2020 23:35:52.463,12 Feb 2020 23:36:04.096,11.632
73,13 Feb 2020 12:56:50.846,13 Feb 2020 13:06:43.816,592.970
74,13 Feb 2020 14:32:48.780,13 Feb 2020 14:43:18.514,629.734
75,13 Feb 2020 16:11:03.543,13 Feb 2020 16:19:29.865,506.322
76,13 Feb 2020 17:49:20.088,13 Feb 2020 17:56:53.855,453.767
77,13 Feb 2020 19:25:57.316,13 Feb 2020 19:35:30.415,573.099
78,13 Feb 2020 21:02:08.189,13 Feb 2020 21:12:50.224,642.035
79,13 Feb 2020 22:39:49.014,13 Feb 2020 22:46:49.843,420.830
80,14 Feb 2020 12:04:46.348,14 Feb 2020 12:13:15.765,509.417
81,14 Feb 2020 13:39:38.551,14 Feb 2020 13:50:23.013,644.462
82,14 Feb 2020 15:17:22.267,14 Feb 2020 15:26:31.294,549.027
83,14 Feb 2020 16:55:56.386,14 Feb 2020 17:03:23.711,447.325
84,14 Feb 2020 18:33:01.191,14 Feb 2020 18:41:52.007,530.815
85,14 Feb 2020 20:09:09.881,14 Feb 2020 20:19:48.859,638.977
86,14 Feb 2020 21:46:02.198,14 Feb 2020 21:55:08.669,546.471
87,15 Feb 2020 11:13:27.036,15 Feb 2020 11:19:09.213,342.177
88,15 Feb 2020 12:46:42.707,15 Feb 2020 12:57:21.872,639.166
89,15 Feb 2020 14:23:45.519,15 Feb 2020 14:33:35.632,590.113
90,15 Feb 2020 16:02:21.038,15 Feb 2020 16:10:03.841,462.803
91,15 Feb 2020 17:39:58.892,15 Feb 2020 17:48:08.918,490.026
92,15 Feb 2020 19:16:14.075,15 Feb 2020 19:26:32.065,617.989
93,15 Feb 2020 20:52:40.451,15 Feb 2020 21:02:51.458,611.007
94,16 Feb 2020 11:54:04.296,16 Feb 2020 12:04:11.541,607.245
95,16 Feb 2020 13:30:17.170,16 Feb 2020 13:40:40.111,622.940
96,16 Feb 2020 15:08:38.012,16 Feb 2020 15:16:53.636,495.624
97,16 Feb 2020 16:46:47.196,16 Feb 2020 16:54:26.589,459.393
98,16 Feb 2020 18:23:18.251,16 Feb 2020 18:33:02.290,584.039
99,16 Feb 2020 19:59:30.963,16 Feb 2020 20:10:10.307,639.344
100,16 Feb 2020 21:37:32.489,16 Feb 2020 21:43:40.619,368.129
101,17 Feb 2020 11:01:48.748,17 Feb 2020 11:10:45.936,537.188
102,17 Feb 2020 12:37:00.126,17 Feb 2020 12:47:42.269,642.142
103,17 Feb 2020 14:14:52.933,17 Feb 2020 14:23:50.361,537.428
104,17 Feb 2020 15:53:23.512,17 Feb 2020 16:00:50.552,447.041
105,17 Feb 2020 17:30:19.912,17 Feb 2020 17:39:22.491,542.579
106,17 Feb 2020 19:06:28.134,17 Feb 2020 19:17:10.142,642.008
107,17 Feb 2020 20:43:30.194,17 Feb 2020 20:52:11.073,520.880
108,18 Feb 2020 10:10:10.107,18 Feb 2020 10:16:50.333,400.226
109,18 Feb 2020 11:43:56.851,18 Feb 2020 11:54:39.540,642.689
110,18 Feb 2020 13:21:11.144,18 Feb 2020 13:30:50.819,579.674
111,18 Feb 2020 14:59:47.628,18 Feb 2020 15:07:24.420,456.792

