vcc_sched/network/input/access_wff_wff_vcc-a_44428.csv

"Access","Start Time (UTCG)","Stop Time (UTCG)","Duration (sec)"
1,7 Jan 2020 03:04:31.675,7 Jan 2020 03:11:29.396,417.721
2,7 Jan 2020 04:38:31.700,7 Jan 2020 04:49:12.673,640.973
3,7 Jan 2020 06:15:47.366,7 Jan 2020 06:25:29.245,581.879
4,7 Jan 2020 07:54:13.685,7 Jan 2020 08:02:13.503,479.819
5,7 Jan 2020 09:31:35.336,7 Jan 2020 09:40:24.790,529.455
6,7 Jan 2020 11:07:52.761,7 Jan 2020 11:18:26.460,633.700
7,7 Jan 2020 12:44:36.803,7 Jan 2020 12:54:10.731,573.928
8,8 Jan 2020 02:15:27.977,8 Jan 2020 02:16:31.395,63.419
9,8 Jan 2020 03:46:26.661,8 Jan 2020 03:56:46.645,619.985
10,8 Jan 2020 05:22:58.963,8 Jan 2020 05:33:12.785,613.822
11,8 Jan 2020 07:01:18.478,8 Jan 2020 07:09:39.171,500.693
12,8 Jan 2020 08:39:08.480,8 Jan 2020 08:47:26.484,498.004
13,8 Jan 2020 10:15:36.276,8 Jan 2020 10:25:46.981,610.705
14,8 Jan 2020 11:52:01.265,8 Jan 2020 12:02:23.379,622.114
15,8 Jan 2020 13:31:38.787,8 Jan 2020 13:34:02.277,143.490
16,9 Jan 2020 02:54:40.862,9 Jan 2020 03:04:09.531,568.669
17,9 Jan 2020 04:30:19.935,9 Jan 2020 04:40:55.740,635.806
18,9 Jan 2020 06:08:19.396,9 Jan 2020 06:17:12.435,533.039
19,9 Jan 2020 07:46:32.550,9 Jan 2020 07:54:31.183,478.633
20,9 Jan 2020 09:23:18.899,9 Jan 2020 09:32:57.093,578.194
21,9 Jan 2020 10:59:35.041,9 Jan 2020 11:10:15.974,640.933
22,9 Jan 2020 12:37:12.726,9 Jan 2020 12:44:24.074,431.348
23,10 Jan 2020 02:03:22.556,10 Jan 2020 02:11:12.502,469.946
24,10 Jan 2020 03:37:52.777,10 Jan 2020 03:48:35.784,643.008
25,10 Jan 2020 05:15:21.160,10 Jan 2020 05:24:50.891,569.732
26,10 Jan 2020 06:53:46.419,10 Jan 2020 07:01:42.853,476.434
27,10 Jan 2020 08:30:58.258,10 Jan 2020 08:39:59.931,541.673
28,10 Jan 2020 10:07:13.906,10 Jan 2020 10:17:52.250,638.345
29,10 Jan 2020 11:44:07.558,10 Jan 2020 11:53:15.557,547.999
30,11 Jan 2020 01:13:02.007,11 Jan 2020 01:17:24.741,262.734
31,11 Jan 2020 02:45:39.981,11 Jan 2020 02:56:10.260,630.280
32,11 Jan 2020 04:22:27.988,11 Jan 2020 04:32:31.946,603.957
33,11 Jan 2020 06:00:51.305,11 Jan 2020 06:09:03.358,492.053
34,11 Jan 2020 07:38:31.787,11 Jan 2020 07:46:59.504,507.717
35,11 Jan 2020 09:14:55.016,11 Jan 2020 09:25:14.762,619.747
36,11 Jan 2020 10:51:25.088,11 Jan 2020 11:01:34.362,609.274
37,12 Jan 2020 01:53:44.851,12 Jan 2020 02:03:35.417,590.566
38,12 Jan 2020 03:29:43.241,12 Jan 2020 03:40:13.199,629.957
39,12 Jan 2020 05:07:50.768,12 Jan 2020 05:16:32.108,521.340
40,12 Jan 2020 06:45:56.946,12 Jan 2020 06:54:00.476,483.530
41,12 Jan 2020 08:22:36.010,12 Jan 2020 08:32:25.934,589.924
42,12 Jan 2020 09:58:54.069,12 Jan 2020 10:09:31.146,637.077
43,12 Jan 2020 11:36:56.093,12 Jan 2020 11:43:04.411,368.318
44,13 Jan 2020 01:02:13.564,13 Jan 2020 01:10:44.525,510.961
45,13 Jan 2020 02:37:09.587,13 Jan 2020 02:47:52.339,642.752
46,13 Jan 2020 04:14:49.497,13 Jan 2020 04:24:06.934,557.438
47,13 Jan 2020 05:53:12.039,13 Jan 2020 06:01:07.265,475.226
48,13 Jan 2020 07:30:14.553,13 Jan 2020 07:39:28.657,554.104
49,13 Jan 2020 09:06:29.366,13 Jan 2020 09:17:10.511,641.145
50,13 Jan 2020 10:43:34.744,13 Jan 2020 10:52:11.029,516.285
51,14 Jan 2020 00:11:23.585,14 Jan 2020 00:17:19.563,355.978
52,14 Jan 2020 01:44:49.438,14 Jan 2020 01:55:26.873,637.435
53,14 Jan 2020 03:21:51.958,14 Jan 2020 03:31:45.222,593.264
54,14 Jan 2020 05:00:17.424,14 Jan 2020 05:08:22.559,485.135
55,14 Jan 2020 06:37:48.146,14 Jan 2020 06:46:26.647,518.501
56,14 Jan 2020 08:14:07.801,14 Jan 2020 08:24:35.257,627.456
57,14 Jan 2020 09:50:44.203,14 Jan 2020 10:00:37.036,592.833
58,15 Jan 2020 00:52:45.699,15 Jan 2020 01:02:53.532,607.833
59,15 Jan 2020 02:29:01.828,15 Jan 2020 02:39:24.501,622.672
60,15 Jan 2020 04:07:15.976,15 Jan 2020 04:15:46.547,510.571
61,15 Jan 2020 05:45:14.161,15 Jan 2020 05:53:24.426,490.265
62,15 Jan 2020 07:21:46.895,15 Jan 2020 07:31:47.788,600.892
63,15 Jan 2020 08:58:07.838,15 Jan 2020 09:08:38.465,630.626
64,15 Jan 2020 10:36:44.599,15 Jan 2020 10:41:26.805,282.206
65,16 Jan 2020 00:01:03.216,16 Jan 2020 00:10:06.949,543.733
66,16 Jan 2020 01:36:21.971,16 Jan 2020 01:47:02.438,640.468
67,16 Jan 2020 03:14:12.186,16 Jan 2020 03:23:17.443,545.257
68,16 Jan 2020 04:52:30.489,16 Jan 2020 05:00:26.663,476.174
69,16 Jan 2020 06:29:24.329,16 Jan 2020 06:38:50.797,566.468
70,16 Jan 2020 08:05:39.225,16 Jan 2020 08:16:21.180,641.955
71,16 Jan 2020 09:42:59.025,16 Jan 2020 09:50:56.519,477.494
72,16 Jan 2020 23:09:53.520,16 Jan 2020 23:16:55.013,421.493
73,17 Jan 2020 00:43:54.830,17 Jan 2020 00:54:36.649,641.819
74,17 Jan 2020 02:21:10.715,17 Jan 2020 02:30:52.692,581.977
75,17 Jan 2020 03:59:36.687,17 Jan 2020 04:07:36.778,480.091
76,17 Jan 2020 05:36:57.666,17 Jan 2020 05:45:47.713,530.047
77,17 Jan 2020 07:13:14.712,17 Jan 2020 07:23:48.389,633.676
78,17 Jan 2020 08:49:58.830,17 Jan 2020 08:59:31.206,572.376
79,17 Jan 2020 22:20:34.158,17 Jan 2020 22:21:59.651,85.493
80,17 Jan 2020 23:51:43.053,18 Jan 2020 00:02:04.203,621.150
81,18 Jan 2020 01:28:15.541,18 Jan 2020 01:38:29.724,614.183
82,18 Jan 2020 03:06:34.836,18 Jan 2020 03:14:55.810,500.974
83,18 Jan 2020 04:44:24.268,18 Jan 2020 04:52:42.837,498.569
84,18 Jan 2020 06:20:51.642,18 Jan 2020 06:31:02.553,610.911
85,18 Jan 2020 07:57:16.471,18 Jan 2020 08:07:37.839,621.367
86,18 Jan 2020 09:36:58.004,18 Jan 2020 09:39:11.539,133.535
87,18 Jan 2020 22:59:50.590,18 Jan 2020 23:09:20.667,570.077
88,19 Jan 2020 00:35:29.789,19 Jan 2020 00:46:06.187,636.399
89,19 Jan 2020 02:13:29.052,19 Jan 2020 02:22:22.500,533.448
90,19 Jan 2020 03:51:41.751,19 Jan 2020 03:59:40.931,479.180
91,19 Jan 2020 05:28:27.692,19 Jan 2020 05:38:06.206,578.514
92,19 Jan 2020 07:04:43.569,19 Jan 2020 07:15:24.205,640.636
93,19 Jan 2020 08:42:21.454,19 Jan 2020 08:49:31.004,429.549
94,19 Jan 2020 22:08:25.690,19 Jan 2020 22:16:17.207,471.518
95,19 Jan 2020 23:42:55.982,19 Jan 2020 23:53:39.737,643.755
96,20 Jan 2020 01:20:24.108,20 Jan 2020 01:29:54.419,570.310
97,20 Jan 2020 02:58:48.971,20 Jan 2020 03:06:46.000,477.029
98,20 Jan 2020 04:36:00.470,20 Jan 2020 04:45:02.511,542.041
99,20 Jan 2020 06:12:15.821,20 Jan 2020 06:22:54.113,638.292
100,20 Jan 2020 07:49:09.289,20 Jan 2020 07:58:16.606,547.316
101,20 Jan 2020 21:17:58.491,20 Jan 2020 21:22:23.141,264.650
102,20 Jan 2020 22:50:36.634,20 Jan 2020 23:01:07.685,631.050
103,21 Jan 2020 00:27:24.257,21 Jan 2020 00:37:28.950,604.693
104,21 Jan 2020 02:05:47.167,21 Jan 2020 02:13:59.947,492.780
105,21 Jan 2020 03:43:27.369,21 Jan 2020 03:51:55.516,508.147
106,21 Jan 2020 05:19:50.342,21 Jan 2020 05:30:10.143,619.800
107,21 Jan 2020 06:56:20.106,21 Jan 2020 07:06:29.169,609.063

