vcc_sched/network/input/access_wff_wff_vcc-b_44431.csv

"Access","Start Time (UTCG)","Stop Time (UTCG)","Duration (sec)"
1,3 Feb 2020 16:59:21.052,3 Feb 2020 17:09:23.492,602.441
2,3 Feb 2020 18:35:29.182,3 Feb 2020 18:45:55.207,626.025
3,3 Feb 2020 20:13:39.442,3 Feb 2020 20:22:14.331,514.889
4,3 Feb 2020 21:51:39.294,3 Feb 2020 21:59:46.840,487.547
5,3 Feb 2020 23:28:12.893,3 Feb 2020 23:38:09.305,596.412
6,4 Feb 2020 01:04:31.170,4 Feb 2020 01:15:03.799,632.630
7,4 Feb 2020 02:42:51.710,4 Feb 2020 02:48:09.004,317.294
8,4 Feb 2020 16:07:19.452,4 Feb 2020 16:16:11.121,531.669
9,4 Feb 2020 17:42:27.578,4 Feb 2020 17:53:09.704,642.126
10,4 Feb 2020 19:20:12.040,4 Feb 2020 19:29:22.800,550.760
11,4 Feb 2020 20:58:30.746,4 Feb 2020 21:06:26.503,475.757
12,4 Feb 2020 22:35:26.698,4 Feb 2020 22:44:47.778,561.080
13,5 Feb 2020 00:11:39.972,5 Feb 2020 00:22:21.248,641.276
14,5 Feb 2020 01:48:51.859,5 Feb 2020 01:57:05.724,493.865
15,5 Feb 2020 15:15:54.326,5 Feb 2020 15:22:29.219,394.893
16,5 Feb 2020 16:49:39.085,5 Feb 2020 17:00:19.690,640.605
17,5 Feb 2020 18:26:47.346,5 Feb 2020 18:36:35.033,587.687
18,5 Feb 2020 20:05:11.656,5 Feb 2020 20:13:14.219,482.563
19,5 Feb 2020 21:42:35.618,5 Feb 2020 21:51:20.256,524.638
20,5 Feb 2020 23:18:52.259,5 Feb 2020 23:29:22.848,630.589
21,6 Feb 2020 00:55:31.108,6 Feb 2020 01:05:12.768,581.660
22,6 Feb 2020 15:57:06.555,6 Feb 2020 16:07:21.979,615.424
23,6 Feb 2020 17:33:29.370,6 Feb 2020 17:43:48.400,619.030
24,6 Feb 2020 19:11:44.570,6 Feb 2020 19:20:10.682,506.112
25,6 Feb 2020 20:49:36.908,6 Feb 2020 20:57:51.321,494.412
26,6 Feb 2020 22:26:05.361,6 Feb 2020 22:36:11.117,605.756
27,7 Feb 2020 00:02:26.551,7 Feb 2020 00:12:52.423,625.872
28,7 Feb 2020 01:41:26.990,7 Feb 2020 01:45:08.832,221.843
29,7 Feb 2020 15:04:54.524,7 Feb 2020 15:14:11.521,556.997
30,7 Feb 2020 16:40:21.231,7 Feb 2020 16:51:00.470,639.239
31,7 Feb 2020 18:18:13.979,7 Feb 2020 18:27:14.296,540.316
32,7 Feb 2020 19:56:28.219,7 Feb 2020 20:04:25.886,477.667
33,7 Feb 2020 21:33:16.845,7 Feb 2020 21:42:48.779,571.934
34,7 Feb 2020 23:09:30.506,7 Feb 2020 23:20:11.765,641.259
35,8 Feb 2020 00:46:56.362,8 Feb 2020 00:54:32.875,456.513
36,8 Feb 2020 14:13:13.203,8 Feb 2020 14:20:37.492,444.290
37,8 Feb 2020 15:47:25.514,8 Feb 2020 15:58:08.785,643.271
38,8 Feb 2020 17:24:44.800,8 Feb 2020 17:34:22.475,577.675
39,8 Feb 2020 19:03:08.737,8 Feb 2020 19:11:07.821,479.084
40,8 Feb 2020 20:40:24.193,8 Feb 2020 20:49:19.257,535.064
41,8 Feb 2020 22:16:38.857,8 Feb 2020 22:27:14.408,635.551
42,8 Feb 2020 23:53:24.951,9 Feb 2020 00:02:47.260,562.310
43,9 Feb 2020 13:22:51.772,9 Feb 2020 13:25:50.157,178.385
44,9 Feb 2020 14:54:44.915,9 Feb 2020 15:05:10.406,625.491
45,9 Feb 2020 16:31:21.314,9 Feb 2020 16:41:32.521,611.207
46,9 Feb 2020 18:09:40.264,9 Feb 2020 18:17:58.599,498.335
47,9 Feb 2020 19:47:24.678,9 Feb 2020 19:55:46.933,502.254
48,9 Feb 2020 21:23:48.735,9 Feb 2020 21:34:02.965,614.230
49,9 Feb 2020 23:00:13.584,9 Feb 2020 23:10:30.553,616.969
50,10 Feb 2020 14:02:23.295,10 Feb 2020 14:12:00.986,577.690
51,10 Feb 2020 15:38:06.885,10 Feb 2020 15:48:41.955,635.071
52,10 Feb 2020 17:16:06.887,10 Feb 2020 17:24:57.166,530.279
53,10 Feb 2020 18:54:15.730,10 Feb 2020 19:02:16.747,481.017
54,10 Feb 2020 20:30:57.693,10 Feb 2020 20:40:40.047,582.354
55,10 Feb 2020 22:07:12.399,10 Feb 2020 22:17:51.987,639.588
56,10 Feb 2020 23:44:55.306,10 Feb 2020 23:51:46.969,411.663
57,11 Feb 2020 13:10:28.482,11 Feb 2020 13:18:32.101,483.620
58,11 Feb 2020 14:45:04.217,11 Feb 2020 14:55:48.341,644.123
59,11 Feb 2020 16:22:33.583,11 Feb 2020 16:32:01.076,567.493
60,11 Feb 2020 18:00:55.964,11 Feb 2020 18:08:53.053,477.089
61,11 Feb 2020 19:38:03.230,11 Feb 2020 19:47:08.858,545.627
62,11 Feb 2020 21:14:16.597,11 Feb 2020 21:24:55.813,639.216
63,11 Feb 2020 22:51:11.163,11 Feb 2020 23:00:10.667,539.504
64,12 Feb 2020 12:19:27.222,12 Feb 2020 12:24:16.417,289.195
65,12 Feb 2020 13:52:15.905,12 Feb 2020 14:02:48.919,633.014
66,12 Feb 2020 15:29:04.885,12 Feb 2020 15:39:07.612,602.727
67,12 Feb 2020 17:07:26.407,12 Feb 2020 17:15:38.084,491.677
68,12 Feb 2020 18:45:02.672,12 Feb 2020 18:53:33.530,510.858
69,12 Feb 2020 20:21:23.074,12 Feb 2020 20:31:44.805,621.731
70,12 Feb 2020 21:57:52.335,12 Feb 2020 22:07:58.144,605.810
71,13 Feb 2020 12:59:45.346,13 Feb 2020 13:09:39.872,594.527
72,13 Feb 2020 14:35:44.415,13 Feb 2020 14:46:14.207,629.791
73,13 Feb 2020 16:13:50.639,13 Feb 2020 16:22:31.427,520.789
74,13 Feb 2020 17:51:53.312,13 Feb 2020 17:59:58.953,485.640
75,13 Feb 2020 19:28:29.303,13 Feb 2020 19:38:21.506,592.203
76,13 Feb 2020 21:04:45.681,13 Feb 2020 21:15:21.906,636.224
77,13 Feb 2020 22:42:50.090,13 Feb 2020 22:48:46.596,356.506
78,14 Feb 2020 12:07:38.782,14 Feb 2020 12:16:14.371,515.589
79,14 Feb 2020 13:42:35.045,14 Feb 2020 13:53:18.433,643.388
80,14 Feb 2020 15:20:13.575,14 Feb 2020 15:29:30.875,557.299
81,14 Feb 2020 16:58:33.296,14 Feb 2020 17:06:29.834,476.538
82,14 Feb 2020 18:35:32.812,14 Feb 2020 18:44:48.927,556.115
83,14 Feb 2020 20:11:45.515,14 Feb 2020 20:22:27.046,641.530
84,14 Feb 2020 21:48:49.978,14 Feb 2020 21:57:22.763,512.785
85,15 Feb 2020 11:16:13.769,15 Feb 2020 11:22:14.265,360.496
86,15 Feb 2020 12:49:39.343,15 Feb 2020 13:00:17.662,638.319
87,15 Feb 2020 14:26:39.966,15 Feb 2020 14:36:33.696,593.730
88,15 Feb 2020 16:05:02.908,15 Feb 2020 16:13:09.116,486.208
89,15 Feb 2020 17:42:30.970,15 Feb 2020 17:51:10.965,519.995
90,15 Feb 2020 19:18:48.413,15 Feb 2020 19:29:16.592,628.179
91,15 Feb 2020 20:55:22.881,15 Feb 2020 21:05:15.136,592.255
92,16 Feb 2020 11:57:00.364,16 Feb 2020 12:07:08.451,608.087
93,16 Feb 2020 13:33:13.715,16 Feb 2020 13:43:37.265,623.550
94,16 Feb 2020 15:11:25.113,16 Feb 2020 15:19:57.082,511.968
95,16 Feb 2020 16:49:21.013,16 Feb 2020 16:57:32.377,491.364
96,16 Feb 2020 18:25:51.726,16 Feb 2020 18:35:53.092,601.366
97,16 Feb 2020 20:02:10.394,16 Feb 2020 20:12:41.492,631.098
98,16 Feb 2020 21:40:43.663,16 Feb 2020 21:45:28.831,285.168
99,17 Feb 2020 11:04:43.264,17 Feb 2020 11:13:45.104,541.840
100,17 Feb 2020 12:39:57.876,17 Feb 2020 12:50:39.124,641.247
101,17 Feb 2020 14:17:44.651,17 Feb 2020 14:26:51.871,547.220
102,17 Feb 2020 15:56:00.724,17 Feb 2020 16:03:58.081,477.357
103,17 Feb 2020 17:32:52.999,17 Feb 2020 17:42:19.385,566.386
104,17 Feb 2020 19:09:05.643,17 Feb 2020 19:19:48.091,642.448
105,17 Feb 2020 20:46:21.722,17 Feb 2020 20:54:23.238,481.516
106,18 Feb 2020 10:13:00.627,18 Feb 2020 10:19:54.419,413.791
107,18 Feb 2020 11:46:55.053,18 Feb 2020 11:57:36.729,641.677
108,18 Feb 2020 13:24:06.439,18 Feb 2020 13:33:50.800,584.361
109,18 Feb 2020 15:02:29.687,18 Feb 2020 15:10:31.663,481.975

