vcc_sched/network/input/access_uvags_wj2xmr_vcc-c_44430.csv

"Access","Start Time (UTCG)","Stop Time (UTCG)","Duration (sec)"
1,3 Feb 2020 17:17:34.525,3 Feb 2020 17:27:47.955,613.430
2,3 Feb 2020 18:53:52.664,3 Feb 2020 19:04:11.295,618.631
3,3 Feb 2020 20:32:02.099,3 Feb 2020 20:40:30.726,508.627
4,3 Feb 2020 22:09:49.281,3 Feb 2020 22:18:07.063,497.781
5,3 Feb 2020 23:46:14.513,3 Feb 2020 23:56:20.826,606.313
6,4 Feb 2020 01:22:32.892,4 Feb 2020 01:32:56.449,623.557
7,4 Feb 2020 03:01:34.312,4 Feb 2020 03:05:03.823,209.512
8,4 Feb 2020 16:24:33.484,4 Feb 2020 16:33:45.890,552.406
9,4 Feb 2020 17:59:53.950,4 Feb 2020 18:10:32.500,638.550
10,4 Feb 2020 19:37:40.424,4 Feb 2020 19:46:43.323,542.899
11,4 Feb 2020 21:15:49.414,4 Feb 2020 21:23:50.487,481.073
12,4 Feb 2020 22:52:35.058,4 Feb 2020 23:02:07.439,572.380
13,5 Feb 2020 00:28:45.723,5 Feb 2020 00:39:25.611,639.888
14,5 Feb 2020 02:06:07.812,5 Feb 2020 02:13:43.197,455.385
15,5 Feb 2020 15:32:05.288,5 Feb 2020 15:39:17.886,432.598
16,5 Feb 2020 17:06:08.027,5 Feb 2020 17:16:49.374,641.347
17,5 Feb 2020 18:43:19.989,5 Feb 2020 18:53:00.305,580.316
18,5 Feb 2020 20:21:38.089,5 Feb 2020 20:29:41.183,483.094
19,5 Feb 2020 21:58:50.873,5 Feb 2020 22:07:46.277,535.404
20,5 Feb 2020 23:35:02.824,5 Feb 2020 23:45:36.895,634.070
21,6 Feb 2020 01:11:44.617,6 Feb 2020 01:21:07.566,562.949
22,6 Feb 2020 14:41:19.358,6 Feb 2020 14:43:13.909,114.551
23,6 Feb 2020 16:12:37.880,6 Feb 2020 16:22:58.653,620.773
24,6 Feb 2020 17:49:05.353,6 Feb 2020 17:59:18.801,613.448
25,6 Feb 2020 19:27:17.320,6 Feb 2020 19:35:40.642,503.322
26,6 Feb 2020 21:04:59.048,6 Feb 2020 21:13:22.064,503.016
27,6 Feb 2020 22:41:21.081,6 Feb 2020 22:51:33.155,612.075
28,7 Feb 2020 00:17:41.794,7 Feb 2020 00:27:59.205,617.410
29,7 Feb 2020 01:57:43.791,7 Feb 2020 01:58:59.756,75.965
30,7 Feb 2020 15:19:27.946,7 Feb 2020 15:28:55.399,567.453
31,7 Feb 2020 16:55:00.124,7 Feb 2020 17:05:36.131,636.007
32,7 Feb 2020 18:32:51.552,7 Feb 2020 18:41:47.671,536.119
33,7 Feb 2020 20:10:56.922,7 Feb 2020 20:19:00.054,483.132
34,7 Feb 2020 21:47:37.828,7 Feb 2020 21:57:17.271,579.443
35,7 Feb 2020 23:23:48.976,7 Feb 2020 23:34:27.827,638.851
36,8 Feb 2020 01:01:22.206,8 Feb 2020 01:08:27.712,425.506
37,8 Feb 2020 14:26:47.753,8 Feb 2020 14:34:29.453,461.700
38,8 Feb 2020 16:01:07.218,8 Feb 2020 16:11:49.649,642.432
39,8 Feb 2020 17:38:26.073,8 Feb 2020 17:47:59.649,573.576
40,8 Feb 2020 19:16:43.262,8 Feb 2020 19:24:44.735,481.473
41,8 Feb 2020 20:53:50.358,8 Feb 2020 21:02:52.794,542.436
42,8 Feb 2020 22:30:01.146,8 Feb 2020 22:40:37.868,636.722
43,9 Feb 2020 00:06:48.316,9 Feb 2020 00:15:56.337,548.021
44,9 Feb 2020 13:35:17.068,9 Feb 2020 13:39:00.451,223.382
45,9 Feb 2020 15:07:29.546,9 Feb 2020 15:17:56.234,626.688
46,9 Feb 2020 16:44:05.642,9 Feb 2020 16:54:13.677,608.036
47,9 Feb 2020 18:22:19.529,9 Feb 2020 18:30:38.149,498.621
48,9 Feb 2020 19:59:55.780,9 Feb 2020 20:08:24.288,508.508
49,9 Feb 2020 21:36:15.018,9 Feb 2020 21:46:32.305,617.287
50,9 Feb 2020 23:12:38.354,9 Feb 2020 23:22:48.760,610.406
51,10 Feb 2020 14:14:11.156,10 Feb 2020 14:23:51.366,580.209
52,10 Feb 2020 15:49:54.055,10 Feb 2020 16:00:27.026,632.971
53,10 Feb 2020 17:27:49.845,10 Feb 2020 17:36:39.544,529.699
54,10 Feb 2020 19:05:51.288,10 Feb 2020 19:13:57.026,485.738
55,10 Feb 2020 20:42:27.859,10 Feb 2020 20:52:13.970,586.110
56,10 Feb 2020 22:18:39.759,10 Feb 2020 22:29:16.850,637.091
57,10 Feb 2020 23:56:25.610,11 Feb 2020 00:02:57.846,392.237
58,11 Feb 2020 13:21:20.137,11 Feb 2020 13:29:26.330,486.193
59,11 Feb 2020 14:55:54.342,11 Feb 2020 15:06:37.048,642.706
60,11 Feb 2020 16:33:19.496,11 Feb 2020 16:42:46.435,566.940
61,11 Feb 2020 18:11:35.276,11 Feb 2020 18:19:35.799,480.523
62,11 Feb 2020 19:48:36.980,11 Feb 2020 19:57:46.279,549.299
63,11 Feb 2020 21:24:46.914,11 Feb 2020 21:35:25.644,638.730
64,11 Feb 2020 23:01:39.911,11 Feb 2020 23:10:31.750,531.839
65,12 Feb 2020 12:29:24.306,12 Feb 2020 12:34:12.695,288.389
66,12 Feb 2020 14:02:09.381,12 Feb 2020 14:12:40.731,631.351
67,12 Feb 2020 15:38:53.435,12 Feb 2020 15:48:55.906,602.471
68,12 Feb 2020 17:17:08.674,12 Feb 2020 17:25:23.187,494.513
69,12 Feb 2020 18:54:39.500,12 Feb 2020 19:03:13.650,514.150
70,12 Feb 2020 20:30:56.309,12 Feb 2020 20:41:18.254,621.944
71,12 Feb 2020 22:07:22.535,12 Feb 2020 22:17:25.111,602.577
72,13 Feb 2020 13:08:42.906,13 Feb 2020 13:18:33.901,590.994
73,13 Feb 2020 14:44:35.650,13 Feb 2020 14:55:05.175,629.525
74,13 Feb 2020 16:22:35.225,13 Feb 2020 16:31:18.896,523.671
75,13 Feb 2020 18:00:32.527,13 Feb 2020 18:08:41.310,488.783
76,13 Feb 2020 19:37:05.154,13 Feb 2020 19:46:57.508,592.354
77,13 Feb 2020 21:13:18.046,13 Feb 2020 21:23:52.696,634.649
78,13 Feb 2020 22:51:18.389,13 Feb 2020 22:57:13.195,354.806
79,14 Feb 2020 12:15:41.936,14 Feb 2020 12:24:08.926,506.989
80,14 Feb 2020 13:50:29.304,14 Feb 2020 14:01:11.575,642.271
81,14 Feb 2020 15:28:00.184,14 Feb 2020 15:37:20.632,560.448
82,14 Feb 2020 17:06:14.125,14 Feb 2020 17:14:14.298,480.173
83,14 Feb 2020 18:43:10.747,14 Feb 2020 18:52:26.690,555.943
84,14 Feb 2020 20:19:20.107,14 Feb 2020 20:30:00.213,640.107
85,14 Feb 2020 21:56:19.380,14 Feb 2020 22:04:53.770,514.390
86,15 Feb 2020 11:23:27.582,15 Feb 2020 11:29:04.051,336.469
87,15 Feb 2020 12:56:37.260,15 Feb 2020 13:07:12.186,634.926
88,15 Feb 2020 14:33:28.648,15 Feb 2020 14:43:25.458,596.809
89,15 Feb 2020 16:11:44.720,15 Feb 2020 16:19:55.698,490.978
90,15 Feb 2020 17:49:10.233,15 Feb 2020 17:57:50.072,519.839
91,15 Feb 2020 19:25:24.952,15 Feb 2020 19:35:50.995,626.043
92,15 Feb 2020 21:01:54.309,15 Feb 2020 21:11:48.271,593.962
93,16 Feb 2020 12:03:03.015,16 Feb 2020 12:13:03.096,600.081
94,16 Feb 2020 13:39:04.825,16 Feb 2020 13:49:30.552,625.727
95,16 Feb 2020 15:17:07.646,16 Feb 2020 15:25:45.693,518.047
96,16 Feb 2020 16:55:00.651,16 Feb 2020 17:03:12.819,492.168
97,16 Feb 2020 18:31:29.704,16 Feb 2020 18:41:27.849,598.144
98,16 Feb 2020 20:07:43.801,16 Feb 2020 20:18:15.368,631.568
99,16 Feb 2020 21:46:01.149,16 Feb 2020 21:51:13.128,311.979
100,17 Feb 2020 11:09:52.780,17 Feb 2020 11:18:37.513,524.733
101,17 Feb 2020 12:44:52.000,17 Feb 2020 12:55:33.228,641.229
102,17 Feb 2020 14:22:28.063,17 Feb 2020 14:31:42.201,554.138
103,17 Feb 2020 16:00:39.807,17 Feb 2020 16:08:40.152,480.345
104,17 Feb 2020 17:37:31.663,17 Feb 2020 17:46:53.976,562.313
105,17 Feb 2020 19:13:40.685,17 Feb 2020 19:24:21.590,640.905
106,17 Feb 2020 20:50:46.732,17 Feb 2020 20:59:02.386,495.654
107,18 Feb 2020 10:17:23.380,18 Feb 2020 10:23:37.949,374.569
108,18 Feb 2020 11:50:53.057,18 Feb 2020 12:01:30.613,637.556
109,18 Feb 2020 13:27:51.213,18 Feb 2020 13:37:42.320,591.107
110,18 Feb 2020 15:06:07.637,18 Feb 2020 15:14:15.613,487.976

