vcc_sched/network/input/aer_odugs_wj2xoh_vcc-a_44428.csv

"Time (UTCG)","Azimuth (deg)","Elevation (deg)","Range (km)"
3 Feb 2020 16:56:27.386,200.537,-0.124,2318.749270
3 Feb 2020 16:56:28.000,200.497,-0.089,2314.770382
3 Feb 2020 16:56:29.000,200.433,-0.030,2308.292424
3 Feb 2020 16:56:30.000,200.367,0.028,2301.817210
3 Feb 2020 16:56:31.000,200.302,0.087,2295.344772
3 Feb 2020 16:56:32.000,200.236,0.145,2288.875141
3 Feb 2020 16:56:33.000,200.169,0.204,2282.408348
3 Feb 2020 16:56:34.000,200.103,0.263,2275.944428
3 Feb 2020 16:56:35.000,200.036,0.322,2269.483411
3 Feb 2020 16:56:36.000,199.968,0.381,2263.025331
3 Feb 2020 16:56:37.000,199.900,0.441,2256.570221
3 Feb 2020 16:56:38.000,199.832,0.500,2250.118114
3 Feb 2020 16:56:39.000,199.763,0.560,2243.669044
3 Feb 2020 16:56:40.000,199.694,0.620,2237.223046
3 Feb 2020 16:56:41.000,199.625,0.680,2230.780154
3 Feb 2020 16:56:42.000,199.555,0.740,2224.340404
3 Feb 2020 16:56:43.000,199.484,0.801,2217.903830
3 Feb 2020 16:56:44.000,199.414,0.861,2211.470468
3 Feb 2020 16:56:45.000,199.342,0.922,2205.040354
3 Feb 2020 16:56:46.000,199.271,0.982,2198.613524
3 Feb 2020 16:56:47.000,199.199,1.043,2192.190016
3 Feb 2020 16:56:48.000,199.126,1.104,2185.769867
3 Feb 2020 16:56:49.000,199.053,1.166,2179.353115
3 Feb 2020 16:56:50.000,198.980,1.227,2172.939797
3 Feb 2020 16:56:51.000,198.906,1.289,2166.529951
3 Feb 2020 16:56:52.000,198.832,1.350,2160.123618
3 Feb 2020 16:56:53.000,198.757,1.412,2153.720834
3 Feb 2020 16:56:54.000,198.682,1.474,2147.321642
3 Feb 2020 16:56:55.000,198.606,1.537,2140.926081
3 Feb 2020 16:56:56.000,198.530,1.599,2134.534191
3 Feb 2020 16:56:57.000,198.454,1.662,2128.146013
3 Feb 2020 16:56:58.000,198.377,1.724,2121.761589
3 Feb 2020 16:56:59.000,198.299,1.787,2115.380961
3 Feb 2020 16:57:00.000,198.221,1.850,2109.004171
3 Feb 2020 16:57:01.000,198.143,1.914,2102.631260
3 Feb 2020 16:57:02.000,198.064,1.977,2096.262275
3 Feb 2020 16:57:03.000,197.984,2.041,2089.897257
3 Feb 2020 16:57:04.000,197.904,2.104,2083.536252
3 Feb 2020 16:57:05.000,197.824,2.168,2077.179303
3 Feb 2020 16:57:06.000,197.743,2.232,2070.826457
3 Feb 2020 16:57:07.000,197.661,2.297,2064.477758
3 Feb 2020 16:57:08.000,197.579,2.361,2058.133254
3 Feb 2020 16:57:09.000,197.497,2.426,2051.792989
3 Feb 2020 16:57:10.000,197.414,2.491,2045.457014
3 Feb 2020 16:57:11.000,197.330,2.556,2039.125375
3 Feb 2020 16:57:12.000,197.246,2.621,2032.798120
3 Feb 2020 16:57:13.000,197.161,2.686,2026.475298
3 Feb 2020 16:57:14.000,197.076,2.752,2020.156959
3 Feb 2020 16:57:15.000,196.990,2.818,2013.843153
3 Feb 2020 16:57:16.000,196.904,2.884,2007.533930
3 Feb 2020 16:57:17.000,196.817,2.950,2001.229342
3 Feb 2020 16:57:18.000,196.729,3.016,1994.929439
3 Feb 2020 16:57:19.000,196.641,3.083,1988.634276
3 Feb 2020 16:57:20.000,196.553,3.150,1982.343904
3 Feb 2020 16:57:21.000,196.463,3.217,1976.058378
3 Feb 2020 16:57:22.000,196.373,3.284,1969.777751
3 Feb 2020 16:57:23.000,196.283,3.351,1963.502078
3 Feb 2020 16:57:24.000,196.192,3.419,1957.231415
3 Feb 2020 16:57:25.000,196.100,3.487,1950.965818
3 Feb 2020 16:57:26.000,196.008,3.554,1944.705343
3 Feb 2020 16:57:27.000,195.915,3.623,1938.450049
3 Feb 2020 16:57:28.000,195.822,3.691,1932.199992
3 Feb 2020 16:57:29.000,195.728,3.760,1925.955231
3 Feb 2020 16:57:30.000,195.633,3.828,1919.715827
3 Feb 2020 16:57:31.000,195.538,3.897,1913.481839
3 Feb 2020 16:57:32.000,195.441,3.967,1907.253329
3 Feb 2020 16:57:33.000,195.345,4.036,1901.030357
3 Feb 2020 16:57:34.000,195.247,4.106,1894.812987
3 Feb 2020 16:57:35.000,195.149,4.176,1888.601281
3 Feb 2020 16:57:36.000,195.051,4.246,1882.395302
3 Feb 2020 16:57:37.000,194.951,4.316,1876.195116
3 Feb 2020 16:57:38.000,194.851,4.387,1870.000788
3 Feb 2020 16:57:39.000,194.750,4.457,1863.812384
3 Feb 2020 16:57:40.000,194.649,4.528,1857.629971
3 Feb 2020 16:57:41.000,194.547,4.599,1851.453616
3 Feb 2020 16:57:42.000,194.444,4.671,1845.283389
3 Feb 2020 16:57:43.000,194.340,4.742,1839.119357
3 Feb 2020 16:57:44.000,194.236,4.814,1832.961592
3 Feb 2020 16:57:45.000,194.131,4.886,1826.810165
3 Feb 2020 16:57:46.000,194.025,4.959,1820.665148
3 Feb 2020 16:57:47.000,193.918,5.031,1814.526613
3 Feb 2020 16:57:48.000,193.811,5.104,1808.394634
3 Feb 2020 16:57:49.000,193.703,5.177,1802.269285
3 Feb 2020 16:57:50.000,193.594,5.251,1796.150643
3 Feb 2020 16:57:51.000,193.484,5.324,1790.038782
3 Feb 2020 16:57:52.000,193.374,5.398,1783.933782
3 Feb 2020 16:57:53.000,193.263,5.472,1777.835719
3 Feb 2020 16:57:54.000,193.151,5.546,1771.744674
3 Feb 2020 16:57:55.000,193.038,5.621,1765.660726
3 Feb 2020 16:57:56.000,192.924,5.695,1759.583957
3 Feb 2020 16:57:57.000,192.809,5.770,1753.514449
3 Feb 2020 16:57:58.000,192.694,5.846,1747.452285
3 Feb 2020 16:57:59.000,192.578,5.921,1741.397549
3 Feb 2020 16:58:00.000,192.461,5.997,1735.350326
3 Feb 2020 16:58:01.000,192.343,6.073,1729.310704
3 Feb 2020 16:58:02.000,192.224,6.149,1723.278769
3 Feb 2020 16:58:03.000,192.105,6.226,1717.254611
3 Feb 2020 16:58:04.000,191.984,6.302,1711.238318
3 Feb 2020 16:58:05.000,191.863,6.379,1705.229981
3 Feb 2020 16:58:06.000,191.740,6.457,1699.229693
3 Feb 2020 16:58:07.000,191.617,6.534,1693.237546
3 Feb 2020 16:58:08.000,191.493,6.612,1687.253634
3 Feb 2020 16:58:09.000,191.368,6.690,1681.278054
3 Feb 2020 16:58:10.000,191.241,6.768,1675.310901
3 Feb 2020 16:58:11.000,191.114,6.847,1669.352274
3 Feb 2020 16:58:12.000,190.986,6.926,1663.402271
3 Feb 2020 16:58:13.000,190.857,7.005,1657.460993
3 Feb 2020 16:58:14.000,190.727,7.084,1651.528541
3 Feb 2020 16:58:15.000,190.596,7.164,1645.605019
3 Feb 2020 16:58:16.000,190.465,7.244,1639.690530
3 Feb 2020 16:58:17.000,190.332,7.324,1633.785181
3 Feb 2020 16:58:18.000,190.198,7.405,1627.889077
3 Feb 2020 16:58:19.000,190.063,7.486,1622.002327
3 Feb 2020 16:58:20.000,189.926,7.567,1616.125041
3 Feb 2020 16:58:21.000,189.789,7.648,1610.257329
3 Feb 2020 16:58:22.000,189.651,7.730,1604.399305
3 Feb 2020 16:58:23.000,189.512,7.812,1598.551081
3 Feb 2020 16:58:24.000,189.371,7.894,1592.712773
3 Feb 2020 16:58:25.000,189.230,7.976,1586.884499
3 Feb 2020 16:58:26.000,189.087,8.059,1581.066375
3 Feb 2020 16:58:27.000,188.944,8.142,1575.258523
3 Feb 2020 16:58:28.000,188.799,8.226,1569.461062
3 Feb 2020 16:58:29.000,188.653,8.309,1563.674117
3 Feb 2020 16:58:30.000,188.506,8.393,1557.897812
3 Feb 2020 16:58:31.000,188.357,8.477,1552.132272
3 Feb 2020 16:58:32.000,188.208,8.562,1546.377625
3 Feb 2020 16:58:33.000,188.057,8.647,1540.634000
3 Feb 2020 16:58:34.000,187.905,8.732,1534.901529
3 Feb 2020 16:58:35.000,187.752,8.817,1529.180344
3 Feb 2020 16:58:36.000,187.598,8.903,1523.470580
3 Feb 2020 16:58:37.000,187.442,8.989,1517.772372
3 Feb 2020 16:58:38.000,187.285,9.075,1512.085858
3 Feb 2020 16:58:39.000,187.127,9.162,1506.411178
3 Feb 2020 16:58:40.000,186.967,9.248,1500.748473
3 Feb 2020 16:58:41.000,186.807,9.336,1495.097887
3 Feb 2020 16:58:42.000,186.645,9.423,1489.459565
3 Feb 2020 16:58:43.000,186.481,9.511,1483.833652
3 Feb 2020 16:58:44.000,186.317,9.599,1478.220299
3 Feb 2020 16:58:45.000,186.150,9.687,1472.619655
3 Feb 2020 16:58:46.000,185.983,9.776,1467.031874
3 Feb 2020 16:58:47.000,185.814,9.865,1461.457110
3 Feb 2020 16:58:48.000,185.644,9.954,1455.895519
3 Feb 2020 16:58:49.000,185.472,10.044,1450.347261
3 Feb 2020 16:58:50.000,185.299,10.134,1444.812495
3 Feb 2020 16:58:51.000,185.125,10.224,1439.291384
3 Feb 2020 16:58:52.000,184.949,10.314,1433.784093
3 Feb 2020 16:58:53.000,184.771,10.405,1428.290789
3 Feb 2020 16:58:54.000,184.592,10.496,1422.811641
3 Feb 2020 16:58:55.000,184.412,10.587,1417.346820
3 Feb 2020 16:58:56.000,184.230,10.679,1411.896498
3 Feb 2020 16:58:57.000,184.046,10.771,1406.460853
3 Feb 2020 16:58:58.000,183.861,10.863,1401.040060
3 Feb 2020 16:58:59.000,183.675,10.956,1395.634300
3 Feb 2020 16:59:00.000,183.487,11.049,1390.243756
3 Feb 2020 16:59:01.000,183.297,11.142,1384.868612
3 Feb 2020 16:59:02.000,183.105,11.235,1379.509054
3 Feb 2020 16:59:03.000,182.912,11.329,1374.165272
3 Feb 2020 16:59:04.000,182.718,11.423,1368.837457
3 Feb 2020 16:59:05.000,182.521,11.517,1363.525804
3 Feb 2020 16:59:06.000,182.323,11.612,1358.230507
3 Feb 2020 16:59:07.000,182.124,11.707,1352.951767
3 Feb 2020 16:59:08.000,181.922,11.802,1347.689785
3 Feb 2020 16:59:09.000,181.719,11.897,1342.444764
3 Feb 2020 16:59:10.000,181.514,11.993,1337.216910
3 Feb 2020 16:59:11.000,181.307,12.089,1332.006432
3 Feb 2020 16:59:12.000,181.099,12.185,1326.813542
3 Feb 2020 16:59:13.000,180.888,12.282,1321.638454
3 Feb 2020 16:59:14.000,180.676,12.378,1316.481383
3 Feb 2020 16:59:15.000,180.462,12.475,1311.342549
3 Feb 2020 16:59:16.000,180.247,12.573,1306.222174
3 Feb 2020 16:59:17.000,180.029,12.670,1301.120483
3 Feb 2020 16:59:18.000,179.809,12.768,1296.037701
3 Feb 2020 16:59:19.000,179.588,12.866,1290.974060
3 Feb 2020 16:59:20.000,179.364,12.965,1285.929792
3 Feb 2020 16:59:21.000,179.139,13.063,1280.905131
3 Feb 2020 16:59:22.000,178.912,13.162,1275.900317
3 Feb 2020 16:59:23.000,178.682,13.261,1270.915589
3 Feb 2020 16:59:24.000,178.451,13.360,1265.951192
3 Feb 2020 16:59:25.000,178.218,13.460,1261.007372
3 Feb 2020 16:59:26.000,177.982,13.560,1256.084378
3 Feb 2020 16:59:27.000,177.745,13.660,1251.182463
3 Feb 2020 16:59:28.000,177.505,13.760,1246.301881
3 Feb 2020 16:59:29.000,177.264,13.860,1241.442889
3 Feb 2020 16:59:30.000,177.020,13.961,1236.605750
3 Feb 2020 16:59:31.000,176.774,14.062,1231.790726
3 Feb 2020 16:59:32.000,176.526,14.163,1226.998084
3 Feb 2020 16:59:33.000,176.275,14.264,1222.228094
3 Feb 2020 16:59:34.000,176.023,14.365,1217.481027
3 Feb 2020 16:59:35.000,175.768,14.467,1212.757159
3 Feb 2020 16:59:36.000,175.511,14.568,1208.056768
3 Feb 2020 16:59:37.000,175.252,14.670,1203.380136
3 Feb 2020 16:59:38.000,174.991,14.772,1198.727546
3 Feb 2020 16:59:39.000,174.727,14.874,1194.099285
3 Feb 2020 16:59:40.000,174.461,14.977,1189.495644
3 Feb 2020 16:59:41.000,174.192,15.079,1184.916915
3 Feb 2020 16:59:42.000,173.922,15.181,1180.363394
3 Feb 2020 16:59:43.000,173.649,15.284,1175.835379
3 Feb 2020 16:59:44.000,173.373,15.387,1171.333173
3 Feb 2020 16:59:45.000,173.095,15.489,1166.857079
3 Feb 2020 16:59:46.000,172.815,15.592,1162.407406
3 Feb 2020 16:59:47.000,172.532,15.695,1157.984463
3 Feb 2020 16:59:48.000,172.247,15.798,1153.588564
3 Feb 2020 16:59:49.000,171.959,15.901,1149.220024
3 Feb 2020 16:59:50.000,171.668,16.004,1144.879163
3 Feb 2020 16:59:51.000,171.376,16.107,1140.566303
3 Feb 2020 16:59:52.000,171.080,16.210,1136.281766
3 Feb 2020 16:59:53.000,170.782,16.313,1132.025882
3 Feb 2020 16:59:54.000,170.482,16.416,1127.798979
3 Feb 2020 16:59:55.000,170.179,16.519,1123.601390
3 Feb 2020 16:59:56.000,169.873,16.622,1119.433450
3 Feb 2020 16:59:57.000,169.565,16.725,1115.295497
3 Feb 2020 16:59:58.000,169.254,16.828,1111.187873
3 Feb 2020 16:59:59.000,168.940,16.930,1107.110918
3 Feb 2020 17:00:00.000,168.624,17.033,1103.064979
3 Feb 2020 17:00:01.000,168.305,17.135,1099.050404
3 Feb 2020 17:00:02.000,167.984,17.238,1095.067542
3 Feb 2020 17:00:03.000,167.659,17.340,1091.116747
3 Feb 2020 17:00:04.000,167.332,17.442,1087.198373
3 Feb 2020 17:00:05.000,167.002,17.543,1083.312776
3 Feb 2020 17:00:06.000,166.670,17.645,1079.460316
3 Feb 2020 17:00:07.000,166.334,17.746,1075.641355
3 Feb 2020 17:00:08.000,165.996,17.847,1071.856254
3 Feb 2020 17:00:09.000,165.655,17.948,1068.105379
3 Feb 2020 17:00:10.000,165.312,18.048,1064.389097
3 Feb 2020 17:00:11.000,164.965,18.149,1060.707777
3 Feb 2020 17:00:12.000,164.616,18.248,1057.061787
3 Feb 2020 17:00:13.000,164.264,18.348,1053.451500
3 Feb 2020 17:00:14.000,163.909,18.447,1049.877289
3 Feb 2020 17:00:15.000,163.551,18.546,1046.339529
3 Feb 2020 17:00:16.000,163.190,18.644,1042.838595
3 Feb 2020 17:00:17.000,162.827,18.742,1039.374864
3 Feb 2020 17:00:18.000,162.460,18.839,1035.948712
3 Feb 2020 17:00:19.000,162.091,18.936,1032.560520
3 Feb 2020 17:00:20.000,161.719,19.033,1029.210667
3 Feb 2020 17:00:21.000,161.344,19.129,1025.899532
3 Feb 2020 17:00:22.000,160.966,19.224,1022.627496
3 Feb 2020 17:00:23.000,160.585,19.319,1019.394940
3 Feb 2020 17:00:24.000,160.202,19.413,1016.202247
3 Feb 2020 17:00:25.000,159.815,19.506,1013.049794
3 Feb 2020 17:00:26.000,159.426,19.599,1009.937964
3 Feb 2020 17:00:27.000,159.034,19.691,1006.867139
3 Feb 2020 17:00:28.000,158.639,19.782,1003.837697
3 Feb 2020 17:00:29.000,158.241,19.873,1000.850020
3 Feb 2020 17:00:30.000,157.840,19.963,997.904487
3 Feb 2020 17:00:31.000,157.437,20.052,995.001475
3 Feb 2020 17:00:32.000,157.030,20.140,992.141362
3 Feb 2020 17:00:33.000,156.621,20.228,989.324523
3 Feb 2020 17:00:34.000,156.209,20.314,986.551334
3 Feb 2020 17:00:35.000,155.795,20.400,983.822166
3 Feb 2020 17:00:36.000,155.377,20.484,981.137392
3 Feb 2020 17:00:37.000,154.957,20.568,978.497381
3 Feb 2020 17:00:38.000,154.534,20.651,975.902499
3 Feb 2020 17:00:39.000,154.108,20.732,973.353110
3 Feb 2020 17:00:40.000,153.680,20.813,970.849577
3 Feb 2020 17:00:41.000,153.249,20.892,968.392259
3 Feb 2020 17:00:42.000,152.815,20.971,965.981510
3 Feb 2020 17:00:43.000,152.379,21.048,963.617686
3 Feb 2020 17:00:44.000,151.940,21.124,961.301135
3 Feb 2020 17:00:45.000,151.499,21.199,959.032203
3 Feb 2020 17:00:46.000,151.055,21.272,956.811232
3 Feb 2020 17:00:47.000,150.608,21.345,954.638557
3 Feb 2020 17:00:48.000,150.159,21.416,952.514517
3 Feb 2020 17:00:49.000,149.708,21.485,950.439438
3 Feb 2020 17:00:50.000,149.254,21.554,948.413642
3 Feb 2020 17:00:51.000,148.798,21.621,946.437454
3 Feb 2020 17:00:52.000,148.340,21.686,944.511184
3 Feb 2020 17:00:53.000,147.879,21.750,942.635141
3 Feb 2020 17:00:54.000,147.416,21.813,940.809630
3 Feb 2020 17:00:55.000,146.951,21.874,939.034948
3 Feb 2020 17:00:56.000,146.484,21.934,937.311384
3 Feb 2020 17:00:57.000,146.014,21.992,935.639227
3 Feb 2020 17:00:58.000,145.543,22.048,934.018751
3 Feb 2020 17:00:59.000,145.070,22.103,932.450232
3 Feb 2020 17:01:00.000,144.594,22.156,930.933931
3 Feb 2020 17:01:01.000,144.117,22.208,929.470110
3 Feb 2020 17:01:02.000,143.638,22.258,928.059015
3 Feb 2020 17:01:03.000,143.157,22.306,926.700895
3 Feb 2020 17:01:04.000,142.675,22.352,925.395979
3 Feb 2020 17:01:05.000,142.191,22.397,924.144499
3 Feb 2020 17:01:06.000,141.705,22.440,922.946671
3 Feb 2020 17:01:07.000,141.218,22.481,921.802707
3 Feb 2020 17:01:08.000,140.729,22.520,920.712813
3 Feb 2020 17:01:09.000,140.239,22.557,919.677178
3 Feb 2020 17:01:10.000,139.747,22.593,918.695989
3 Feb 2020 17:01:11.000,139.254,22.627,917.769426
3 Feb 2020 17:01:12.000,138.760,22.658,916.897649
3 Feb 2020 17:01:13.000,138.265,22.688,916.080821
3 Feb 2020 17:01:14.000,137.769,22.716,915.319092
3 Feb 2020 17:01:15.000,137.272,22.742,914.612595
3 Feb 2020 17:01:16.000,136.773,22.766,913.961463
3 Feb 2020 17:01:17.000,136.274,22.788,913.365816
3 Feb 2020 17:01:18.000,135.775,22.808,912.825763
3 Feb 2020 17:01:19.000,135.274,22.826,912.341407
3 Feb 2020 17:01:20.000,134.773,22.843,911.912832
3 Feb 2020 17:01:21.000,134.271,22.857,911.540120
3 Feb 2020 17:01:22.000,133.769,22.869,911.223342
3 Feb 2020 17:01:23.000,133.267,22.879,910.962555
3 Feb 2020 17:01:24.000,132.764,22.887,910.757810
3 Feb 2020 17:01:25.000,132.261,22.893,910.609144
3 Feb 2020 17:01:26.000,131.757,22.897,910.516586
3 Feb 2020 17:01:27.000,131.254,22.899,910.480153
3 Feb 2020 17:01:28.000,130.751,22.898,910.499853
3 Feb 2020 17:01:29.000,130.247,22.896,910.575683
3 Feb 2020 17:01:30.000,129.744,22.892,910.707628
3 Feb 2020 17:01:31.000,129.241,22.886,910.895664
3 Feb 2020 17:01:32.000,128.738,22.878,911.139758
3 Feb 2020 17:01:33.000,128.236,22.867,911.439864
3 Feb 2020 17:01:34.000,127.734,22.855,911.795928
3 Feb 2020 17:01:35.000,127.233,22.841,912.207882
3 Feb 2020 17:01:36.000,126.732,22.824,912.675653
3 Feb 2020 17:01:37.000,126.232,22.806,913.199154
3 Feb 2020 17:01:38.000,125.733,22.786,913.778286
3 Feb 2020 17:01:39.000,125.234,22.763,914.412949
3 Feb 2020 17:01:40.000,124.737,22.739,915.103024
3 Feb 2020 17:01:41.000,124.240,22.713,915.848386
3 Feb 2020 17:01:42.000,123.744,22.685,916.648896
3 Feb 2020 17:01:43.000,123.250,22.654,917.504416
3 Feb 2020 17:01:44.000,122.757,22.622,918.414788
3 Feb 2020 17:01:45.000,122.264,22.589,919.379849
3 Feb 2020 17:01:46.000,121.774,22.553,920.399422
3 Feb 2020 17:01:47.000,121.284,22.515,921.473333
3 Feb 2020 17:01:48.000,120.796,22.476,922.601384
3 Feb 2020 17:01:49.000,120.310,22.435,923.783382
3 Feb 2020 17:01:50.000,119.825,22.391,925.019118
3 Feb 2020 17:01:51.000,119.342,22.347,926.308370
3 Feb 2020 17:01:52.000,118.860,22.300,927.650922
3 Feb 2020 17:01:53.000,118.381,22.252,929.046535
3 Feb 2020 17:01:54.000,117.903,22.202,930.494975
3 Feb 2020 17:01:55.000,117.427,22.150,931.995988
3 Feb 2020 17:01:56.000,116.952,22.097,933.549326
3 Feb 2020 17:01:57.000,116.480,22.042,935.154720
3 Feb 2020 17:01:58.000,116.010,21.985,936.811907
3 Feb 2020 17:01:59.000,115.542,21.927,938.520606
3 Feb 2020 17:02:00.000,115.076,21.868,940.280540
3 Feb 2020 17:02:01.000,114.612,21.807,942.091413
3 Feb 2020 17:02:02.000,114.151,21.744,943.952935
3 Feb 2020 17:02:03.000,113.691,21.680,945.864808
3 Feb 2020 17:02:04.000,113.234,21.614,947.826718
3 Feb 2020 17:02:05.000,112.780,21.547,949.838360
3 Feb 2020 17:02:06.000,112.327,21.479,951.899410
3 Feb 2020 17:02:07.000,111.877,21.409,954.009550
3 Feb 2020 17:02:08.000,111.430,21.338,956.168452
3 Feb 2020 17:02:09.000,110.985,21.266,958.375787
3 Feb 2020 17:02:10.000,110.543,21.193,960.631214
3 Feb 2020 17:02:11.000,110.103,21.118,962.934395
3 Feb 2020 17:02:12.000,109.665,21.042,965.284987
3 Feb 2020 17:02:13.000,109.231,20.965,967.682643
3 Feb 2020 17:02:14.000,108.799,20.886,970.127007
3 Feb 2020 17:02:15.000,108.369,20.807,972.617728
3 Feb 2020 17:02:16.000,107.943,20.727,975.154446
3 Feb 2020 17:02:17.000,107.519,20.645,977.736803
3 Feb 2020 17:02:18.000,107.097,20.563,980.364433
3 Feb 2020 17:02:19.000,106.679,20.479,983.036976
3 Feb 2020 17:02:20.000,106.263,20.395,985.754056
3 Feb 2020 17:02:21.000,105.850,20.309,988.515306
3 Feb 2020 17:02:22.000,105.440,20.223,991.320355
3 Feb 2020 17:02:23.000,105.032,20.136,994.168829
3 Feb 2020 17:02:24.000,104.628,20.048,997.060352
3 Feb 2020 17:02:25.000,104.226,19.959,999.994548
3 Feb 2020 17:02:26.000,103.827,19.869,1002.971040
3 Feb 2020 17:02:27.000,103.431,19.779,1005.989449
3 Feb 2020 17:02:28.000,103.038,19.688,1009.049395
3 Feb 2020 17:02:29.000,102.647,19.596,1012.150499
3 Feb 2020 17:02:30.000,102.260,19.503,1015.292380
3 Feb 2020 17:02:31.000,101.875,19.410,1018.474657
3 Feb 2020 17:02:32.000,101.493,19.316,1021.696949
3 Feb 2020 17:02:33.000,101.114,19.222,1024.958877
3 Feb 2020 17:02:34.000,100.738,19.127,1028.260058
3 Feb 2020 17:02:35.000,100.365,19.031,1031.600113
3 Feb 2020 17:02:36.000,99.995,18.935,1034.978657
3 Feb 2020 17:02:37.000,99.627,18.839,1038.395320
3 Feb 2020 17:02:38.000,99.263,18.742,1041.849718
3 Feb 2020 17:02:39.000,98.901,18.644,1045.341473
3 Feb 2020 17:02:40.000,98.542,18.546,1048.870210
3 Feb 2020 17:02:41.000,98.186,18.448,1052.435551
3 Feb 2020 17:02:42.000,97.833,18.349,1056.037119
3 Feb 2020 17:02:43.000,97.483,18.250,1059.674547
3 Feb 2020 17:02:44.000,97.135,18.151,1063.347461
3 Feb 2020 17:02:45.000,96.790,18.051,1067.055489
3 Feb 2020 17:02:46.000,96.448,17.951,1070.798263
3 Feb 2020 17:02:47.000,96.109,17.850,1074.575412
3 Feb 2020 17:02:48.000,95.773,17.750,1078.386578
3 Feb 2020 17:02:49.000,95.439,17.649,1082.231393
3 Feb 2020 17:02:50.000,95.109,17.548,1086.109493
3 Feb 2020 17:02:51.000,94.781,17.446,1090.020525
3 Feb 2020 17:02:52.000,94.455,17.345,1093.964127
3 Feb 2020 17:02:53.000,94.133,17.243,1097.939943
3 Feb 2020 17:02:54.000,93.813,17.141,1101.947624
3 Feb 2020 17:02:55.000,93.496,17.039,1105.986817
3 Feb 2020 17:02:56.000,93.181,16.937,1110.057170
3 Feb 2020 17:02:57.000,92.869,16.835,1114.158343
3 Feb 2020 17:02:58.000,92.560,16.733,1118.289991
3 Feb 2020 17:02:59.000,92.254,16.630,1122.451767
3 Feb 2020 17:03:00.000,91.950,16.528,1126.643341
3 Feb 2020 17:03:01.000,91.649,16.425,1130.864374
3 Feb 2020 17:03:02.000,91.350,16.323,1135.114527
3 Feb 2020 17:03:03.000,91.054,16.220,1139.393478
3 Feb 2020 17:03:04.000,90.760,16.118,1143.700892
3 Feb 2020 17:03:05.000,90.469,16.015,1148.036450
3 Feb 2020 17:03:06.000,90.180,15.913,1152.399823
3 Feb 2020 17:03:07.000,89.894,15.810,1156.790699
3 Feb 2020 17:03:08.000,89.611,15.708,1161.208753
3 Feb 2020 17:03:09.000,89.330,15.605,1165.653679
3 Feb 2020 17:03:10.000,89.051,15.503,1170.125158
3 Feb 2020 17:03:11.000,88.775,15.401,1174.622889
3 Feb 2020 17:03:12.000,88.501,15.298,1179.146559
3 Feb 2020 17:03:13.000,88.230,15.196,1183.695874
3 Feb 2020 17:03:14.000,87.960,15.094,1188.270526
3 Feb 2020 17:03:15.000,87.694,14.992,1192.870226
3 Feb 2020 17:03:16.000,87.429,14.891,1197.494674
3 Feb 2020 17:03:17.000,87.167,14.789,1202.143584
3 Feb 2020 17:03:18.000,86.907,14.688,1206.816663
3 Feb 2020 17:03:19.000,86.650,14.586,1211.513632
3 Feb 2020 17:03:20.000,86.394,14.485,1216.234203
3 Feb 2020 17:03:21.000,86.141,14.384,1220.978103
3 Feb 2020 17:03:22.000,85.891,14.283,1225.745049
3 Feb 2020 17:03:23.000,85.642,14.182,1230.534771
3 Feb 2020 17:03:24.000,85.395,14.082,1235.347003
3 Feb 2020 17:03:25.000,85.151,13.982,1240.181469
3 Feb 2020 17:03:26.000,84.909,13.881,1245.037914
3 Feb 2020 17:03:27.000,84.669,13.782,1249.916067
3 Feb 2020 17:03:28.000,84.431,13.682,1254.815674
3 Feb 2020 17:03:29.000,84.195,13.582,1259.736483
3 Feb 2020 17:03:30.000,83.961,13.483,1264.678233
3 Feb 2020 17:03:31.000,83.729,13.384,1269.640677
3 Feb 2020 17:03:32.000,83.500,13.285,1274.623572
3 Feb 2020 17:03:33.000,83.272,13.186,1279.626667
3 Feb 2020 17:03:34.000,83.046,13.088,1284.649723
3 Feb 2020 17:03:35.000,82.822,12.990,1289.692504
3 Feb 2020 17:03:36.000,82.600,12.892,1294.754768
3 Feb 2020 17:03:37.000,82.380,12.794,1299.836285
3 Feb 2020 17:03:38.000,82.162,12.697,1304.936827
3 Feb 2020 17:03:39.000,81.946,12.600,1310.056160
3 Feb 2020 17:03:40.000,81.732,12.503,1315.194061
3 Feb 2020 17:03:41.000,81.519,12.406,1320.350308
3 Feb 2020 17:03:42.000,81.309,12.310,1325.524685
3 Feb 2020 17:03:43.000,81.100,12.214,1330.716967
3 Feb 2020 17:03:44.000,80.893,12.118,1335.926943
3 Feb 2020 17:03:45.000,80.688,12.023,1341.154405
3 Feb 2020 17:03:46.000,80.484,11.927,1346.399136
3 Feb 2020 17:03:47.000,80.282,11.832,1351.660932
3 Feb 2020 17:03:48.000,80.082,11.738,1356.939588
3 Feb 2020 17:03:49.000,79.884,11.643,1362.234907
3 Feb 2020 17:03:50.000,79.688,11.549,1367.546682
3 Feb 2020 17:03:51.000,79.493,11.455,1372.874718
3 Feb 2020 17:03:52.000,79.299,11.362,1378.218823
3 Feb 2020 17:03:53.000,79.108,11.268,1383.578802
3 Feb 2020 17:03:54.000,78.918,11.175,1388.954470
3 Feb 2020 17:03:55.000,78.729,11.083,1394.345632
3 Feb 2020 17:03:56.000,78.543,10.990,1399.752107
3 Feb 2020 17:03:57.000,78.358,10.898,1405.173711
3 Feb 2020 17:03:58.000,78.174,10.806,1410.610264
3 Feb 2020 17:03:59.000,77.992,10.715,1416.061591
3 Feb 2020 17:04:00.000,77.811,10.624,1421.527509
3 Feb 2020 17:04:01.000,77.632,10.533,1427.007847
3 Feb 2020 17:04:02.000,77.455,10.442,1432.502434
3 Feb 2020 17:04:03.000,77.279,10.352,1438.011099
3 Feb 2020 17:04:04.000,77.104,10.262,1443.533677
3 Feb 2020 17:04:05.000,76.931,10.172,1449.070003
3 Feb 2020 17:04:06.000,76.759,10.082,1454.619909
3 Feb 2020 17:04:07.000,76.589,9.993,1460.183237
3 Feb 2020 17:04:08.000,76.420,9.904,1465.759827
3 Feb 2020 17:04:09.000,76.253,9.816,1471.349522
3 Feb 2020 17:04:10.000,76.086,9.727,1476.952167
3 Feb 2020 17:04:11.000,75.922,9.640,1482.567609
3 Feb 2020 17:04:12.000,75.758,9.552,1488.195699
3 Feb 2020 17:04:13.000,75.596,9.464,1493.836282
3 Feb 2020 17:04:14.000,75.436,9.377,1499.489214
3 Feb 2020 17:04:15.000,75.276,9.291,1505.154348
3 Feb 2020 17:04:16.000,75.118,9.204,1510.831542
3 Feb 2020 17:04:17.000,74.961,9.118,1516.520653
3 Feb 2020 17:04:18.000,74.806,9.032,1522.221540
3 Feb 2020 17:04:19.000,74.651,8.946,1527.934067
3 Feb 2020 17:04:20.000,74.498,8.861,1533.658095
3 Feb 2020 17:04:21.000,74.346,8.776,1539.393494
3 Feb 2020 17:04:22.000,74.196,8.691,1545.140123
3 Feb 2020 17:04:23.000,74.046,8.607,1550.897855
3 Feb 2020 17:04:24.000,73.898,8.523,1556.666559
3 Feb 2020 17:04:25.000,73.751,8.439,1562.446108
3 Feb 2020 17:04:26.000,73.605,8.355,1568.236375
3 Feb 2020 17:04:27.000,73.461,8.272,1574.037234
3 Feb 2020 17:04:28.000,73.317,8.189,1579.848563
3 Feb 2020 17:04:29.000,73.175,8.106,1585.670240
3 Feb 2020 17:04:30.000,73.033,8.024,1591.502145
3 Feb 2020 17:04:31.000,72.893,7.941,1597.344158
3 Feb 2020 17:04:32.000,72.754,7.860,1603.196162
3 Feb 2020 17:04:33.000,72.616,7.778,1609.058042
3 Feb 2020 17:04:34.000,72.479,7.697,1614.929684
3 Feb 2020 17:04:35.000,72.343,7.616,1620.810974
3 Feb 2020 17:04:36.000,72.209,7.535,1626.701802
3 Feb 2020 17:04:37.000,72.075,7.454,1632.602056
3 Feb 2020 17:04:38.000,71.942,7.374,1638.511629
3 Feb 2020 17:04:39.000,71.810,7.294,1644.430416
3 Feb 2020 17:04:40.000,71.680,7.214,1650.358306
3 Feb 2020 17:04:41.000,71.550,7.135,1656.295195
3 Feb 2020 17:04:42.000,71.421,7.056,1662.240983
3 Feb 2020 17:04:43.000,71.294,6.977,1668.195565
3 Feb 2020 17:04:44.000,71.167,6.899,1674.158842
3 Feb 2020 17:04:45.000,71.041,6.820,1680.130714
3 Feb 2020 17:04:46.000,70.916,6.742,1686.111083
3 Feb 2020 17:04:47.000,70.792,6.664,1692.099851
3 Feb 2020 17:04:48.000,70.669,6.587,1698.096924
3 Feb 2020 17:04:49.000,70.547,6.510,1704.102206
3 Feb 2020 17:04:50.000,70.426,6.433,1710.115605
3 Feb 2020 17:04:51.000,70.306,6.356,1716.137027
3 Feb 2020 17:04:52.000,70.187,6.279,1722.166381
3 Feb 2020 17:04:53.000,70.068,6.203,1728.203578
3 Feb 2020 17:04:54.000,69.951,6.127,1734.248529
3 Feb 2020 17:04:55.000,69.834,6.051,1740.301146
3 Feb 2020 17:04:56.000,69.718,5.976,1746.361342
3 Feb 2020 17:04:57.000,69.603,5.901,1752.429031
3 Feb 2020 17:04:58.000,69.489,5.826,1758.504126
3 Feb 2020 17:04:59.000,69.376,5.751,1764.586550
3 Feb 2020 17:05:00.000,69.264,5.676,1770.676217
3 Feb 2020 17:05:01.000,69.152,5.602,1776.773045
3 Feb 2020 17:05:02.000,69.041,5.528,1782.876954
3 Feb 2020 17:05:03.000,68.931,5.454,1788.987864
3 Feb 2020 17:05:04.000,68.822,5.381,1795.105696
3 Feb 2020 17:05:05.000,68.714,5.308,1801.230374
3 Feb 2020 17:05:06.000,68.606,5.234,1807.361820
3 Feb 2020 17:05:07.000,68.499,5.162,1813.499958
3 Feb 2020 17:05:08.000,68.393,5.089,1819.644714
3 Feb 2020 17:05:09.000,68.288,5.017,1825.796014
3 Feb 2020 17:05:10.000,68.183,4.945,1831.953785
3 Feb 2020 17:05:11.000,68.079,4.873,1838.117954
3 Feb 2020 17:05:12.000,67.976,4.801,1844.288451
3 Feb 2020 17:05:13.000,67.874,4.730,1850.465204
3 Feb 2020 17:05:14.000,67.772,4.658,1856.648144
3 Feb 2020 17:05:15.000,67.671,4.587,1862.837203
3 Feb 2020 17:05:16.000,67.571,4.517,1869.032312
3 Feb 2020 17:05:17.000,67.471,4.446,1875.233404
3 Feb 2020 17:05:18.000,67.373,4.376,1881.440413
3 Feb 2020 17:05:19.000,67.274,4.306,1887.653270
3 Feb 2020 17:05:20.000,67.177,4.236,1893.871917
3 Feb 2020 17:05:21.000,67.080,4.166,1900.096286
3 Feb 2020 17:05:22.000,66.984,4.097,1906.326314
3 Feb 2020 17:05:23.000,66.889,4.028,1912.561939
3 Feb 2020 17:05:24.000,66.794,3.959,1918.803099
3 Feb 2020 17:05:25.000,66.700,3.890,1925.049732
3 Feb 2020 17:05:26.000,66.606,3.821,1931.301779
3 Feb 2020 17:05:27.000,66.513,3.753,1937.559179
3 Feb 2020 17:05:28.000,66.421,3.685,1943.821874
3 Feb 2020 17:05:29.000,66.329,3.617,1950.089806
3 Feb 2020 17:05:30.000,66.238,3.549,1956.362916
3 Feb 2020 17:05:31.000,66.148,3.481,1962.641144
3 Feb 2020 17:05:32.000,66.058,3.414,1968.924442
3 Feb 2020 17:05:33.000,65.969,3.347,1975.212749
3 Feb 2020 17:05:34.000,65.881,3.280,1981.506011
3 Feb 2020 17:05:35.000,65.793,3.213,1987.804174
3 Feb 2020 17:05:36.000,65.705,3.146,1994.107183
3 Feb 2020 17:05:37.000,65.618,3.080,2000.414985
3 Feb 2020 17:05:38.000,65.532,3.014,2006.727529
3 Feb 2020 17:05:39.000,65.447,2.948,2013.044762
3 Feb 2020 17:05:40.000,65.361,2.882,2019.366632
3 Feb 2020 17:05:41.000,65.277,2.816,2025.693086
3 Feb 2020 17:05:42.000,65.193,2.751,2032.024079
3 Feb 2020 17:05:43.000,65.110,2.686,2038.359560
3 Feb 2020 17:05:44.000,65.027,2.620,2044.699479
3 Feb 2020 17:05:45.000,64.944,2.556,2051.043787
3 Feb 2020 17:05:46.000,64.862,2.491,2057.392436
3 Feb 2020 17:05:47.000,64.781,2.426,2063.745380
3 Feb 2020 17:05:48.000,64.700,2.362,2070.102570
3 Feb 2020 17:05:49.000,64.620,2.298,2076.463957
3 Feb 2020 17:05:50.000,64.540,2.234,2082.829503
3 Feb 2020 17:05:51.000,64.461,2.170,2089.199157
3 Feb 2020 17:05:52.000,64.383,2.107,2095.572877
3 Feb 2020 17:05:53.000,64.304,2.043,2101.950615
3 Feb 2020 17:05:54.000,64.227,1.980,2108.332330
3 Feb 2020 17:05:55.000,64.149,1.917,2114.717978
3 Feb 2020 17:05:56.000,64.073,1.854,2121.107515
3 Feb 2020 17:05:57.000,63.996,1.791,2127.500896
3 Feb 2020 17:05:58.000,63.921,1.728,2133.898086
3 Feb 2020 17:05:59.000,63.845,1.666,2140.299038
3 Feb 2020 17:06:00.000,63.771,1.604,2146.703714
3 Feb 2020 17:06:01.000,63.696,1.542,2153.112070
3 Feb 2020 17:06:02.000,63.622,1.480,2159.524069
3 Feb 2020 17:06:03.000,63.549,1.418,2165.939669
3 Feb 2020 17:06:04.000,63.476,1.356,2172.358831
3 Feb 2020 17:06:05.000,63.404,1.295,2178.781512
3 Feb 2020 17:06:06.000,63.331,1.234,2185.207682
3 Feb 2020 17:06:07.000,63.260,1.172,2191.637299
3 Feb 2020 17:06:08.000,63.189,1.111,2198.070324
3 Feb 2020 17:06:09.000,63.118,1.051,2204.506720
3 Feb 2020 17:06:10.000,63.048,0.990,2210.946451
3 Feb 2020 17:06:11.000,62.978,0.929,2217.389476
3 Feb 2020 17:06:12.000,62.908,0.869,2223.835766
3 Feb 2020 17:06:13.000,62.839,0.809,2230.285282
3 Feb 2020 17:06:14.000,62.771,0.749,2236.737989
3 Feb 2020 17:06:15.000,62.702,0.689,2243.193851
3 Feb 2020 17:06:16.000,62.635,0.629,2249.652833
3 Feb 2020 17:06:17.000,62.567,0.570,2256.114902
3 Feb 2020 17:06:18.000,62.500,0.510,2262.580019
3 Feb 2020 17:06:19.000,62.434,0.451,2269.048159
3 Feb 2020 17:06:20.000,62.368,0.392,2275.519283
3 Feb 2020 17:06:21.000,62.302,0.333,2281.993361
3 Feb 2020 17:06:22.000,62.236,0.274,2288.470357
3 Feb 2020 17:06:23.000,62.171,0.215,2294.950242
3 Feb 2020 17:06:24.000,62.107,0.156,2301.432978
3 Feb 2020 17:06:25.000,62.043,0.098,2307.918542
3 Feb 2020 17:06:26.000,61.979,0.040,2314.406898
3 Feb 2020 17:06:27.000,61.915,-0.019,2320.898015
3 Feb 2020 17:06:28.000,61.852,-0.077,2327.391863
3 Feb 2020 17:06:28.819,61.801,-0.124,2332.713305
3 Feb 2020 18:32:34.831,250.419,-0.124,2325.506153
3 Feb 2020 18:32:35.000,250.428,-0.114,2324.385350
3 Feb 2020 18:32:36.000,250.479,-0.055,2317.745895
3 Feb 2020 18:32:37.000,250.532,0.005,2311.107994
3 Feb 2020 18:32:38.000,250.584,0.065,2304.471669
3 Feb 2020 18:32:39.000,250.637,0.125,2297.836941
3 Feb 2020 18:32:40.000,250.690,0.185,2291.203827
3 Feb 2020 18:32:41.000,250.743,0.246,2284.572357
3 Feb 2020 18:32:42.000,250.796,0.306,2277.942549
3 Feb 2020 18:32:43.000,250.850,0.367,2271.314425
3 Feb 2020 18:32:44.000,250.904,0.428,2264.688004
3 Feb 2020 18:32:45.000,250.959,0.489,2258.063316
3 Feb 2020 18:32:46.000,251.014,0.550,2251.440380
3 Feb 2020 18:32:47.000,251.069,0.611,2244.819219
3 Feb 2020 18:32:48.000,251.124,0.673,2238.199856
3 Feb 2020 18:32:49.000,251.180,0.735,2231.582312
3 Feb 2020 18:32:50.000,251.236,0.796,2224.966618
3 Feb 2020 18:32:51.000,251.292,0.859,2218.352794
3 Feb 2020 18:32:52.000,251.349,0.921,2211.740865
3 Feb 2020 18:32:53.000,251.406,0.983,2205.130855
3 Feb 2020 18:32:54.000,251.464,1.046,2198.522786
3 Feb 2020 18:32:55.000,251.521,1.109,2191.916689
3 Feb 2020 18:32:56.000,251.579,1.171,2185.312587
3 Feb 2020 18:32:57.000,251.638,1.235,2178.710506
3 Feb 2020 18:32:58.000,251.696,1.298,2172.110471
3 Feb 2020 18:32:59.000,251.756,1.361,2165.512505
3 Feb 2020 18:33:00.000,251.815,1.425,2158.916642
3 Feb 2020 18:33:01.000,251.875,1.489,2152.322906
3 Feb 2020 18:33:02.000,251.935,1.553,2145.731323
3 Feb 2020 18:33:03.000,251.995,1.617,2139.141921
3 Feb 2020 18:33:04.000,252.056,1.682,2132.554724
3 Feb 2020 18:33:05.000,252.117,1.747,2125.969767
3 Feb 2020 18:33:06.000,252.179,1.811,2119.387076
3 Feb 2020 18:33:07.000,252.241,1.876,2112.806678
3 Feb 2020 18:33:08.000,252.303,1.942,2106.228604
3 Feb 2020 18:33:09.000,252.366,2.007,2099.652878
3 Feb 2020 18:33:10.000,252.429,2.073,2093.079538
3 Feb 2020 18:33:11.000,252.493,2.139,2086.508610
3 Feb 2020 18:33:12.000,252.557,2.205,2079.940125
3 Feb 2020 18:33:13.000,252.621,2.271,2073.374113
3 Feb 2020 18:33:14.000,252.686,2.338,2066.810602
3 Feb 2020 18:33:15.000,252.751,2.404,2060.249630
3 Feb 2020 18:33:16.000,252.816,2.471,2053.691226
3 Feb 2020 18:33:17.000,252.882,2.538,2047.135422
3 Feb 2020 18:33:18.000,252.949,2.606,2040.582251
3 Feb 2020 18:33:19.000,253.015,2.673,2034.031741
3 Feb 2020 18:33:20.000,253.083,2.741,2027.483934
3 Feb 2020 18:33:21.000,253.150,2.809,2020.938859
3 Feb 2020 18:33:22.000,253.218,2.877,2014.396551
3 Feb 2020 18:33:23.000,253.287,2.946,2007.857044
3 Feb 2020 18:33:24.000,253.356,3.015,2001.320373
3 Feb 2020 18:33:25.000,253.425,3.084,1994.786570
3 Feb 2020 18:33:26.000,253.495,3.153,1988.255678
3 Feb 2020 18:33:27.000,253.565,3.222,1981.727729
3 Feb 2020 18:33:28.000,253.636,3.292,1975.202761
3 Feb 2020 18:33:29.000,253.707,3.362,1968.680810
3 Feb 2020 18:33:30.000,253.779,3.432,1962.161914
3 Feb 2020 18:33:31.000,253.851,3.502,1955.646107
3 Feb 2020 18:33:32.000,253.923,3.573,1949.133435
3 Feb 2020 18:33:33.000,253.997,3.644,1942.623933
3 Feb 2020 18:33:34.000,254.070,3.715,1936.117641
3 Feb 2020 18:33:35.000,254.144,3.786,1929.614599
3 Feb 2020 18:33:36.000,254.219,3.858,1923.114843
3 Feb 2020 18:33:37.000,254.294,3.930,1916.618422
3 Feb 2020 18:33:38.000,254.369,4.002,1910.125373
3 Feb 2020 18:33:39.000,254.446,4.074,1903.635738
3 Feb 2020 18:33:40.000,254.522,4.147,1897.149561
3 Feb 2020 18:33:41.000,254.599,4.220,1890.666882
3 Feb 2020 18:33:42.000,254.677,4.293,1884.187748
3 Feb 2020 18:33:43.000,254.755,4.367,1877.712196
3 Feb 2020 18:33:44.000,254.834,4.440,1871.240281
3 Feb 2020 18:33:45.000,254.913,4.514,1864.772043
3 Feb 2020 18:33:46.000,254.993,4.589,1858.307527
3 Feb 2020 18:33:47.000,255.074,4.663,1851.846781
3 Feb 2020 18:33:48.000,255.155,4.738,1845.389852
3 Feb 2020 18:33:49.000,255.236,4.813,1838.936783
3 Feb 2020 18:33:50.000,255.318,4.889,1832.487629
3 Feb 2020 18:33:51.000,255.401,4.964,1826.042437
3 Feb 2020 18:33:52.000,255.484,5.040,1819.601254
3 Feb 2020 18:33:53.000,255.568,5.117,1813.164133
3 Feb 2020 18:33:54.000,255.653,5.193,1806.731122
3 Feb 2020 18:33:55.000,255.738,5.270,1800.302274
3 Feb 2020 18:33:56.000,255.823,5.347,1793.877637
3 Feb 2020 18:33:57.000,255.910,5.425,1787.457271
3 Feb 2020 18:33:58.000,255.997,5.503,1781.041227
3 Feb 2020 18:33:59.000,256.084,5.581,1774.629557
3 Feb 2020 18:34:00.000,256.172,5.659,1768.222317
3 Feb 2020 18:34:01.000,256.261,5.738,1761.819563
3 Feb 2020 18:34:02.000,256.351,5.817,1755.421351
3 Feb 2020 18:34:03.000,256.441,5.896,1749.027735
3 Feb 2020 18:34:04.000,256.532,5.976,1742.638779
3 Feb 2020 18:34:05.000,256.623,6.056,1736.254540
3 Feb 2020 18:34:06.000,256.716,6.137,1729.875075
3 Feb 2020 18:34:07.000,256.809,6.217,1723.500446
3 Feb 2020 18:34:08.000,256.902,6.298,1717.130714
3 Feb 2020 18:34:09.000,256.997,6.380,1710.765940
3 Feb 2020 18:34:10.000,257.092,6.461,1704.406188
3 Feb 2020 18:34:11.000,257.187,6.543,1698.051517
3 Feb 2020 18:34:12.000,257.284,6.626,1691.701999
3 Feb 2020 18:34:13.000,257.381,6.709,1685.357696
3 Feb 2020 18:34:14.000,257.479,6.792,1679.018675
3 Feb 2020 18:34:15.000,257.578,6.875,1672.685002
3 Feb 2020 18:34:16.000,257.677,6.959,1666.356746
3 Feb 2020 18:34:17.000,257.778,7.043,1660.033976
3 Feb 2020 18:34:18.000,257.879,7.128,1653.716762
3 Feb 2020 18:34:19.000,257.981,7.213,1647.405172
3 Feb 2020 18:34:20.000,258.083,7.298,1641.099284
3 Feb 2020 18:34:21.000,258.187,7.384,1634.799169
3 Feb 2020 18:34:22.000,258.291,7.470,1628.504900
3 Feb 2020 18:34:23.000,258.396,7.556,1622.216553
3 Feb 2020 18:34:24.000,258.502,7.643,1615.934204
3 Feb 2020 18:34:25.000,258.609,7.730,1609.657931
3 Feb 2020 18:34:26.000,258.717,7.818,1603.387811
3 Feb 2020 18:34:27.000,258.825,7.906,1597.123924
3 Feb 2020 18:34:28.000,258.935,7.994,1590.866351
3 Feb 2020 18:34:29.000,259.045,8.083,1584.615175
3 Feb 2020 18:34:30.000,259.156,8.172,1578.370474
3 Feb 2020 18:34:31.000,259.269,8.262,1572.132340
3 Feb 2020 18:34:32.000,259.382,8.352,1565.900855
3 Feb 2020 18:34:33.000,259.496,8.442,1559.676105
3 Feb 2020 18:34:34.000,259.611,8.533,1553.458179
3 Feb 2020 18:34:35.000,259.727,8.624,1547.247166
3 Feb 2020 18:34:36.000,259.843,8.716,1541.043157
3 Feb 2020 18:34:37.000,259.961,8.808,1534.846243
3 Feb 2020 18:34:38.000,260.080,8.901,1528.656518
3 Feb 2020 18:34:39.000,260.200,8.994,1522.474076
3 Feb 2020 18:34:40.000,260.321,9.087,1516.299014
3 Feb 2020 18:34:41.000,260.443,9.181,1510.131429
3 Feb 2020 18:34:42.000,260.566,9.275,1503.971421
3 Feb 2020 18:34:43.000,260.690,9.370,1497.819088
3 Feb 2020 18:34:44.000,260.815,9.466,1491.674534
3 Feb 2020 18:34:45.000,260.941,9.561,1485.537859
3 Feb 2020 18:34:46.000,261.069,9.657,1479.409174
3 Feb 2020 18:34:47.000,261.197,9.754,1473.288582
3 Feb 2020 18:34:48.000,261.326,9.851,1467.176192
3 Feb 2020 18:34:49.000,261.457,9.949,1461.072114
3 Feb 2020 18:34:50.000,261.589,10.047,1454.976459
3 Feb 2020 18:34:51.000,261.722,10.145,1448.889339
3 Feb 2020 18:34:52.000,261.856,10.244,1442.810871
3 Feb 2020 18:34:53.000,261.991,10.344,1436.741171
3 Feb 2020 18:34:54.000,262.128,10.444,1430.680357
3 Feb 2020 18:34:55.000,262.266,10.545,1424.628549
3 Feb 2020 18:34:56.000,262.405,10.646,1418.585870
3 Feb 2020 18:34:57.000,262.545,10.747,1412.552444
3 Feb 2020 18:34:58.000,262.687,10.849,1406.528395
3 Feb 2020 18:34:59.000,262.829,10.952,1400.513853
3 Feb 2020 18:35:00.000,262.974,11.055,1394.508947
3 Feb 2020 18:35:01.000,263.119,11.158,1388.513808
3 Feb 2020 18:35:02.000,263.266,11.262,1382.528571
3 Feb 2020 18:35:03.000,263.414,11.367,1376.553371
3 Feb 2020 18:35:04.000,263.564,11.472,1370.588347
3 Feb 2020 18:35:05.000,263.715,11.578,1364.633638
3 Feb 2020 18:35:06.000,263.867,11.684,1358.689387
3 Feb 2020 18:35:07.000,264.021,11.791,1352.755738
3 Feb 2020 18:35:08.000,264.176,11.898,1346.832838
3 Feb 2020 18:35:09.000,264.333,12.006,1340.920836
3 Feb 2020 18:35:10.000,264.491,12.115,1335.019884
3 Feb 2020 18:35:11.000,264.651,12.224,1329.130136
3 Feb 2020 18:35:12.000,264.812,12.333,1323.251747
3 Feb 2020 18:35:13.000,264.975,12.444,1317.384876
3 Feb 2020 18:35:14.000,265.139,12.554,1311.529685
3 Feb 2020 18:35:15.000,265.305,12.666,1305.686336
3 Feb 2020 18:35:16.000,265.473,12.777,1299.854997
3 Feb 2020 18:35:17.000,265.642,12.890,1294.035840
3 Feb 2020 18:35:18.000,265.813,13.003,1288.229029
3 Feb 2020 18:35:19.000,265.986,13.116,1282.434741
3 Feb 2020 18:35:20.000,266.160,13.231,1276.653155
3 Feb 2020 18:35:21.000,266.336,13.345,1270.884450
3 Feb 2020 18:35:22.000,266.514,13.461,1265.128808
3 Feb 2020 18:35:23.000,266.693,13.577,1259.386414
3 Feb 2020 18:35:24.000,266.875,13.693,1253.657459
3 Feb 2020 18:35:25.000,267.058,13.811,1247.942132
3 Feb 2020 18:35:26.000,267.243,13.928,1242.240628
3 Feb 2020 18:35:27.000,267.430,14.047,1236.553145
3 Feb 2020 18:35:28.000,267.618,14.166,1230.879884
3 Feb 2020 18:35:29.000,267.809,14.286,1225.221052
3 Feb 2020 18:35:30.000,268.002,14.406,1219.576849
3 Feb 2020 18:35:31.000,268.196,14.527,1213.947489
3 Feb 2020 18:35:32.000,268.393,14.648,1208.333185
3 Feb 2020 18:35:33.000,268.591,14.770,1202.734155
3 Feb 2020 18:35:34.000,268.792,14.893,1197.150619
3 Feb 2020 18:35:35.000,268.995,15.017,1191.582802
3 Feb 2020 18:35:36.000,269.200,15.141,1186.030930
3 Feb 2020 18:35:37.000,269.407,15.265,1180.495239
3 Feb 2020 18:35:38.000,269.616,15.391,1174.975956
3 Feb 2020 18:35:39.000,269.827,15.517,1169.473323
3 Feb 2020 18:35:40.000,270.041,15.643,1163.987582
3 Feb 2020 18:35:41.000,270.257,15.770,1158.518980
3 Feb 2020 18:35:42.000,270.475,15.898,1153.067767
3 Feb 2020 18:35:43.000,270.695,16.027,1147.634198
3 Feb 2020 18:35:44.000,270.918,16.156,1142.218527
3 Feb 2020 18:35:45.000,271.143,16.285,1136.821016
3 Feb 2020 18:35:46.000,271.371,16.416,1131.441934
3 Feb 2020 18:35:47.000,271.601,16.547,1126.081549
3 Feb 2020 18:35:48.000,271.834,16.678,1120.740139
3 Feb 2020 18:35:49.000,272.069,16.811,1115.417976
3 Feb 2020 18:35:50.000,272.306,16.944,1110.115346
3 Feb 2020 18:35:51.000,272.547,17.077,1104.832536
3 Feb 2020 18:35:52.000,272.789,17.211,1099.569841
3 Feb 2020 18:35:53.000,273.035,17.346,1094.327549
3 Feb 2020 18:35:54.000,273.283,17.482,1089.105966
3 Feb 2020 18:35:55.000,273.534,17.618,1083.905396
3 Feb 2020 18:35:56.000,273.788,17.754,1078.726151
3 Feb 2020 18:35:57.000,274.044,17.892,1073.568540
3 Feb 2020 18:35:58.000,274.304,18.029,1068.432884
3 Feb 2020 18:35:59.000,274.566,18.168,1063.319508
3 Feb 2020 18:36:00.000,274.831,18.307,1058.228743
3 Feb 2020 18:36:01.000,275.099,18.447,1053.160916
3 Feb 2020 18:36:02.000,275.370,18.587,1048.116369
3 Feb 2020 18:36:03.000,275.645,18.728,1043.095449
3 Feb 2020 18:36:04.000,275.922,18.869,1038.098496
3 Feb 2020 18:36:05.000,276.202,19.011,1033.125868
3 Feb 2020 18:36:06.000,276.486,19.154,1028.177926
3 Feb 2020 18:36:07.000,276.773,19.297,1023.255026
3 Feb 2020 18:36:08.000,277.063,19.440,1018.357542
3 Feb 2020 18:36:09.000,277.356,19.584,1013.485850
3 Feb 2020 18:36:10.000,277.652,19.729,1008.640321
3 Feb 2020 18:36:11.000,277.952,19.874,1003.821348
3 Feb 2020 18:36:12.000,278.256,20.020,999.029313
3 Feb 2020 18:36:13.000,278.563,20.166,994.264613
3 Feb 2020 18:36:14.000,278.873,20.312,989.527653
3 Feb 2020 18:36:15.000,279.187,20.460,984.818831
3 Feb 2020 18:36:16.000,279.504,20.607,980.138564
3 Feb 2020 18:36:17.000,279.825,20.755,975.487262
3 Feb 2020 18:36:18.000,280.150,20.903,970.865352
3 Feb 2020 18:36:19.000,280.478,21.052,966.273255
3 Feb 2020 18:36:20.000,280.811,21.201,961.711405
3 Feb 2020 18:36:21.000,281.147,21.350,957.180245
3 Feb 2020 18:36:22.000,281.487,21.500,952.680209
3 Feb 2020 18:36:23.000,281.830,21.650,948.211753
3 Feb 2020 18:36:24.000,282.178,21.800,943.775322
3 Feb 2020 18:36:25.000,282.530,21.951,939.371383
3 Feb 2020 18:36:26.000,282.885,22.102,935.000396
3 Feb 2020 18:36:27.000,283.245,22.253,930.662825
3 Feb 2020 18:36:28.000,283.609,22.404,926.359153
3 Feb 2020 18:36:29.000,283.977,22.555,922.089851
3 Feb 2020 18:36:30.000,284.349,22.707,917.855410
3 Feb 2020 18:36:31.000,284.726,22.859,913.656313
3 Feb 2020 18:36:32.000,285.107,23.010,909.493060
3 Feb 2020 18:36:33.000,285.492,23.162,905.366148
3 Feb 2020 18:36:34.000,285.881,23.314,901.276075
3 Feb 2020 18:36:35.000,286.275,23.465,897.223358
3 Feb 2020 18:36:36.000,286.673,23.617,893.208505
3 Feb 2020 18:36:37.000,287.076,23.769,889.232029
3 Feb 2020 18:36:38.000,287.483,23.920,885.294460
3 Feb 2020 18:36:39.000,287.895,24.071,881.396319
3 Feb 2020 18:36:40.000,288.312,24.222,877.538133
3 Feb 2020 18:36:41.000,288.733,24.373,873.720441
3 Feb 2020 18:36:42.000,289.158,24.524,869.943777
3 Feb 2020 18:36:43.000,289.589,24.674,866.208678
3 Feb 2020 18:36:44.000,290.024,24.824,862.515696
3 Feb 2020 18:36:45.000,290.464,24.973,858.865372
3 Feb 2020 18:36:46.000,290.909,25.122,855.258259
3 Feb 2020 18:36:47.000,291.358,25.270,851.694907
3 Feb 2020 18:36:48.000,291.812,25.418,848.175870
3 Feb 2020 18:36:49.000,292.271,25.565,844.701711
3 Feb 2020 18:36:50.000,292.736,25.711,841.272987
3 Feb 2020 18:36:51.000,293.204,25.857,837.890258
3 Feb 2020 18:36:52.000,293.678,26.002,834.554087
3 Feb 2020 18:36:53.000,294.157,26.146,831.265039
3 Feb 2020 18:36:54.000,294.641,26.289,828.023679
3 Feb 2020 18:36:55.000,295.129,26.431,824.830570
3 Feb 2020 18:36:56.000,295.623,26.572,821.686280
3 Feb 2020 18:36:57.000,296.122,26.712,818.591372
3 Feb 2020 18:36:58.000,296.625,26.851,815.546415
3 Feb 2020 18:36:59.000,297.133,26.989,812.551973
3 Feb 2020 18:37:00.000,297.647,27.125,809.608607
3 Feb 2020 18:37:01.000,298.165,27.260,806.716881
3 Feb 2020 18:37:02.000,298.689,27.393,803.877358
3 Feb 2020 18:37:03.000,299.217,27.525,801.090589
3 Feb 2020 18:37:04.000,299.750,27.656,798.357132
3 Feb 2020 18:37:05.000,300.288,27.785,795.677539
3 Feb 2020 18:37:06.000,300.831,27.912,793.052360
3 Feb 2020 18:37:07.000,301.378,28.037,790.482138
3 Feb 2020 18:37:08.000,301.931,28.161,787.967414
3 Feb 2020 18:37:09.000,302.488,28.282,785.508724
3 Feb 2020 18:37:10.000,303.050,28.402,783.106600
3 Feb 2020 18:37:11.000,303.616,28.519,780.761560
3 Feb 2020 18:37:12.000,304.188,28.635,778.474126
3 Feb 2020 18:37:13.000,304.763,28.748,776.244809
3 Feb 2020 18:37:14.000,305.344,28.859,774.074114
3 Feb 2020 18:37:15.000,305.928,28.967,771.962539
3 Feb 2020 18:37:16.000,306.517,29.074,769.910567
3 Feb 2020 18:37:17.000,307.111,29.177,767.918681
3 Feb 2020 18:37:18.000,307.708,29.278,765.987353
3 Feb 2020 18:37:19.000,308.310,29.377,764.117040
3 Feb 2020 18:37:20.000,308.915,29.472,762.308194
3 Feb 2020 18:37:21.000,309.525,29.565,760.561259
3 Feb 2020 18:37:22.000,310.138,29.655,758.876658
3 Feb 2020 18:37:23.000,310.756,29.742,757.254813
3 Feb 2020 18:37:24.000,311.376,29.827,755.696125
3 Feb 2020 18:37:25.000,312.001,29.908,754.200992
3 Feb 2020 18:37:26.000,312.629,29.986,752.769789
3 Feb 2020 18:37:27.000,313.260,30.060,751.402886
3 Feb 2020 18:37:28.000,313.894,30.132,750.100632
3 Feb 2020 18:37:29.000,314.531,30.200,748.863370
3 Feb 2020 18:37:30.000,315.172,30.265,747.691420
3 Feb 2020 18:37:31.000,315.815,30.327,746.585089
3 Feb 2020 18:37:32.000,316.460,30.385,745.544673
3 Feb 2020 18:37:33.000,317.108,30.439,744.570446
3 Feb 2020 18:37:34.000,317.759,30.490,743.662673
3 Feb 2020 18:37:35.000,318.411,30.538,742.821595
3 Feb 2020 18:37:36.000,319.066,30.582,742.047440
3 Feb 2020 18:37:37.000,319.722,30.622,741.340415
3 Feb 2020 18:37:38.000,320.381,30.658,740.700717
3 Feb 2020 18:37:39.000,321.040,30.691,740.128518
3 Feb 2020 18:37:40.000,321.701,30.720,739.623976
3 Feb 2020 18:37:41.000,322.364,30.745,739.187229
3 Feb 2020 18:37:42.000,323.027,30.766,738.818394
3 Feb 2020 18:37:43.000,323.691,30.784,738.517579
3 Feb 2020 18:37:44.000,324.356,30.797,738.284862
3 Feb 2020 18:37:45.000,325.022,30.807,738.120309
3 Feb 2020 18:37:46.000,325.688,30.813,738.023965
3 Feb 2020 18:37:47.000,326.354,30.815,737.995855
3 Feb 2020 18:37:48.000,327.019,30.813,738.035988
3 Feb 2020 18:37:49.000,327.685,30.808,738.144351
3 Feb 2020 18:37:50.000,328.351,30.798,738.320913
3 Feb 2020 18:37:51.000,329.016,30.785,738.565625
3 Feb 2020 18:37:52.000,329.680,30.767,738.878418
3 Feb 2020 18:37:53.000,330.343,30.746,739.259205
3 Feb 2020 18:37:54.000,331.005,30.721,739.707880
3 Feb 2020 18:37:55.000,331.666,30.693,740.224318
3 Feb 2020 18:37:56.000,332.326,30.660,740.808375
3 Feb 2020 18:37:57.000,332.984,30.624,741.459891
3 Feb 2020 18:37:58.000,333.640,30.584,742.178688
3 Feb 2020 18:37:59.000,334.294,30.540,742.964568
3 Feb 2020 18:38:00.000,334.947,30.493,743.817317
3 Feb 2020 18:38:01.000,335.597,30.442,744.736703
3 Feb 2020 18:38:02.000,336.245,30.388,745.722479
3 Feb 2020 18:38:03.000,336.890,30.330,746.774380
3 Feb 2020 18:38:04.000,337.533,30.269,747.892125
3 Feb 2020 18:38:05.000,338.173,30.204,749.075418
3 Feb 2020 18:38:06.000,338.810,30.136,750.323945
3 Feb 2020 18:38:07.000,339.444,30.065,751.637380
3 Feb 2020 18:38:08.000,340.074,29.990,753.015383
3 Feb 2020 18:38:09.000,340.702,29.913,754.457594
3 Feb 2020 18:38:10.000,341.326,29.832,755.963648
3 Feb 2020 18:38:11.000,341.946,29.748,757.533157
3 Feb 2020 18:38:12.000,342.563,29.661,759.165729
3 Feb 2020 18:38:13.000,343.176,29.571,760.860952
3 Feb 2020 18:38:14.000,343.785,29.479,762.618409
3 Feb 2020 18:38:15.000,344.391,29.383,764.437667
3 Feb 2020 18:38:16.000,344.992,29.285,766.318281
3 Feb 2020 18:38:17.000,345.589,29.185,768.259800
3 Feb 2020 18:38:18.000,346.182,29.081,770.261760
3 Feb 2020 18:38:19.000,346.770,28.976,772.323688
3 Feb 2020 18:38:20.000,347.355,28.867,774.445102
3 Feb 2020 18:38:21.000,347.934,28.757,776.625511
3 Feb 2020 18:38:22.000,348.510,28.644,778.864417
3 Feb 2020 18:38:23.000,349.080,28.529,781.161313
3 Feb 2020 18:38:24.000,349.646,28.412,783.515687
3 Feb 2020 18:38:25.000,350.208,28.293,785.927018
3 Feb 2020 18:38:26.000,350.765,28.171,788.394780
3 Feb 2020 18:38:27.000,351.316,28.048,790.918443
3 Feb 2020 18:38:28.000,351.864,27.923,793.497468
3 Feb 2020 18:38:29.000,352.406,27.796,796.131314
3 Feb 2020 18:38:30.000,352.944,27.668,798.819435
3 Feb 2020 18:38:31.000,353.476,27.538,801.561282
3 Feb 2020 18:38:32.000,354.004,27.406,804.356301
3 Feb 2020 18:38:33.000,354.527,27.273,807.203936
3 Feb 2020 18:38:34.000,355.045,27.139,810.103629
3 Feb 2020 18:38:35.000,355.557,27.003,813.054817
3 Feb 2020 18:38:36.000,356.065,26.866,816.056940
3 Feb 2020 18:38:37.000,356.568,26.727,819.109432
3 Feb 2020 18:38:38.000,357.067,26.588,822.211728
3 Feb 2020 18:38:39.000,357.560,26.447,825.363263
3 Feb 2020 18:38:40.000,358.048,26.305,828.563470
3 Feb 2020 18:38:41.000,358.531,26.163,831.811784
3 Feb 2020 18:38:42.000,359.009,26.019,835.107638
3 Feb 2020 18:38:43.000,359.483,25.875,838.450469
3 Feb 2020 18:38:44.000,359.951,25.729,841.839711
3 Feb 2020 18:38:45.000,0.415,25.584,845.274801
3 Feb 2020 18:38:46.000,0.874,25.437,848.755180
3 Feb 2020 18:38:47.000,1.327,25.290,852.280286
3 Feb 2020 18:38:48.000,1.776,25.142,855.849563
3 Feb 2020 18:38:49.000,2.221,24.993,859.462456
3 Feb 2020 18:38:50.000,2.660,24.844,863.118413
3 Feb 2020 18:38:51.000,3.095,24.695,866.816883
3 Feb 2020 18:38:52.000,3.525,24.545,870.557319
3 Feb 2020 18:38:53.000,3.950,24.395,874.339180
3 Feb 2020 18:38:54.000,4.371,24.245,878.161923
3 Feb 2020 18:38:55.000,4.787,24.095,882.025013
3 Feb 2020 18:38:56.000,5.198,23.944,885.927917
3 Feb 2020 18:38:57.000,5.605,23.793,889.870106
3 Feb 2020 18:38:58.000,6.008,23.642,893.851056
3 Feb 2020 18:38:59.000,6.406,23.490,897.870244
3 Feb 2020 18:39:00.000,6.799,23.339,901.927155
3 Feb 2020 18:39:01.000,7.188,23.188,906.021277
3 Feb 2020 18:39:02.000,7.573,23.037,910.152102
3 Feb 2020 18:39:03.000,7.953,22.885,914.319129
3 Feb 2020 18:39:04.000,8.330,22.734,918.521857
3 Feb 2020 18:39:05.000,8.701,22.583,922.759795
3 Feb 2020 18:39:06.000,9.069,22.432,927.032454
3 Feb 2020 18:39:07.000,9.433,22.281,931.339350
3 Feb 2020 18:39:08.000,9.792,22.131,935.680007
3 Feb 2020 18:39:09.000,10.148,21.981,940.053948
3 Feb 2020 18:39:10.000,10.499,21.830,944.460708
3 Feb 2020 18:39:11.000,10.847,21.681,948.899823
3 Feb 2020 18:39:12.000,11.190,21.531,953.370836
3 Feb 2020 18:39:13.000,11.530,21.382,957.873293
3 Feb 2020 18:39:14.000,11.866,21.233,962.406750
3 Feb 2020 18:39:15.000,12.198,21.084,966.970761
3 Feb 2020 18:39:16.000,12.526,20.936,971.564894
3 Feb 2020 18:39:17.000,12.850,20.788,976.188714
3 Feb 2020 18:39:18.000,13.171,20.641,980.841799
3 Feb 2020 18:39:19.000,13.488,20.494,985.523725
3 Feb 2020 18:39:20.000,13.802,20.347,990.234079
3 Feb 2020 18:39:21.000,14.112,20.201,994.972451
3 Feb 2020 18:39:22.000,14.419,20.055,999.738436
3 Feb 2020 18:39:23.000,14.722,19.910,1004.531637
3 Feb 2020 18:39:24.000,15.022,19.765,1009.351657
3 Feb 2020 18:39:25.000,15.318,19.621,1014.198110
3 Feb 2020 18:39:26.000,15.612,19.477,1019.070612
3 Feb 2020 18:39:27.000,15.901,19.334,1023.968784
3 Feb 2020 18:39:28.000,16.188,19.192,1028.892255
3 Feb 2020 18:39:29.000,16.471,19.049,1033.840656
3 Feb 2020 18:39:30.000,16.752,18.908,1038.813625
3 Feb 2020 18:39:31.000,17.029,18.767,1043.810806
3 Feb 2020 18:39:32.000,17.303,18.626,1048.831844
3 Feb 2020 18:39:33.000,17.574,18.487,1053.876393
3 Feb 2020 18:39:34.000,17.842,18.347,1058.944111
3 Feb 2020 18:39:35.000,18.107,18.209,1064.034660
3 Feb 2020 18:39:36.000,18.369,18.071,1069.147707
3 Feb 2020 18:39:37.000,18.629,17.933,1074.282927
3 Feb 2020 18:39:38.000,18.885,17.796,1079.439994
3 Feb 2020 18:39:39.000,19.139,17.660,1084.618591
3 Feb 2020 18:39:40.000,19.390,17.524,1089.818405
3 Feb 2020 18:39:41.000,19.638,17.389,1095.039127
3 Feb 2020 18:39:42.000,19.883,17.255,1100.280453
3 Feb 2020 18:39:43.000,20.126,17.121,1105.542083
3 Feb 2020 18:39:44.000,20.366,16.988,1110.823722
3 Feb 2020 18:39:45.000,20.604,16.855,1116.125081
3 Feb 2020 18:39:46.000,20.839,16.723,1121.445871
3 Feb 2020 18:39:47.000,21.072,16.592,1126.785811
3 Feb 2020 18:39:48.000,21.302,16.462,1132.144625
3 Feb 2020 18:39:49.000,21.530,16.332,1137.522039
3 Feb 2020 18:39:50.000,21.755,16.202,1142.917781
3 Feb 2020 18:39:51.000,21.978,16.073,1148.331589
3 Feb 2020 18:39:52.000,22.198,15.945,1153.763201
3 Feb 2020 18:39:53.000,22.417,15.818,1159.212360
3 Feb 2020 18:39:54.000,22.632,15.691,1164.678814
3 Feb 2020 18:39:55.000,22.846,15.565,1170.162312
3 Feb 2020 18:39:56.000,23.058,15.439,1175.662610
3 Feb 2020 18:39:57.000,23.267,15.314,1181.179465
3 Feb 2020 18:39:58.000,23.474,15.190,1186.712641
3 Feb 2020 18:39:59.000,23.679,15.066,1192.261903
3 Feb 2020 18:40:00.000,23.882,14.943,1197.827021
3 Feb 2020 18:40:01.000,24.082,14.821,1203.407769
3 Feb 2020 18:40:02.000,24.281,14.699,1209.003922
3 Feb 2020 18:40:03.000,24.478,14.578,1214.615260
3 Feb 2020 18:40:04.000,24.673,14.457,1220.241567
3 Feb 2020 18:40:05.000,24.865,14.337,1225.882631
3 Feb 2020 18:40:06.000,25.056,14.218,1231.538241
3 Feb 2020 18:40:07.000,25.245,14.099,1237.208192
3 Feb 2020 18:40:08.000,25.432,13.981,1242.892279
3 Feb 2020 18:40:09.000,25.617,13.863,1248.590305
3 Feb 2020 18:40:10.000,25.801,13.746,1254.302069
3 Feb 2020 18:40:11.000,25.982,13.630,1260.027378
3 Feb 2020 18:40:12.000,26.162,13.514,1265.766043
3 Feb 2020 18:40:13.000,26.340,13.399,1271.517875
3 Feb 2020 18:40:14.000,26.516,13.285,1277.282690
3 Feb 2020 18:40:15.000,26.690,13.171,1283.060304
3 Feb 2020 18:40:16.000,26.863,13.058,1288.850539
3 Feb 2020 18:40:17.000,27.034,12.945,1294.653219
3 Feb 2020 18:40:18.000,27.204,12.833,1300.468170
3 Feb 2020 18:40:19.000,27.371,12.721,1306.295220
3 Feb 2020 18:40:20.000,27.538,12.610,1312.134202
3 Feb 2020 18:40:21.000,27.702,12.500,1317.984949
3 Feb 2020 18:40:22.000,27.865,12.390,1323.847299
3 Feb 2020 18:40:23.000,28.027,12.281,1329.721092
3 Feb 2020 18:40:24.000,28.187,12.172,1335.606167
3 Feb 2020 18:40:25.000,28.345,12.064,1341.502371
3 Feb 2020 18:40:26.000,28.502,11.956,1347.409548
3 Feb 2020 18:40:27.000,28.658,11.849,1353.327550
3 Feb 2020 18:40:28.000,28.812,11.742,1359.256227
3 Feb 2020 18:40:29.000,28.965,11.636,1365.195432
3 Feb 2020 18:40:30.000,29.116,11.531,1371.145022
3 Feb 2020 18:40:31.000,29.266,11.426,1377.104855
3 Feb 2020 18:40:32.000,29.414,11.322,1383.074791
3 Feb 2020 18:40:33.000,29.561,11.218,1389.054692
3 Feb 2020 18:40:34.000,29.707,11.114,1395.044424
3 Feb 2020 18:40:35.000,29.852,11.012,1401.043852
3 Feb 2020 18:40:36.000,29.995,10.909,1407.052845
3 Feb 2020 18:40:37.000,30.137,10.807,1413.071274
3 Feb 2020 18:40:38.000,30.277,10.706,1419.099012
3 Feb 2020 18:40:39.000,30.417,10.605,1425.135933
3 Feb 2020 18:40:40.000,30.555,10.505,1431.181914
3 Feb 2020 18:40:41.000,30.692,10.405,1437.236832
3 Feb 2020 18:40:42.000,30.827,10.306,1443.300568
3 Feb 2020 18:40:43.000,30.962,10.207,1449.373004
3 Feb 2020 18:40:44.000,31.095,10.109,1455.454024
3 Feb 2020 18:40:45.000,31.227,10.011,1461.543512
3 Feb 2020 18:40:46.000,31.358,9.914,1467.641357
3 Feb 2020 18:40:47.000,31.488,9.817,1473.747446
3 Feb 2020 18:40:48.000,31.617,9.720,1479.861670
3 Feb 2020 18:40:49.000,31.745,9.624,1485.983922
3 Feb 2020 18:40:50.000,31.871,9.529,1492.114097
3 Feb 2020 18:40:51.000,31.997,9.434,1498.252088
3 Feb 2020 18:40:52.000,32.121,9.339,1504.397792
3 Feb 2020 18:40:53.000,32.245,9.245,1510.551108
3 Feb 2020 18:40:54.000,32.367,9.151,1516.711936
3 Feb 2020 18:40:55.000,32.488,9.058,1522.880178
3 Feb 2020 18:40:56.000,32.608,8.965,1529.055735
3 Feb 2020 18:40:57.000,32.728,8.873,1535.238512
3 Feb 2020 18:40:58.000,32.846,8.781,1541.428415
3 Feb 2020 18:40:59.000,32.963,8.690,1547.625351
3 Feb 2020 18:41:00.000,33.080,8.599,1553.829228
3 Feb 2020 18:41:01.000,33.195,8.508,1560.039955
3 Feb 2020 18:41:02.000,33.309,8.418,1566.257444
3 Feb 2020 18:41:03.000,33.423,8.328,1572.481607
3 Feb 2020 18:41:04.000,33.536,8.238,1578.712358
3 Feb 2020 18:41:05.000,33.647,8.149,1584.949609
3 Feb 2020 18:41:06.000,33.758,8.061,1591.193279
3 Feb 2020 18:41:07.000,33.868,7.973,1597.443286
3 Feb 2020 18:41:08.000,33.977,7.885,1603.699545
3 Feb 2020 18:41:09.000,34.085,7.797,1609.961978
3 Feb 2020 18:41:10.000,34.192,7.710,1616.230505
3 Feb 2020 18:41:11.000,34.299,7.624,1622.505048
3 Feb 2020 18:41:12.000,34.404,7.538,1628.785529
3 Feb 2020 18:41:13.000,34.509,7.452,1635.071872
3 Feb 2020 18:41:14.000,34.613,7.366,1641.364003
3 Feb 2020 18:41:15.000,34.716,7.281,1647.661847
3 Feb 2020 18:41:16.000,34.819,7.196,1653.965330
3 Feb 2020 18:41:17.000,34.920,7.112,1660.274384
3 Feb 2020 18:41:18.000,35.021,7.028,1666.588936
3 Feb 2020 18:41:19.000,35.121,6.944,1672.908916
3 Feb 2020 18:41:20.000,35.220,6.861,1679.234254
3 Feb 2020 18:41:21.000,35.319,6.778,1685.564884
3 Feb 2020 18:41:22.000,35.417,6.695,1691.900738
3 Feb 2020 18:41:23.000,35.514,6.613,1698.241750
3 Feb 2020 18:41:24.000,35.610,6.531,1704.587855
3 Feb 2020 18:41:25.000,35.705,6.450,1710.938985
3 Feb 2020 18:41:26.000,35.800,6.369,1717.295083
3 Feb 2020 18:41:27.000,35.894,6.288,1723.656083
3 Feb 2020 18:41:28.000,35.988,6.207,1730.021923
3 Feb 2020 18:41:29.000,36.081,6.127,1736.392543
3 Feb 2020 18:41:30.000,36.173,6.047,1742.767883
3 Feb 2020 18:41:31.000,36.264,5.968,1749.147883
3 Feb 2020 18:41:32.000,36.355,5.888,1755.532484
3 Feb 2020 18:41:33.000,36.445,5.810,1761.921627
3 Feb 2020 18:41:34.000,36.534,5.731,1768.315259
3 Feb 2020 18:41:35.000,36.623,5.653,1774.713322
3 Feb 2020 18:41:36.000,36.711,5.575,1781.115761
3 Feb 2020 18:41:37.000,36.799,5.497,1787.522519
3 Feb 2020 18:41:38.000,36.886,5.420,1793.933545
3 Feb 2020 18:41:39.000,36.972,5.343,1800.348783
3 Feb 2020 18:41:40.000,37.058,5.266,1806.768180
3 Feb 2020 18:41:41.000,37.143,5.190,1813.191688
3 Feb 2020 18:41:42.000,37.227,5.113,1819.619253
3 Feb 2020 18:41:43.000,37.311,5.038,1826.050825
3 Feb 2020 18:41:44.000,37.394,4.962,1832.486354
3 Feb 2020 18:41:45.000,37.477,4.887,1838.925790
3 Feb 2020 18:41:46.000,37.559,4.812,1845.369085
3 Feb 2020 18:41:47.000,37.641,4.737,1851.816189
3 Feb 2020 18:41:48.000,37.722,4.663,1858.267059
3 Feb 2020 18:41:49.000,37.802,4.588,1864.721645
3 Feb 2020 18:41:50.000,37.882,4.515,1871.179901
3 Feb 2020 18:41:51.000,37.962,4.441,1877.641783
3 Feb 2020 18:41:52.000,38.040,4.368,1884.107244
3 Feb 2020 18:41:53.000,38.119,4.295,1890.576240
3 Feb 2020 18:41:54.000,38.197,4.222,1897.048725
3 Feb 2020 18:41:55.000,38.274,4.149,1903.524660
3 Feb 2020 18:41:56.000,38.351,4.077,1910.004000
3 Feb 2020 18:41:57.000,38.427,4.005,1916.486702
3 Feb 2020 18:41:58.000,38.502,3.933,1922.972725
3 Feb 2020 18:41:59.000,38.578,3.862,1929.462028
3 Feb 2020 18:42:00.000,38.652,3.791,1935.954567
3 Feb 2020 18:42:01.000,38.727,3.720,1942.450307
3 Feb 2020 18:42:02.000,38.800,3.649,1948.949206
3 Feb 2020 18:42:03.000,38.874,3.578,1955.451224
3 Feb 2020 18:42:04.000,38.947,3.508,1961.956322
3 Feb 2020 18:42:05.000,39.019,3.438,1968.464462
3 Feb 2020 18:42:06.000,39.091,3.369,1974.975605
3 Feb 2020 18:42:07.000,39.162,3.299,1981.489716
3 Feb 2020 18:42:08.000,39.233,3.230,1988.006758
3 Feb 2020 18:42:09.000,39.304,3.161,1994.526692
3 Feb 2020 18:42:10.000,39.374,3.092,2001.049484
3 Feb 2020 18:42:11.000,39.443,3.023,2007.575097
3 Feb 2020 18:42:12.000,39.512,2.955,2014.103494
3 Feb 2020 18:42:13.000,39.581,2.887,2020.634645
3 Feb 2020 18:42:14.000,39.649,2.819,2027.168513
3 Feb 2020 18:42:15.000,39.717,2.751,2033.705063
3 Feb 2020 18:42:16.000,39.785,2.684,2040.244263
3 Feb 2020 18:42:17.000,39.852,2.617,2046.786077
3 Feb 2020 18:42:18.000,39.918,2.550,2053.330476
3 Feb 2020 18:42:19.000,39.985,2.483,2059.877425
3 Feb 2020 18:42:20.000,40.051,2.416,2066.426893
3 Feb 2020 18:42:21.000,40.116,2.350,2072.978849
3 Feb 2020 18:42:22.000,40.181,2.284,2079.533259
3 Feb 2020 18:42:23.000,40.246,2.218,2086.090092
3 Feb 2020 18:42:24.000,40.310,2.152,2092.649321
3 Feb 2020 18:42:25.000,40.374,2.087,2099.210913
3 Feb 2020 18:42:26.000,40.437,2.021,2105.774839
3 Feb 2020 18:42:27.000,40.500,1.956,2112.341069
3 Feb 2020 18:42:28.000,40.563,1.891,2118.909571
3 Feb 2020 18:42:29.000,40.625,1.826,2125.480321
3 Feb 2020 18:42:30.000,40.687,1.762,2132.053289
