vcc_sched/network/input/aer_uvags_wj2xmr_vcc-c_44430.csv

"Time (UTCG)","Azimuth (deg)","Elevation (deg)","Range (km)"
16 Dec 2019 16:47:09.546,307.451,-0.124,2328.757812
16 Dec 2019 16:47:10.000,307.509,-0.104,2326.505411
16 Dec 2019 16:47:11.000,307.636,-0.060,2321.552736
16 Dec 2019 16:47:12.000,307.763,-0.015,2316.609645
16 Dec 2019 16:47:13.000,307.891,0.029,2311.676199
16 Dec 2019 16:47:14.000,308.020,0.074,2306.752468
16 Dec 2019 16:47:15.000,308.149,0.118,2301.838524
16 Dec 2019 16:47:16.000,308.278,0.162,2296.934430
16 Dec 2019 16:47:17.000,308.408,0.207,2292.040259
16 Dec 2019 16:47:18.000,308.539,0.251,2287.156075
16 Dec 2019 16:47:19.000,308.670,0.296,2282.281950
16 Dec 2019 16:47:20.000,308.802,0.340,2277.417959
16 Dec 2019 16:47:21.000,308.935,0.385,2272.564165
16 Dec 2019 16:47:22.000,309.067,0.429,2267.720642
16 Dec 2019 16:47:23.000,309.201,0.474,2262.887465
16 Dec 2019 16:47:24.000,309.335,0.518,2258.064700
16 Dec 2019 16:47:25.000,309.469,0.563,2253.252425
16 Dec 2019 16:47:26.000,309.604,0.607,2248.450707
16 Dec 2019 16:47:27.000,309.740,0.651,2243.659622
16 Dec 2019 16:47:28.000,309.876,0.696,2238.879247
16 Dec 2019 16:47:29.000,310.013,0.740,2234.109650
16 Dec 2019 16:47:30.000,310.151,0.785,2229.350912
16 Dec 2019 16:47:31.000,310.289,0.829,2224.603101
16 Dec 2019 16:47:32.000,310.427,0.874,2219.866296
16 Dec 2019 16:47:33.000,310.566,0.918,2215.140577
16 Dec 2019 16:47:34.000,310.706,0.963,2210.426013
16 Dec 2019 16:47:35.000,310.846,1.007,2205.722687
16 Dec 2019 16:47:36.000,310.987,1.051,2201.030672
16 Dec 2019 16:47:37.000,311.129,1.096,2196.350050
16 Dec 2019 16:47:38.000,311.271,1.140,2191.680894
16 Dec 2019 16:47:39.000,311.413,1.185,2187.023286
16 Dec 2019 16:47:40.000,311.557,1.229,2182.377307
16 Dec 2019 16:47:41.000,311.700,1.273,2177.743033
16 Dec 2019 16:47:42.000,311.845,1.318,2173.120548
16 Dec 2019 16:47:43.000,311.990,1.362,2168.509927
16 Dec 2019 16:47:44.000,312.136,1.407,2163.911258
16 Dec 2019 16:47:45.000,312.282,1.451,2159.324616
16 Dec 2019 16:47:46.000,312.429,1.495,2154.750089
16 Dec 2019 16:47:47.000,312.576,1.540,2150.187753
16 Dec 2019 16:47:48.000,312.725,1.584,2145.637698
16 Dec 2019 16:47:49.000,312.873,1.628,2141.100001
16 Dec 2019 16:47:50.000,313.023,1.672,2136.574751
16 Dec 2019 16:47:51.000,313.173,1.717,2132.062028
16 Dec 2019 16:47:52.000,313.323,1.761,2127.561921
16 Dec 2019 16:47:53.000,313.475,1.805,2123.074511
16 Dec 2019 16:47:54.000,313.627,1.849,2118.599889
16 Dec 2019 16:47:55.000,313.779,1.893,2114.138135
16 Dec 2019 16:47:56.000,313.932,1.937,2109.689343
16 Dec 2019 16:47:57.000,314.086,1.981,2105.253592
16 Dec 2019 16:47:58.000,314.240,2.025,2100.830978
16 Dec 2019 16:47:59.000,314.396,2.069,2096.421581
16 Dec 2019 16:48:00.000,314.551,2.113,2092.025497
16 Dec 2019 16:48:01.000,314.708,2.157,2087.642809
16 Dec 2019 16:48:02.000,314.865,2.201,2083.273612
16 Dec 2019 16:48:03.000,315.022,2.245,2078.917990
16 Dec 2019 16:48:04.000,315.181,2.289,2074.576039
16 Dec 2019 16:48:05.000,315.340,2.333,2070.247846
16 Dec 2019 16:48:06.000,315.500,2.377,2065.933505
16 Dec 2019 16:48:07.000,315.660,2.420,2061.633108
16 Dec 2019 16:48:08.000,315.821,2.464,2057.346743
16 Dec 2019 16:48:09.000,315.983,2.508,2053.074508
16 Dec 2019 16:48:10.000,316.145,2.551,2048.816492
16 Dec 2019 16:48:11.000,316.308,2.595,2044.572793
16 Dec 2019 16:48:12.000,316.472,2.639,2040.343500
16 Dec 2019 16:48:13.000,316.636,2.682,2036.128714
16 Dec 2019 16:48:14.000,316.801,2.725,2031.928525
16 Dec 2019 16:48:15.000,316.967,2.769,2027.743028
16 Dec 2019 16:48:16.000,317.133,2.812,2023.572323
16 Dec 2019 16:48:17.000,317.300,2.856,2019.416504
16 Dec 2019 16:48:18.000,317.468,2.899,2015.275666
16 Dec 2019 16:48:19.000,317.636,2.942,2011.149910
16 Dec 2019 16:48:20.000,317.806,2.985,2007.039329
16 Dec 2019 16:48:21.000,317.976,3.028,2002.944027
16 Dec 2019 16:48:22.000,318.146,3.071,1998.864099
16 Dec 2019 16:48:23.000,318.317,3.114,1994.799642
16 Dec 2019 16:48:24.000,318.489,3.157,1990.750760
16 Dec 2019 16:48:25.000,318.662,3.200,1986.717550
16 Dec 2019 16:48:26.000,318.835,3.243,1982.700111
16 Dec 2019 16:48:27.000,319.009,3.285,1978.698548
16 Dec 2019 16:48:28.000,319.184,3.328,1974.712959
16 Dec 2019 16:48:29.000,319.359,3.370,1970.743443
16 Dec 2019 16:48:30.000,319.536,3.413,1966.790107
16 Dec 2019 16:48:31.000,319.712,3.455,1962.853050
16 Dec 2019 16:48:32.000,319.890,3.498,1958.932374
16 Dec 2019 16:48:33.000,320.068,3.540,1955.028185
16 Dec 2019 16:48:34.000,320.247,3.582,1951.140585
16 Dec 2019 16:48:35.000,320.427,3.624,1947.269676
16 Dec 2019 16:48:36.000,320.608,3.666,1943.415565
16 Dec 2019 16:48:37.000,320.789,3.708,1939.578355
16 Dec 2019 16:48:38.000,320.971,3.750,1935.758150
16 Dec 2019 16:48:39.000,321.153,3.792,1931.955055
16 Dec 2019 16:48:40.000,321.337,3.833,1928.169178
16 Dec 2019 16:48:41.000,321.521,3.875,1924.400624
16 Dec 2019 16:48:42.000,321.705,3.916,1920.649497
16 Dec 2019 16:48:43.000,321.891,3.958,1916.915906
16 Dec 2019 16:48:44.000,322.077,3.999,1913.199958
16 Dec 2019 16:48:45.000,322.264,4.040,1909.501759
16 Dec 2019 16:48:46.000,322.452,4.081,1905.821417
16 Dec 2019 16:48:47.000,322.640,4.122,1902.159037
16 Dec 2019 16:48:48.000,322.829,4.163,1898.514732
16 Dec 2019 16:48:49.000,323.019,4.204,1894.888608
16 Dec 2019 16:48:50.000,323.210,4.245,1891.280774
16 Dec 2019 16:48:51.000,323.401,4.285,1887.691336
16 Dec 2019 16:48:52.000,323.593,4.325,1884.120408
16 Dec 2019 16:48:53.000,323.786,4.366,1880.568098
16 Dec 2019 16:48:54.000,323.980,4.406,1877.034514
16 Dec 2019 16:48:55.000,324.174,4.446,1873.519767
16 Dec 2019 16:48:56.000,324.369,4.486,1870.023968
16 Dec 2019 16:48:57.000,324.565,4.526,1866.547223
16 Dec 2019 16:48:58.000,324.761,4.566,1863.089649
16 Dec 2019 16:48:59.000,324.958,4.605,1859.651354
16 Dec 2019 16:49:00.000,325.156,4.644,1856.232448
16 Dec 2019 16:49:01.000,325.355,4.684,1852.833044
16 Dec 2019 16:49:02.000,325.555,4.723,1849.453251
16 Dec 2019 16:49:03.000,325.755,4.762,1846.093183
16 Dec 2019 16:49:04.000,325.956,4.801,1842.752948
16 Dec 2019 16:49:05.000,326.157,4.840,1839.432663
16 Dec 2019 16:49:06.000,326.360,4.878,1836.132437
16 Dec 2019 16:49:07.000,326.563,4.917,1832.852382
16 Dec 2019 16:49:08.000,326.767,4.955,1829.592611
16 Dec 2019 16:49:09.000,326.971,4.993,1826.353236
16 Dec 2019 16:49:10.000,327.177,5.031,1823.134369
16 Dec 2019 16:49:11.000,327.383,5.069,1819.936123
16 Dec 2019 16:49:12.000,327.590,5.106,1816.758609
16 Dec 2019 16:49:13.000,327.797,5.144,1813.601942
16 Dec 2019 16:49:14.000,328.005,5.181,1810.466232
16 Dec 2019 16:49:15.000,328.214,5.218,1807.351593
16 Dec 2019 16:49:16.000,328.424,5.255,1804.258138
16 Dec 2019 16:49:17.000,328.635,5.292,1801.185979
16 Dec 2019 16:49:18.000,328.846,5.329,1798.135229
16 Dec 2019 16:49:19.000,329.058,5.365,1795.105997
16 Dec 2019 16:49:20.000,329.271,5.402,1792.098402
16 Dec 2019 16:49:21.000,329.484,5.438,1789.112552
16 Dec 2019 16:49:22.000,329.698,5.474,1786.148562
16 Dec 2019 16:49:23.000,329.913,5.509,1783.206544
16 Dec 2019 16:49:24.000,330.128,5.545,1780.286607
16 Dec 2019 16:49:25.000,330.345,5.580,1777.388866
16 Dec 2019 16:49:26.000,330.562,5.615,1774.513432
16 Dec 2019 16:49:27.000,330.779,5.650,1771.660417
16 Dec 2019 16:49:28.000,330.998,5.685,1768.829932
16 Dec 2019 16:49:29.000,331.217,5.720,1766.022090
16 Dec 2019 16:49:30.000,331.437,5.754,1763.237002
16 Dec 2019 16:49:31.000,331.657,5.788,1760.474778
16 Dec 2019 16:49:32.000,331.879,5.822,1757.735529
16 Dec 2019 16:49:33.000,332.101,5.856,1755.019367
16 Dec 2019 16:49:34.000,332.323,5.889,1752.326401
16 Dec 2019 16:49:35.000,332.547,5.922,1749.656742
16 Dec 2019 16:49:36.000,332.771,5.955,1747.010500
16 Dec 2019 16:49:37.000,332.996,5.988,1744.387785
16 Dec 2019 16:49:38.000,333.221,6.021,1741.788704
16 Dec 2019 16:49:39.000,333.447,6.053,1739.213367
16 Dec 2019 16:49:40.000,333.674,6.085,1736.661882
16 Dec 2019 16:49:41.000,333.902,6.117,1734.134358
16 Dec 2019 16:49:42.000,334.130,6.148,1731.630903
16 Dec 2019 16:49:43.000,334.359,6.180,1729.151623
16 Dec 2019 16:49:44.000,334.588,6.211,1726.696627
16 Dec 2019 16:49:45.000,334.818,6.242,1724.266020
16 Dec 2019 16:49:46.000,335.049,6.272,1721.859907
16 Dec 2019 16:49:47.000,335.281,6.303,1719.478395
16 Dec 2019 16:49:48.000,335.513,6.333,1717.121588
16 Dec 2019 16:49:49.000,335.746,6.363,1714.789593
16 Dec 2019 16:49:50.000,335.979,6.392,1712.482511
16 Dec 2019 16:49:51.000,336.213,6.421,1710.200446
16 Dec 2019 16:49:52.000,336.448,6.450,1707.943501
16 Dec 2019 16:49:53.000,336.683,6.479,1705.711780
16 Dec 2019 16:49:54.000,336.919,6.508,1703.505382
16 Dec 2019 16:49:55.000,337.156,6.536,1701.324409
16 Dec 2019 16:49:56.000,337.393,6.564,1699.168961
16 Dec 2019 16:49:57.000,337.631,6.591,1697.039140
16 Dec 2019 16:49:58.000,337.870,6.619,1694.935041
16 Dec 2019 16:49:59.000,338.109,6.646,1692.856765
16 Dec 2019 16:50:00.000,338.349,6.673,1690.804409
16 Dec 2019 16:50:01.000,338.589,6.699,1688.778069
16 Dec 2019 16:50:02.000,338.830,6.725,1686.777841
16 Dec 2019 16:50:03.000,339.071,6.751,1684.803823
16 Dec 2019 16:50:04.000,339.313,6.777,1682.856105
16 Dec 2019 16:50:05.000,339.556,6.802,1680.934783
16 Dec 2019 16:50:06.000,339.799,6.827,1679.039950
16 Dec 2019 16:50:07.000,340.043,6.852,1677.171697
16 Dec 2019 16:50:08.000,340.287,6.876,1675.330115
16 Dec 2019 16:50:09.000,340.532,6.900,1673.515295
16 Dec 2019 16:50:10.000,340.778,6.924,1671.727325
16 Dec 2019 16:50:11.000,341.024,6.947,1669.966295
16 Dec 2019 16:50:12.000,341.270,6.970,1668.232289
16 Dec 2019 16:50:13.000,341.517,6.993,1666.525396
16 Dec 2019 16:50:14.000,341.765,7.015,1664.845702
16 Dec 2019 16:50:15.000,342.013,7.037,1663.193288
16 Dec 2019 16:50:16.000,342.261,7.059,1661.568240
16 Dec 2019 16:50:17.000,342.510,7.080,1659.970638
16 Dec 2019 16:50:18.000,342.760,7.101,1658.400565
16 Dec 2019 16:50:19.000,343.010,7.122,1656.858100
16 Dec 2019 16:50:20.000,343.260,7.142,1655.343322
16 Dec 2019 16:50:21.000,343.511,7.162,1653.856308
16 Dec 2019 16:50:22.000,343.763,7.182,1652.397137
16 Dec 2019 16:50:23.000,344.015,7.201,1650.965881
16 Dec 2019 16:50:24.000,344.267,7.220,1649.562617
16 Dec 2019 16:50:25.000,344.520,7.239,1648.187416
16 Dec 2019 16:50:26.000,344.773,7.257,1646.840352
16 Dec 2019 16:50:27.000,345.027,7.275,1645.521493
16 Dec 2019 16:50:28.000,345.281,7.293,1644.230910
16 Dec 2019 16:50:29.000,345.535,7.310,1642.968671
16 Dec 2019 16:50:30.000,345.790,7.327,1641.734842
16 Dec 2019 16:50:31.000,346.045,7.343,1640.529490
16 Dec 2019 16:50:32.000,346.301,7.359,1639.352676
16 Dec 2019 16:50:33.000,346.557,7.375,1638.204466
16 Dec 2019 16:50:34.000,346.813,7.390,1637.084920
16 Dec 2019 16:50:35.000,347.070,7.405,1635.994098
16 Dec 2019 16:50:36.000,347.327,7.419,1634.932059
16 Dec 2019 16:50:37.000,347.585,7.434,1633.898859
16 Dec 2019 16:50:38.000,347.843,7.447,1632.894556
16 Dec 2019 16:50:39.000,348.101,7.461,1631.919203
16 Dec 2019 16:50:40.000,348.359,7.474,1630.972853
16 Dec 2019 16:50:41.000,348.618,7.486,1630.055558
16 Dec 2019 16:50:42.000,348.877,7.499,1629.167368
16 Dec 2019 16:50:43.000,349.136,7.511,1628.308331
16 Dec 2019 16:50:44.000,349.396,7.522,1627.478495
16 Dec 2019 16:50:45.000,349.656,7.533,1626.677905
16 Dec 2019 16:50:46.000,349.916,7.544,1625.906605
16 Dec 2019 16:50:47.000,350.176,7.554,1625.164637
16 Dec 2019 16:50:48.000,350.437,7.564,1624.452044
16 Dec 2019 16:50:49.000,350.698,7.573,1623.768863
16 Dec 2019 16:50:50.000,350.959,7.582,1623.115132
16 Dec 2019 16:50:51.000,351.220,7.591,1622.490889
16 Dec 2019 16:50:52.000,351.481,7.599,1621.896167
16 Dec 2019 16:50:53.000,351.743,7.607,1621.331001
16 Dec 2019 16:50:54.000,352.005,7.615,1620.795420
16 Dec 2019 16:50:55.000,352.267,7.622,1620.289456
16 Dec 2019 16:50:56.000,352.529,7.628,1619.813136
16 Dec 2019 16:50:57.000,352.792,7.635,1619.366487
16 Dec 2019 16:50:58.000,353.054,7.641,1618.949534
16 Dec 2019 16:50:59.000,353.317,7.646,1618.562300
16 Dec 2019 16:51:00.000,353.579,7.651,1618.204808
16 Dec 2019 16:51:01.000,353.842,7.656,1617.877076
16 Dec 2019 16:51:02.000,354.105,7.660,1617.579124
16 Dec 2019 16:51:03.000,354.368,7.664,1617.310968
16 Dec 2019 16:51:04.000,354.632,7.667,1617.072623
16 Dec 2019 16:51:05.000,354.895,7.670,1616.864103
16 Dec 2019 16:51:06.000,355.158,7.673,1616.685419
16 Dec 2019 16:51:07.000,355.421,7.675,1616.536582
16 Dec 2019 16:51:08.000,355.685,7.676,1616.417599
16 Dec 2019 16:51:09.000,355.948,7.678,1616.328477
16 Dec 2019 16:51:10.000,356.212,7.679,1616.269222
16 Dec 2019 16:51:11.000,356.475,7.679,1616.239836
16 Dec 2019 16:51:12.000,356.739,7.679,1616.240321
16 Dec 2019 16:51:13.000,357.002,7.679,1616.270677
16 Dec 2019 16:51:14.000,357.266,7.678,1616.330902
16 Dec 2019 16:51:15.000,357.529,7.677,1616.420993
16 Dec 2019 16:51:16.000,357.793,7.675,1616.540945
16 Dec 2019 16:51:17.000,358.056,7.673,1616.690750
16 Dec 2019 16:51:18.000,358.319,7.671,1616.870400
16 Dec 2019 16:51:19.000,358.583,7.668,1617.079885
16 Dec 2019 16:51:20.000,358.846,7.665,1617.319193
16 Dec 2019 16:51:21.000,359.109,7.661,1617.588310
16 Dec 2019 16:51:22.000,359.372,7.657,1617.887222
16 Dec 2019 16:51:23.000,359.635,7.653,1618.215910
16 Dec 2019 16:51:24.000,359.897,7.648,1618.574357
16 Dec 2019 16:51:25.000,0.160,7.643,1618.962543
16 Dec 2019 16:51:26.000,0.423,7.637,1619.380444
16 Dec 2019 16:51:27.000,0.685,7.631,1619.828039
16 Dec 2019 16:51:28.000,0.947,7.624,1620.305301
16 Dec 2019 16:51:29.000,1.209,7.617,1620.812204
16 Dec 2019 16:51:30.000,1.471,7.610,1621.348719
16 Dec 2019 16:51:31.000,1.733,7.602,1621.914816
16 Dec 2019 16:51:32.000,1.994,7.594,1622.510464
16 Dec 2019 16:51:33.000,2.256,7.586,1623.135629
16 Dec 2019 16:51:34.000,2.517,7.577,1623.790277
16 Dec 2019 16:51:35.000,2.777,7.568,1624.474370
16 Dec 2019 16:51:36.000,3.038,7.558,1625.187872
16 Dec 2019 16:51:37.000,3.298,7.548,1625.930741
16 Dec 2019 16:51:38.000,3.559,7.537,1626.702937
16 Dec 2019 16:51:39.000,3.818,7.526,1627.504418
16 Dec 2019 16:51:40.000,4.078,7.515,1628.335139
16 Dec 2019 16:51:41.000,4.337,7.503,1629.195054
16 Dec 2019 16:51:42.000,4.596,7.491,1630.084116
16 Dec 2019 16:51:43.000,4.855,7.479,1631.002277
16 Dec 2019 16:51:44.000,5.113,7.466,1631.949486
16 Dec 2019 16:51:45.000,5.372,7.453,1632.925690
16 Dec 2019 16:51:46.000,5.629,7.439,1633.930839
16 Dec 2019 16:51:47.000,5.887,7.425,1634.964876
16 Dec 2019 16:51:48.000,6.144,7.410,1636.027744
16 Dec 2019 16:51:49.000,6.401,7.396,1637.119389
16 Dec 2019 16:51:50.000,6.657,7.381,1638.239750
16 Dec 2019 16:51:51.000,6.913,7.365,1639.388766
16 Dec 2019 16:51:52.000,7.169,7.349,1640.566377
16 Dec 2019 16:51:53.000,7.424,7.333,1641.772519
16 Dec 2019 16:51:54.000,7.679,7.316,1643.007129
16 Dec 2019 16:51:55.000,7.933,7.299,1644.270140
16 Dec 2019 16:51:56.000,8.187,7.282,1645.561485
16 Dec 2019 16:51:57.000,8.441,7.264,1646.881097
16 Dec 2019 16:51:58.000,8.694,7.246,1648.228906
16 Dec 2019 16:51:59.000,8.947,7.228,1649.604841
16 Dec 2019 16:52:00.000,9.199,7.209,1651.008830
16 Dec 2019 16:52:01.000,9.451,7.190,1652.440800
16 Dec 2019 16:52:02.000,9.703,7.170,1653.900677
16 Dec 2019 16:52:03.000,9.954,7.150,1655.388385
16 Dec 2019 16:52:04.000,10.204,7.130,1656.903847
16 Dec 2019 16:52:05.000,10.454,7.109,1658.446986
16 Dec 2019 16:52:06.000,10.704,7.089,1660.017721
16 Dec 2019 16:52:07.000,10.953,7.067,1661.615974
16 Dec 2019 16:52:08.000,11.201,7.046,1663.241663
16 Dec 2019 16:52:09.000,11.449,7.024,1664.894706
16 Dec 2019 16:52:10.000,11.697,7.002,1666.575019
16 Dec 2019 16:52:11.000,11.944,6.979,1668.282518
16 Dec 2019 16:52:12.000,12.190,6.956,1670.017118
16 Dec 2019 16:52:13.000,12.436,6.933,1671.778731
16 Dec 2019 16:52:14.000,12.682,6.909,1673.567272
16 Dec 2019 16:52:15.000,12.927,6.885,1675.382650
16 Dec 2019 16:52:16.000,13.171,6.861,1677.224778
16 Dec 2019 16:52:17.000,13.415,6.837,1679.093564
16 Dec 2019 16:52:18.000,13.658,6.812,1680.988918
16 Dec 2019 16:52:19.000,13.901,6.787,1682.910748
16 Dec 2019 16:52:20.000,14.143,6.761,1684.858960
16 Dec 2019 16:52:21.000,14.384,6.736,1686.833462
16 Dec 2019 16:52:22.000,14.625,6.710,1688.834159
16 Dec 2019 16:52:23.000,14.865,6.683,1690.860954
16 Dec 2019 16:52:24.000,15.105,6.657,1692.913752
16 Dec 2019 16:52:25.000,15.344,6.630,1694.992457
16 Dec 2019 16:52:26.000,15.583,6.603,1697.096970
16 Dec 2019 16:52:27.000,15.820,6.575,1699.227193
16 Dec 2019 16:52:28.000,16.058,6.547,1701.383028
16 Dec 2019 16:52:29.000,16.294,6.519,1703.564374
16 Dec 2019 16:52:30.000,16.530,6.491,1705.771130
16 Dec 2019 16:52:31.000,16.766,6.462,1708.003196
16 Dec 2019 16:52:32.000,17.001,6.433,1710.260471
16 Dec 2019 16:52:33.000,17.235,6.404,1712.542851
16 Dec 2019 16:52:34.000,17.468,6.375,1714.850233
16 Dec 2019 16:52:35.000,17.701,6.345,1717.182515
16 Dec 2019 16:52:36.000,17.933,6.315,1719.539593
16 Dec 2019 16:52:37.000,18.165,6.285,1721.921361
16 Dec 2019 16:52:38.000,18.396,6.254,1724.327715
16 Dec 2019 16:52:39.000,18.626,6.224,1726.758548
16 Dec 2019 16:52:40.000,18.855,6.193,1729.213755
16 Dec 2019 16:52:41.000,19.084,6.162,1731.693230
16 Dec 2019 16:52:42.000,19.312,6.130,1734.196865
16 Dec 2019 16:52:43.000,19.540,6.098,1736.724553
16 Dec 2019 16:52:44.000,19.767,6.066,1739.276185
16 Dec 2019 16:52:45.000,19.993,6.034,1741.851654
16 Dec 2019 16:52:46.000,20.218,6.002,1744.450852
16 Dec 2019 16:52:47.000,20.443,5.969,1747.073669
16 Dec 2019 16:52:48.000,20.667,5.936,1749.719997
16 Dec 2019 16:52:49.000,20.890,5.903,1752.389724
16 Dec 2019 16:52:50.000,21.113,5.870,1755.082742
16 Dec 2019 16:52:51.000,21.335,5.836,1757.798940
16 Dec 2019 16:52:52.000,21.556,5.803,1760.538208
16 Dec 2019 16:52:53.000,21.777,5.769,1763.300435
16 Dec 2019 16:52:54.000,21.997,5.734,1766.085510
16 Dec 2019 16:52:55.000,22.216,5.700,1768.893322
16 Dec 2019 16:52:56.000,22.434,5.665,1771.723760
16 Dec 2019 16:52:57.000,22.652,5.631,1774.576711
16 Dec 2019 16:52:58.000,22.869,5.596,1777.452066
16 Dec 2019 16:52:59.000,23.085,5.560,1780.349710
16 Dec 2019 16:53:00.000,23.301,5.525,1783.269533
16 Dec 2019 16:53:01.000,23.516,5.489,1786.211422
16 Dec 2019 16:53:02.000,23.730,5.454,1789.175264
16 Dec 2019 16:53:03.000,23.943,5.418,1792.160949
16 Dec 2019 16:53:04.000,24.156,5.381,1795.168362
16 Dec 2019 16:53:05.000,24.368,5.345,1798.197392
16 Dec 2019 16:53:06.000,24.579,5.309,1801.247926
16 Dec 2019 16:53:07.000,24.790,5.272,1804.319851
16 Dec 2019 16:53:08.000,24.999,5.235,1807.413055
16 Dec 2019 16:53:09.000,25.208,5.198,1810.527425
16 Dec 2019 16:53:10.000,25.417,5.161,1813.662849
16 Dec 2019 16:53:11.000,25.624,5.123,1816.819213
16 Dec 2019 16:53:12.000,25.831,5.086,1819.996405
16 Dec 2019 16:53:13.000,26.037,5.048,1823.194313
16 Dec 2019 16:53:14.000,26.242,5.010,1826.412823
16 Dec 2019 16:53:15.000,26.447,4.972,1829.651824
16 Dec 2019 16:53:16.000,26.651,4.934,1832.911203
16 Dec 2019 16:53:17.000,26.854,4.896,1836.190848
16 Dec 2019 16:53:18.000,27.057,4.857,1839.490647
16 Dec 2019 16:53:19.000,27.258,4.819,1842.810487
16 Dec 2019 16:53:20.000,27.459,4.780,1846.150257
16 Dec 2019 16:53:21.000,27.659,4.741,1849.509842
16 Dec 2019 16:53:22.000,27.859,4.702,1852.889135
16 Dec 2019 16:53:23.000,28.058,4.663,1856.288023
16 Dec 2019 16:53:24.000,28.255,4.624,1859.706393
16 Dec 2019 16:53:25.000,28.453,4.584,1863.144136
16 Dec 2019 16:53:26.000,28.649,4.545,1866.601139
16 Dec 2019 16:53:27.000,28.845,4.505,1870.077292
16 Dec 2019 16:53:28.000,29.040,4.465,1873.572483
16 Dec 2019 16:53:29.000,29.234,4.425,1877.086604
16 Dec 2019 16:53:30.000,29.428,4.385,1880.619544
16 Dec 2019 16:53:31.000,29.621,4.345,1884.171193
16 Dec 2019 16:53:32.000,29.813,4.304,1887.741441
16 Dec 2019 16:53:33.000,30.004,4.264,1891.330178
16 Dec 2019 16:53:34.000,30.195,4.223,1894.937294
16 Dec 2019 16:53:35.000,30.385,4.183,1898.562684
16 Dec 2019 16:53:36.000,30.574,4.142,1902.206236
16 Dec 2019 16:53:37.000,30.762,4.101,1905.867842
16 Dec 2019 16:53:38.000,30.950,4.060,1909.547393
16 Dec 2019 16:53:39.000,31.137,4.019,1913.244784
16 Dec 2019 16:53:40.000,31.323,3.978,1916.959906
16 Dec 2019 16:53:41.000,31.509,3.937,1920.692652
16 Dec 2019 16:53:42.000,31.693,3.895,1924.442914
16 Dec 2019 16:53:43.000,31.878,3.854,1928.210585
16 Dec 2019 16:53:44.000,32.061,3.812,1931.995562
16 Dec 2019 16:53:45.000,32.244,3.771,1935.797737
16 Dec 2019 16:53:46.000,32.425,3.729,1939.617003
16 Dec 2019 16:53:47.000,32.607,3.687,1943.453259
16 Dec 2019 16:53:48.000,32.787,3.645,1947.306396
16 Dec 2019 16:53:49.000,32.967,3.603,1951.176312
16 Dec 2019 16:53:50.000,33.146,3.561,1955.062901
16 Dec 2019 16:53:51.000,33.324,3.519,1958.966061
16 Dec 2019 16:53:52.000,33.502,3.477,1962.885688
16 Dec 2019 16:53:53.000,33.679,3.435,1966.821677
16 Dec 2019 16:53:54.000,33.855,3.392,1970.773930
16 Dec 2019 16:53:55.000,34.030,3.350,1974.742341
16 Dec 2019 16:53:56.000,34.205,3.307,1978.726808
16 Dec 2019 16:53:57.000,34.379,3.265,1982.727233
16 Dec 2019 16:53:58.000,34.552,3.222,1986.743512
16 Dec 2019 16:53:59.000,34.725,3.179,1990.775544
16 Dec 2019 16:54:00.000,34.897,3.136,1994.823232
16 Dec 2019 16:54:01.000,35.068,3.094,1998.886474
16 Dec 2019 16:54:02.000,35.239,3.051,2002.965169
16 Dec 2019 16:54:03.000,35.409,3.008,2007.059223
16 Dec 2019 16:54:04.000,35.578,2.965,2011.168533
16 Dec 2019 16:54:05.000,35.746,2.922,2015.293001
16 Dec 2019 16:54:06.000,35.914,2.878,2019.432533
16 Dec 2019 16:54:07.000,36.081,2.835,2023.587027
16 Dec 2019 16:54:08.000,36.248,2.792,2027.756391
16 Dec 2019 16:54:09.000,36.413,2.749,2031.940526
16 Dec 2019 16:54:10.000,36.579,2.705,2036.139335
16 Dec 2019 16:54:11.000,36.743,2.662,2040.352726
16 Dec 2019 16:54:12.000,36.907,2.619,2044.580602
16 Dec 2019 16:54:13.000,37.070,2.575,2048.822866
16 Dec 2019 16:54:14.000,37.232,2.531,2053.079429
16 Dec 2019 16:54:15.000,37.394,2.488,2057.350192
16 Dec 2019 16:54:16.000,37.555,2.444,2061.635067
16 Dec 2019 16:54:17.000,37.715,2.401,2065.933957
16 Dec 2019 16:54:18.000,37.875,2.357,2070.246773
16 Dec 2019 16:54:19.000,38.034,2.313,2074.573422
16 Dec 2019 16:54:20.000,38.192,2.269,2078.913810
16 Dec 2019 16:54:21.000,38.350,2.226,2083.267851
16 Dec 2019 16:54:22.000,38.507,2.182,2087.635449
16 Dec 2019 16:54:23.000,38.664,2.138,2092.016520
16 Dec 2019 16:54:24.000,38.819,2.094,2096.410969
16 Dec 2019 16:54:25.000,38.974,2.050,2100.818711
16 Dec 2019 16:54:26.000,39.129,2.006,2105.239654
16 Dec 2019 16:54:27.000,39.283,1.962,2109.673715
16 Dec 2019 16:54:28.000,39.436,1.918,2114.120800
16 Dec 2019 16:54:29.000,39.589,1.874,2118.580827
16 Dec 2019 16:54:30.000,39.740,1.830,2123.053705
16 Dec 2019 16:54:31.000,39.892,1.786,2127.539353
16 Dec 2019 16:54:32.000,40.042,1.742,2132.037679
16 Dec 2019 16:54:33.000,40.192,1.698,2136.548604
16 Dec 2019 16:54:34.000,40.342,1.654,2141.072038
16 Dec 2019 16:54:35.000,40.491,1.609,2145.607901
16 Dec 2019 16:54:36.000,40.639,1.565,2150.156104
16 Dec 2019 16:54:37.000,40.786,1.521,2154.716569
16 Dec 2019 16:54:38.000,40.933,1.477,2159.289209
16 Dec 2019 16:54:39.000,41.080,1.432,2163.873945
16 Dec 2019 16:54:40.000,41.225,1.388,2168.470691
16 Dec 2019 16:54:41.000,41.370,1.344,2173.079370
16 Dec 2019 16:54:42.000,41.515,1.300,2177.699895
16 Dec 2019 16:54:43.000,41.659,1.255,2182.332193
16 Dec 2019 16:54:44.000,41.802,1.211,2186.976176
16 Dec 2019 16:54:45.000,41.945,1.167,2191.631772
16 Dec 2019 16:54:46.000,42.087,1.122,2196.298894
16 Dec 2019 16:54:47.000,42.229,1.078,2200.977468
16 Dec 2019 16:54:48.000,42.369,1.034,2205.667418
16 Dec 2019 16:54:49.000,42.510,0.989,2210.368660
16 Dec 2019 16:54:50.000,42.650,0.945,2215.081122
16 Dec 2019 16:54:51.000,42.789,0.901,2219.804723
16 Dec 2019 16:54:52.000,42.927,0.856,2224.539391
16 Dec 2019 16:54:53.000,43.065,0.812,2229.285045
16 Dec 2019 16:54:54.000,43.203,0.768,2234.041612
16 Dec 2019 16:54:55.000,43.340,0.723,2238.809020
16 Dec 2019 16:54:56.000,43.476,0.679,2243.587189
16 Dec 2019 16:54:57.000,43.612,0.634,2248.376049
16 Dec 2019 16:54:58.000,43.747,0.590,2253.175523
16 Dec 2019 16:54:59.000,43.881,0.546,2257.985539
16 Dec 2019 16:55:00.000,44.015,0.501,2262.806027
16 Dec 2019 16:55:01.000,44.149,0.457,2267.636910
16 Dec 2019 16:55:02.000,44.282,0.412,2272.478121
16 Dec 2019 16:55:03.000,44.414,0.368,2277.329583
16 Dec 2019 16:55:04.000,44.546,0.324,2282.191229
16 Dec 2019 16:55:05.000,44.677,0.279,2287.062990
16 Dec 2019 16:55:06.000,44.808,0.235,2291.944790
16 Dec 2019 16:55:07.000,44.938,0.191,2296.836563
16 Dec 2019 16:55:08.000,45.068,0.146,2301.738243
16 Dec 2019 16:55:09.000,45.197,0.102,2306.649754
16 Dec 2019 16:55:10.000,45.325,0.058,2311.571035
16 Dec 2019 16:55:11.000,45.453,0.013,2316.502012
16 Dec 2019 16:55:12.000,45.581,-0.031,2321.442619
16 Dec 2019 16:55:13.000,45.708,-0.075,2326.392793
16 Dec 2019 16:55:14.000,45.834,-0.120,2331.352462
16 Dec 2019 16:55:14.098,45.847,-0.124,2331.840425
16 Dec 2019 18:24:24.040,319.855,-0.124,2331.576240
16 Dec 2019 18:24:25.000,319.957,-0.076,2326.195161
16 Dec 2019 18:24:26.000,320.064,-0.026,2320.596375
16 Dec 2019 18:24:27.000,320.171,0.024,2315.004278
16 Dec 2019 18:24:28.000,320.279,0.075,2309.418924
16 Dec 2019 18:24:29.000,320.387,0.125,2303.840371
16 Dec 2019 18:24:30.000,320.496,0.175,2298.268671
16 Dec 2019 18:24:31.000,320.606,0.226,2292.703884
16 Dec 2019 18:24:32.000,320.716,0.276,2287.146065
16 Dec 2019 18:24:33.000,320.826,0.327,2281.595273
16 Dec 2019 18:24:34.000,320.937,0.377,2276.051565
16 Dec 2019 18:24:35.000,321.048,0.428,2270.515001
16 Dec 2019 18:24:36.000,321.160,0.479,2264.985640
16 Dec 2019 18:24:37.000,321.273,0.530,2259.463539
16 Dec 2019 18:24:38.000,321.386,0.581,2253.948759
16 Dec 2019 18:24:39.000,321.500,0.632,2248.441361
16 Dec 2019 18:24:40.000,321.614,0.683,2242.941406
16 Dec 2019 18:24:41.000,321.728,0.734,2237.448955
16 Dec 2019 18:24:42.000,321.844,0.785,2231.964073
16 Dec 2019 18:24:43.000,321.959,0.836,2226.486816
16 Dec 2019 18:24:44.000,322.076,0.887,2221.017252
16 Dec 2019 18:24:45.000,322.193,0.938,2215.555442
16 Dec 2019 18:24:46.000,322.310,0.990,2210.101452
16 Dec 2019 18:24:47.000,322.428,1.041,2204.655345
16 Dec 2019 18:24:48.000,322.547,1.093,2199.217188
16 Dec 2019 18:24:49.000,322.666,1.144,2193.787044
16 Dec 2019 18:24:50.000,322.786,1.196,2188.364981
16 Dec 2019 18:24:51.000,322.906,1.247,2182.951064
16 Dec 2019 18:24:52.000,323.027,1.299,2177.545361
16 Dec 2019 18:24:53.000,323.149,1.351,2172.147943
16 Dec 2019 18:24:54.000,323.271,1.403,2166.758873
16 Dec 2019 18:24:55.000,323.393,1.455,2161.378222
16 Dec 2019 18:24:56.000,323.517,1.507,2156.006060
16 Dec 2019 18:24:57.000,323.641,1.559,2150.642457
16 Dec 2019 18:24:58.000,323.765,1.611,2145.287485
16 Dec 2019 18:24:59.000,323.890,1.663,2139.941212
16 Dec 2019 18:25:00.000,324.016,1.715,2134.603711
16 Dec 2019 18:25:01.000,324.142,1.767,2129.275054
16 Dec 2019 18:25:02.000,324.269,1.819,2123.955315
16 Dec 2019 18:25:03.000,324.397,1.872,2118.644569
16 Dec 2019 18:25:04.000,324.525,1.924,2113.342887
16 Dec 2019 18:25:05.000,324.654,1.976,2108.050344
16 Dec 2019 18:25:06.000,324.784,2.029,2102.767016
16 Dec 2019 18:25:07.000,324.914,2.081,2097.492982
16 Dec 2019 18:25:08.000,325.045,2.134,2092.228314
16 Dec 2019 18:25:09.000,325.176,2.187,2086.973090
16 Dec 2019 18:25:10.000,325.308,2.239,2081.727389
16 Dec 2019 18:25:11.000,325.441,2.292,2076.491292
16 Dec 2019 18:25:12.000,325.574,2.345,2071.264873
16 Dec 2019 18:25:13.000,325.708,2.398,2066.048214
16 Dec 2019 18:25:14.000,325.843,2.451,2060.841395
16 Dec 2019 18:25:15.000,325.979,2.504,2055.644500
16 Dec 2019 18:25:16.000,326.115,2.557,2050.457606
16 Dec 2019 18:25:17.000,326.252,2.610,2045.280797
16 Dec 2019 18:25:18.000,326.389,2.663,2040.114156
16 Dec 2019 18:25:19.000,326.527,2.716,2034.957770
16 Dec 2019 18:25:20.000,326.666,2.769,2029.811718
16 Dec 2019 18:25:21.000,326.806,2.823,2024.676087
16 Dec 2019 18:25:22.000,326.946,2.876,2019.550965
16 Dec 2019 18:25:23.000,327.087,2.929,2014.436435
16 Dec 2019 18:25:24.000,327.229,2.983,2009.332584
16 Dec 2019 18:25:25.000,327.371,3.036,2004.239502
16 Dec 2019 18:25:26.000,327.514,3.089,1999.157278
16 Dec 2019 18:25:27.000,327.658,3.143,1994.085998
16 Dec 2019 18:25:28.000,327.803,3.196,1989.025753
16 Dec 2019 18:25:29.000,327.948,3.250,1983.976635
16 Dec 2019 18:25:30.000,328.094,3.304,1978.938733
16 Dec 2019 18:25:31.000,328.241,3.357,1973.912140
16 Dec 2019 18:25:32.000,328.388,3.411,1968.896951
16 Dec 2019 18:25:33.000,328.537,3.465,1963.893254
16 Dec 2019 18:25:34.000,328.686,3.519,1958.901147
16 Dec 2019 18:25:35.000,328.836,3.573,1953.920726
16 Dec 2019 18:25:36.000,328.986,3.626,1948.952082
16 Dec 2019 18:25:37.000,329.138,3.680,1943.995314
16 Dec 2019 18:25:38.000,329.290,3.734,1939.050520
16 Dec 2019 18:25:39.000,329.443,3.788,1934.117796
16 Dec 2019 18:25:40.000,329.596,3.842,1929.197240
16 Dec 2019 18:25:41.000,329.751,3.896,1924.288955
16 Dec 2019 18:25:42.000,329.906,3.950,1919.393036
16 Dec 2019 18:25:43.000,330.062,4.004,1914.509589
16 Dec 2019 18:25:44.000,330.219,4.058,1909.638710
16 Dec 2019 18:25:45.000,330.377,4.113,1904.780504
16 Dec 2019 18:25:46.000,330.535,4.167,1899.935076
16 Dec 2019 18:25:47.000,330.694,4.221,1895.102527
16 Dec 2019 18:25:48.000,330.855,4.275,1890.282962
16 Dec 2019 18:25:49.000,331.015,4.329,1885.476488
16 Dec 2019 18:25:50.000,331.177,4.384,1880.683209
16 Dec 2019 18:25:51.000,331.340,4.438,1875.903235
16 Dec 2019 18:25:52.000,331.503,4.492,1871.136670
16 Dec 2019 18:25:53.000,331.668,4.547,1866.383623
16 Dec 2019 18:25:54.000,331.833,4.601,1861.644208
16 Dec 2019 18:25:55.000,331.999,4.655,1856.918529
16 Dec 2019 18:25:56.000,332.165,4.710,1852.206701
16 Dec 2019 18:25:57.000,332.333,4.764,1847.508832
16 Dec 2019 18:25:58.000,332.502,4.818,1842.825039
16 Dec 2019 18:25:59.000,332.671,4.873,1838.155431
16 Dec 2019 18:26:00.000,332.841,4.927,1833.500124
16 Dec 2019 18:26:01.000,333.012,4.982,1828.859234
16 Dec 2019 18:26:02.000,333.184,5.036,1824.232873
16 Dec 2019 18:26:03.000,333.357,5.090,1819.621162
16 Dec 2019 18:26:04.000,333.531,5.145,1815.024214
16 Dec 2019 18:26:05.000,333.706,5.199,1810.442151
16 Dec 2019 18:26:06.000,333.881,5.254,1805.875088
16 Dec 2019 18:26:07.000,334.058,5.308,1801.323149
16 Dec 2019 18:26:08.000,334.235,5.362,1796.786449
16 Dec 2019 18:26:09.000,334.414,5.417,1792.265114
16 Dec 2019 18:26:10.000,334.593,5.471,1787.759263
16 Dec 2019 18:26:11.000,334.773,5.525,1783.269021
16 Dec 2019 18:26:12.000,334.954,5.580,1778.794510
16 Dec 2019 18:26:13.000,335.136,5.634,1774.335856
16 Dec 2019 18:26:14.000,335.319,5.688,1769.893181
16 Dec 2019 18:26:15.000,335.503,5.743,1765.466616
16 Dec 2019 18:26:16.000,335.688,5.797,1761.056284
16 Dec 2019 18:26:17.000,335.873,5.851,1756.662314
16 Dec 2019 18:26:18.000,336.060,5.905,1752.284834
16 Dec 2019 18:26:19.000,336.248,5.960,1747.923974
16 Dec 2019 18:26:20.000,336.436,6.014,1743.579863
16 Dec 2019 18:26:21.000,336.626,6.068,1739.252633
16 Dec 2019 18:26:22.000,336.816,6.122,1734.942415
16 Dec 2019 18:26:23.000,337.008,6.176,1730.649340
16 Dec 2019 18:26:24.000,337.200,6.230,1726.373543
16 Dec 2019 18:26:25.000,337.394,6.284,1722.115156
16 Dec 2019 18:26:26.000,337.588,6.338,1717.874317
16 Dec 2019 18:26:27.000,337.784,6.392,1713.651157
16 Dec 2019 18:26:28.000,337.980,6.445,1709.445816
16 Dec 2019 18:26:29.000,338.177,6.499,1705.258430
16 Dec 2019 18:26:30.000,338.376,6.553,1701.089134
16 Dec 2019 18:26:31.000,338.575,6.606,1696.938071
16 Dec 2019 18:26:32.000,338.776,6.660,1692.805376
16 Dec 2019 18:26:33.000,338.977,6.714,1688.691191
16 Dec 2019 18:26:34.000,339.179,6.767,1684.595657
16 Dec 2019 18:26:35.000,339.383,6.820,1680.518914
16 Dec 2019 18:26:36.000,339.587,6.874,1676.461105
16 Dec 2019 18:26:37.000,339.793,6.927,1672.422373
16 Dec 2019 18:26:38.000,339.999,6.980,1668.402860
16 Dec 2019 18:26:39.000,340.207,7.033,1664.402712
16 Dec 2019 18:26:40.000,340.415,7.086,1660.422073
16 Dec 2019 18:26:41.000,340.625,7.139,1656.461087
16 Dec 2019 18:26:42.000,340.835,7.192,1652.519904
16 Dec 2019 18:26:43.000,341.047,7.244,1648.598668
16 Dec 2019 18:26:44.000,341.259,7.297,1644.697525
16 Dec 2019 18:26:45.000,341.473,7.350,1640.816628
16 Dec 2019 18:26:46.000,341.688,7.402,1636.956122
16 Dec 2019 18:26:47.000,341.904,7.454,1633.116156
16 Dec 2019 18:26:48.000,342.121,7.506,1629.296882
16 Dec 2019 18:26:49.000,342.338,7.558,1625.498450
16 Dec 2019 18:26:50.000,342.557,7.610,1621.721011
16 Dec 2019 18:26:51.000,342.777,7.662,1617.964716
16 Dec 2019 18:26:52.000,342.998,7.714,1614.229718
16 Dec 2019 18:26:53.000,343.221,7.765,1610.516170
16 Dec 2019 18:26:54.000,343.444,7.817,1606.824225
16 Dec 2019 18:26:55.000,343.668,7.868,1603.154036
16 Dec 2019 18:26:56.000,343.893,7.919,1599.505758
16 Dec 2019 18:26:57.000,344.120,7.970,1595.879546
16 Dec 2019 18:26:58.000,344.347,8.021,1592.275555
16 Dec 2019 18:26:59.000,344.576,8.072,1588.693941
16 Dec 2019 18:27:00.000,344.805,8.122,1585.134859
16 Dec 2019 18:27:01.000,345.036,8.173,1581.598467
16 Dec 2019 18:27:02.000,345.268,8.223,1578.084921
16 Dec 2019 18:27:03.000,345.500,8.273,1574.594378
16 Dec 2019 18:27:04.000,345.734,8.323,1571.126997
16 Dec 2019 18:27:05.000,345.969,8.372,1567.682935
16 Dec 2019 18:27:06.000,346.205,8.422,1564.262349
16 Dec 2019 18:27:07.000,346.442,8.471,1560.865400
16 Dec 2019 18:27:08.000,346.681,8.520,1557.492246
16 Dec 2019 18:27:09.000,346.920,8.569,1554.143046
16 Dec 2019 18:27:10.000,347.160,8.618,1550.817960
16 Dec 2019 18:27:11.000,347.402,8.666,1547.517146
16 Dec 2019 18:27:12.000,347.644,8.715,1544.240765
16 Dec 2019 18:27:13.000,347.888,8.763,1540.988977
16 Dec 2019 18:27:14.000,348.132,8.811,1537.761941
16 Dec 2019 18:27:15.000,348.378,8.858,1534.559818
16 Dec 2019 18:27:16.000,348.625,8.906,1531.382768
16 Dec 2019 18:27:17.000,348.873,8.953,1528.230952
16 Dec 2019 18:27:18.000,349.122,9.000,1525.104530
16 Dec 2019 18:27:19.000,349.372,9.046,1522.003663
16 Dec 2019 18:27:20.000,349.623,9.093,1518.928510
16 Dec 2019 18:27:21.000,349.875,9.139,1515.879232
16 Dec 2019 18:27:22.000,350.128,9.185,1512.855989
16 Dec 2019 18:27:23.000,350.382,9.230,1509.858942
16 Dec 2019 18:27:24.000,350.637,9.276,1506.888251
16 Dec 2019 18:27:25.000,350.894,9.321,1503.944075
16 Dec 2019 18:27:26.000,351.151,9.366,1501.026574
16 Dec 2019 18:27:27.000,351.410,9.410,1498.135909
16 Dec 2019 18:27:28.000,351.669,9.454,1495.272237
16 Dec 2019 18:27:29.000,351.930,9.498,1492.435719
16 Dec 2019 18:27:30.000,352.191,9.542,1489.626512
16 Dec 2019 18:27:31.000,352.454,9.585,1486.844776
16 Dec 2019 18:27:32.000,352.718,9.628,1484.090667
16 Dec 2019 18:27:33.000,352.982,9.671,1481.364345
16 Dec 2019 18:27:34.000,353.248,9.713,1478.665965
16 Dec 2019 18:27:35.000,353.515,9.755,1475.995685
16 Dec 2019 18:27:36.000,353.783,9.797,1473.353660
16 Dec 2019 18:27:37.000,354.051,9.838,1470.740048
16 Dec 2019 18:27:38.000,354.321,9.879,1468.155001
16 Dec 2019 18:27:39.000,354.592,9.920,1465.598676
16 Dec 2019 18:27:40.000,354.864,9.960,1463.071225
16 Dec 2019 18:27:41.000,355.137,10.000,1460.572802
16 Dec 2019 18:27:42.000,355.410,10.040,1458.103560
16 Dec 2019 18:27:43.000,355.685,10.079,1455.663650
16 Dec 2019 18:27:44.000,355.961,10.118,1453.253222
16 Dec 2019 18:27:45.000,356.237,10.157,1450.872427
16 Dec 2019 18:27:46.000,356.515,10.195,1448.521415
16 Dec 2019 18:27:47.000,356.794,10.232,1446.200333
16 Dec 2019 18:27:48.000,357.073,10.270,1443.909329
16 Dec 2019 18:27:49.000,357.354,10.306,1441.648548
16 Dec 2019 18:27:50.000,357.635,10.343,1439.418138
16 Dec 2019 18:27:51.000,357.917,10.379,1437.218241
16 Dec 2019 18:27:52.000,358.201,10.415,1435.049001
16 Dec 2019 18:27:53.000,358.485,10.450,1432.910560
16 Dec 2019 18:27:54.000,358.770,10.485,1430.803059
16 Dec 2019 18:27:55.000,359.056,10.519,1428.726637
16 Dec 2019 18:27:56.000,359.342,10.553,1426.681434
16 Dec 2019 18:27:57.000,359.630,10.586,1424.667585
16 Dec 2019 18:27:58.000,359.919,10.619,1422.685228
16 Dec 2019 18:27:59.000,0.208,10.652,1420.734496
16 Dec 2019 18:28:00.000,0.498,10.684,1418.815523
16 Dec 2019 18:28:01.000,0.789,10.715,1416.928439
16 Dec 2019 18:28:02.000,1.081,10.746,1415.073376
16 Dec 2019 18:28:03.000,1.374,10.777,1413.250461
16 Dec 2019 18:28:04.000,1.667,10.807,1411.459822
16 Dec 2019 18:28:05.000,1.962,10.837,1409.701584
16 Dec 2019 18:28:06.000,2.257,10.866,1407.975871
16 Dec 2019 18:28:07.000,2.552,10.895,1406.282804
16 Dec 2019 18:28:08.000,2.849,10.923,1404.622505
16 Dec 2019 18:28:09.000,3.146,10.951,1402.995092
16 Dec 2019 18:28:10.000,3.444,10.978,1401.400681
16 Dec 2019 18:28:11.000,3.743,11.004,1399.839388
16 Dec 2019 18:28:12.000,4.043,11.030,1398.311325
16 Dec 2019 18:28:13.000,4.343,11.056,1396.816604
16 Dec 2019 18:28:14.000,4.644,11.081,1395.355334
16 Dec 2019 18:28:15.000,4.945,11.105,1393.927623
16 Dec 2019 18:28:16.000,5.247,11.129,1392.533574
16 Dec 2019 18:28:17.000,5.550,11.153,1391.173293
16 Dec 2019 18:28:18.000,5.854,11.176,1389.846878
16 Dec 2019 18:28:19.000,6.158,11.198,1388.554431
16 Dec 2019 18:28:20.000,6.462,11.220,1387.296046
16 Dec 2019 18:28:21.000,6.767,11.241,1386.071820
16 Dec 2019 18:28:22.000,7.073,11.262,1384.881844
16 Dec 2019 18:28:23.000,7.380,11.282,1383.726208
16 Dec 2019 18:28:24.000,7.687,11.301,1382.605000
16 Dec 2019 18:28:25.000,7.994,11.320,1381.518305
16 Dec 2019 18:28:26.000,8.302,11.338,1380.466208
16 Dec 2019 18:28:27.000,8.610,11.356,1379.448787
16 Dec 2019 18:28:28.000,8.919,11.373,1378.466123
16 Dec 2019 18:28:29.000,9.229,11.390,1377.518289
16 Dec 2019 18:28:30.000,9.538,11.406,1376.605361
16 Dec 2019 18:28:31.000,9.849,11.421,1375.727408
16 Dec 2019 18:28:32.000,10.159,11.436,1374.884500
16 Dec 2019 18:28:33.000,10.470,11.450,1374.076701
16 Dec 2019 18:28:34.000,10.782,11.463,1373.304076
16 Dec 2019 18:28:35.000,11.094,11.476,1372.566685
16 Dec 2019 18:28:36.000,11.406,11.489,1371.864585
16 Dec 2019 18:28:37.000,11.718,11.500,1371.197832
16 Dec 2019 18:28:38.000,12.031,11.511,1370.566480
16 Dec 2019 18:28:39.000,12.344,11.522,1369.970577
16 Dec 2019 18:28:40.000,12.658,11.532,1369.410172
16 Dec 2019 18:28:41.000,12.971,11.541,1368.885308
16 Dec 2019 18:28:42.000,13.285,11.549,1368.396028
16 Dec 2019 18:28:43.000,13.600,11.557,1367.942371
16 Dec 2019 18:28:44.000,13.914,11.565,1367.524373
16 Dec 2019 18:28:45.000,14.228,11.572,1367.142068
16 Dec 2019 18:28:46.000,14.543,11.578,1366.795485
16 Dec 2019 18:28:47.000,14.858,11.583,1366.484655
16 Dec 2019 18:28:48.000,15.173,11.588,1366.209600
16 Dec 2019 18:28:49.000,15.488,11.592,1365.970344
16 Dec 2019 18:28:50.000,15.804,11.596,1365.766906
16 Dec 2019 18:28:51.000,16.119,11.598,1365.599303
16 Dec 2019 18:28:52.000,16.435,11.601,1365.467549
16 Dec 2019 18:28:53.000,16.750,11.602,1365.371654
16 Dec 2019 18:28:54.000,17.066,11.603,1365.311626
16 Dec 2019 18:28:55.000,17.381,11.604,1365.287470
16 Dec 2019 18:28:56.000,17.697,11.603,1365.299190
16 Dec 2019 18:28:57.000,18.012,11.602,1365.346783
16 Dec 2019 18:28:58.000,18.328,11.601,1365.430248
16 Dec 2019 18:28:59.000,18.643,11.599,1365.549576
16 Dec 2019 18:29:00.000,18.959,11.596,1365.704760
16 Dec 2019 18:29:01.000,19.274,11.592,1365.895787
16 Dec 2019 18:29:02.000,19.589,11.588,1366.122643
16 Dec 2019 18:29:03.000,19.905,11.583,1366.385308
16 Dec 2019 18:29:04.000,20.220,11.578,1366.683764
16 Dec 2019 18:29:05.000,20.534,11.572,1367.017986
16 Dec 2019 18:29:06.000,20.849,11.565,1367.387949
16 Dec 2019 18:29:07.000,21.163,11.558,1367.793622
16 Dec 2019 18:29:08.000,21.478,11.550,1368.234975
16 Dec 2019 18:29:09.000,21.792,11.542,1368.711971
16 Dec 2019 18:29:10.000,22.106,11.533,1369.224575
16 Dec 2019 18:29:11.000,22.419,11.523,1369.772747
16 Dec 2019 18:29:12.000,22.732,11.512,1370.356442
16 Dec 2019 18:29:13.000,23.045,11.501,1370.975615
16 Dec 2019 18:29:14.000,23.358,11.490,1371.630217
16 Dec 2019 18:29:15.000,23.670,11.477,1372.320199
16 Dec 2019 18:29:16.000,23.982,11.465,1373.045506
16 Dec 2019 18:29:17.000,24.294,11.451,1373.806081
16 Dec 2019 18:29:18.000,24.605,11.437,1374.601866
16 Dec 2019 18:29:19.000,24.916,11.422,1375.432797
16 Dec 2019 18:29:20.000,25.226,11.407,1376.298813
16 Dec 2019 18:29:21.000,25.536,11.391,1377.199845
16 Dec 2019 18:29:22.000,25.846,11.375,1378.135824
16 Dec 2019 18:29:23.000,26.155,11.357,1379.106679
16 Dec 2019 18:29:24.000,26.463,11.340,1380.112335
16 Dec 2019 18:29:25.000,26.771,11.321,1381.152713
16 Dec 2019 18:29:26.000,27.079,11.303,1382.227739
16 Dec 2019 18:29:27.000,27.386,11.283,1383.337327
16 Dec 2019 18:29:28.000,27.693,11.263,1384.481393
16 Dec 2019 18:29:29.000,27.999,11.243,1385.659853
16 Dec 2019 18:29:30.000,28.304,11.221,1386.872618
16 Dec 2019 18:29:31.000,28.609,11.200,1388.119594
16 Dec 2019 18:29:32.000,28.913,11.177,1389.400691
16 Dec 2019 18:29:33.000,29.217,11.155,1390.715812
16 Dec 2019 18:29:34.000,29.520,11.131,1392.064861
16 Dec 2019 18:29:35.000,29.822,11.107,1393.447735
16 Dec 2019 18:29:36.000,30.124,11.083,1394.864337
16 Dec 2019 18:29:37.000,30.425,11.058,1396.314558
16 Dec 2019 18:29:38.000,30.725,11.032,1397.798296
16 Dec 2019 18:29:39.000,31.025,11.006,1399.315440
16 Dec 2019 18:29:40.000,31.324,10.980,1400.865883
16 Dec 2019 18:29:41.000,31.622,10.953,1402.449510
16 Dec 2019 18:29:42.000,31.920,10.925,1404.066210
16 Dec 2019 18:29:43.000,32.217,10.897,1405.715865
16 Dec 2019 18:29:44.000,32.513,10.868,1407.398360
16 Dec 2019 18:29:45.000,32.808,10.839,1409.113573
16 Dec 2019 18:29:46.000,33.103,10.809,1410.861387
16 Dec 2019 18:29:47.000,33.396,10.779,1412.641674
16 Dec 2019 18:29:48.000,33.689,10.748,1414.454313
16 Dec 2019 18:29:49.000,33.981,10.717,1416.299179
16 Dec 2019 18:29:50.000,34.273,10.686,1418.176142
16 Dec 2019 18:29:51.000,34.563,10.654,1420.085075
16 Dec 2019 18:29:52.000,34.853,10.621,1422.025845
16 Dec 2019 18:29:53.000,35.142,10.588,1423.998320
16 Dec 2019 18:29:54.000,35.430,10.555,1426.002371
16 Dec 2019 18:29:55.000,35.717,10.521,1428.037857
16 Dec 2019 18:29:56.000,36.003,10.487,1430.104645
16 Dec 2019 18:29:57.000,36.288,10.452,1432.202599
16 Dec 2019 18:29:58.000,36.573,10.417,1434.331575
16 Dec 2019 18:29:59.000,36.856,10.381,1436.491437
16 Dec 2019 18:30:00.000,37.139,10.345,1438.682043
16 Dec 2019 18:30:01.000,37.421,10.308,1440.903252
16 Dec 2019 18:30:02.000,37.701,10.272,1443.154918
16 Dec 2019 18:30:03.000,37.981,10.234,1445.436896
16 Dec 2019 18:30:04.000,38.260,10.197,1447.749042
16 Dec 2019 18:30:05.000,38.538,10.158,1450.091211
16 Dec 2019 18:30:06.000,38.815,10.120,1452.463251
16 Dec 2019 18:30:07.000,39.091,10.081,1454.865017
16 Dec 2019 18:30:08.000,39.366,10.042,1457.296357
16 Dec 2019 18:30:09.000,39.640,10.002,1459.757123
16 Dec 2019 18:30:10.000,39.913,9.962,1462.247166
16 Dec 2019 18:30:11.000,40.185,9.922,1464.766328
16 Dec 2019 18:30:12.000,40.456,9.881,1467.314460
16 Dec 2019 18:30:13.000,40.726,9.840,1469.891409
16 Dec 2019 18:30:14.000,40.996,9.799,1472.497020
16 Dec 2019 18:30:15.000,41.264,9.757,1475.131139
16 Dec 2019 18:30:16.000,41.531,9.715,1477.793611
16 Dec 2019 18:30:17.000,41.797,9.672,1480.484283
16 Dec 2019 18:30:18.000,42.062,9.630,1483.202993
16 Dec 2019 18:30:19.000,42.326,9.587,1485.949587
16 Dec 2019 18:30:20.000,42.589,9.543,1488.723908
16 Dec 2019 18:30:21.000,42.851,9.500,1491.525798
16 Dec 2019 18:30:22.000,43.111,9.456,1494.355100
16 Dec 2019 18:30:23.000,43.371,9.411,1497.211655
16 Dec 2019 18:30:24.000,43.630,9.367,1500.095304
16 Dec 2019 18:30:25.000,43.888,9.322,1503.005889
16 Dec 2019 18:30:26.000,44.145,9.277,1505.943249
16 Dec 2019 18:30:27.000,44.400,9.231,1508.907227
16 Dec 2019 18:30:28.000,44.655,9.186,1511.897662
16 Dec 2019 18:30:29.000,44.908,9.140,1514.914394
16 Dec 2019 18:30:30.000,45.161,9.093,1517.957264
16 Dec 2019 18:30:31.000,45.412,9.047,1521.026110
16 Dec 2019 18:30:32.000,45.662,9.000,1524.120775
16 Dec 2019 18:30:33.000,45.912,8.953,1527.241096
16 Dec 2019 18:30:34.000,46.160,8.906,1530.386913
16 Dec 2019 18:30:35.000,46.407,8.859,1533.558068
16 Dec 2019 18:30:36.000,46.653,8.811,1536.754398
16 Dec 2019 18:30:37.000,46.898,8.763,1539.975745
16 Dec 2019 18:30:38.000,47.142,8.715,1543.221949
16 Dec 2019 18:30:39.000,47.384,8.667,1546.492848
16 Dec 2019 18:30:40.000,47.626,8.618,1549.788284
16 Dec 2019 18:30:41.000,47.867,8.569,1553.108093
16 Dec 2019 18:30:42.000,48.106,8.520,1556.452123
16 Dec 2019 18:30:43.000,48.345,8.471,1559.820211
16 Dec 2019 18:30:44.000,48.582,8.422,1563.212197
16 Dec 2019 18:30:45.000,48.819,8.372,1566.627923
16 Dec 2019 18:30:46.000,49.054,8.322,1570.067231
16 Dec 2019 18:30:47.000,49.288,8.272,1573.529962
16 Dec 2019 18:30:48.000,49.521,8.222,1577.015956
16 Dec 2019 18:30:49.000,49.753,8.172,1580.525059
16 Dec 2019 18:30:50.000,49.984,8.122,1584.057113
16 Dec 2019 18:30:51.000,50.214,8.071,1587.611960
16 Dec 2019 18:30:52.000,50.443,8.020,1591.189444
16 Dec 2019 18:30:53.000,50.670,7.969,1594.789408
16 Dec 2019 18:30:54.000,50.897,7.918,1598.411694
16 Dec 2019 18:30:55.000,51.123,7.867,1602.056153
16 Dec 2019 18:30:56.000,51.347,7.816,1605.722626
16 Dec 2019 18:30:57.000,51.571,7.764,1609.410960
16 Dec 2019 18:30:58.000,51.793,7.712,1613.120997
16 Dec 2019 18:30:59.000,52.014,7.661,1616.852589
16 Dec 2019 18:31:00.000,52.235,7.609,1620.605582
16 Dec 2019 18:31:01.000,52.454,7.557,1624.379823
16 Dec 2019 18:31:02.000,52.672,7.505,1628.175156
16 Dec 2019 18:31:03.000,52.889,7.452,1631.991437
16 Dec 2019 18:31:04.000,53.105,7.400,1635.828512
16 Dec 2019 18:31:05.000,53.320,7.347,1639.686231
16 Dec 2019 18:31:06.000,53.534,7.295,1643.564441
16 Dec 2019 18:31:07.000,53.747,7.242,1647.463000
16 Dec 2019 18:31:08.000,53.959,7.189,1651.381756
16 Dec 2019 18:31:09.000,54.170,7.136,1655.320558
16 Dec 2019 18:31:10.000,54.380,7.083,1659.279265
16 Dec 2019 18:31:11.000,54.588,7.030,1663.257729
16 Dec 2019 18:31:12.000,54.796,6.977,1667.255799
16 Dec 2019 18:31:13.000,55.003,6.924,1671.273339
16 Dec 2019 18:31:14.000,55.208,6.870,1675.310198
16 Dec 2019 18:31:15.000,55.413,6.817,1679.366233
16 Dec 2019 18:31:16.000,55.617,6.764,1683.441304
16 Dec 2019 18:31:17.000,55.819,6.710,1687.535267
16 Dec 2019 18:31:18.000,56.021,6.656,1691.647977
16 Dec 2019 18:31:19.000,56.221,6.603,1695.779300
16 Dec 2019 18:31:20.000,56.421,6.549,1699.929092
16 Dec 2019 18:31:21.000,56.620,6.495,1704.097211
16 Dec 2019 18:31:22.000,56.817,6.441,1708.283524
16 Dec 2019 18:31:23.000,57.014,6.387,1712.487887
16 Dec 2019 18:31:24.000,57.209,6.333,1716.710169
16 Dec 2019 18:31:25.000,57.404,6.279,1720.950230
16 Dec 2019 18:31:26.000,57.598,6.225,1725.207932
16 Dec 2019 18:31:27.000,57.790,6.171,1729.483146
16 Dec 2019 18:31:28.000,57.982,6.117,1733.775732
16 Dec 2019 18:31:29.000,58.173,6.063,1738.085562
16 Dec 2019 18:31:30.000,58.362,6.009,1742.412498
16 Dec 2019 18:31:31.000,58.551,5.954,1746.756414
16 Dec 2019 18:31:32.000,58.739,5.900,1751.117175
16 Dec 2019 18:31:33.000,58.926,5.846,1755.494648
16 Dec 2019 18:31:34.000,59.112,5.791,1759.888711
16 Dec 2019 18:31:35.000,59.297,5.737,1764.299228
16 Dec 2019 18:31:36.000,59.481,5.683,1768.726077
16 Dec 2019 18:31:37.000,59.664,5.628,1773.169125
16 Dec 2019 18:31:38.000,59.846,5.574,1777.628253
16 Dec 2019 18:31:39.000,60.027,5.519,1782.103327
16 Dec 2019 18:31:40.000,60.208,5.465,1786.594230
16 Dec 2019 18:31:41.000,60.387,5.410,1791.100832
16 Dec 2019 18:31:42.000,60.565,5.356,1795.623015
16 Dec 2019 18:31:43.000,60.743,5.301,1800.160651
16 Dec 2019 18:31:44.000,60.920,5.247,1804.713624
16 Dec 2019 18:31:45.000,61.095,5.192,1809.281809
16 Dec 2019 18:31:46.000,61.270,5.138,1813.865090
16 Dec 2019 18:31:47.000,61.444,5.083,1818.463343
16 Dec 2019 18:31:48.000,61.617,5.029,1823.076455
16 Dec 2019 18:31:49.000,61.789,4.974,1827.704303
16 Dec 2019 18:31:50.000,61.960,4.920,1832.346773
16 Dec 2019 18:31:51.000,62.131,4.865,1837.003753
16 Dec 2019 18:31:52.000,62.300,4.810,1841.675120
16 Dec 2019 18:31:53.000,62.469,4.756,1846.360767
16 Dec 2019 18:31:54.000,62.637,4.701,1851.060574
16 Dec 2019 18:31:55.000,62.804,4.647,1855.774434
16 Dec 2019 18:31:56.000,62.970,4.593,1860.502230
16 Dec 2019 18:31:57.000,63.135,4.538,1865.243856
16 Dec 2019 18:31:58.000,63.299,4.484,1869.999195
16 Dec 2019 18:31:59.000,63.463,4.429,1874.768142
16 Dec 2019 18:32:00.000,63.625,4.375,1879.550590
16 Dec 2019 18:32:01.000,63.787,4.320,1884.346425
16 Dec 2019 18:32:02.000,63.948,4.266,1889.155546
16 Dec 2019 18:32:03.000,64.108,4.212,1893.977841
16 Dec 2019 18:32:04.000,64.268,4.157,1898.813207
16 Dec 2019 18:32:05.000,64.426,4.103,1903.661542
16 Dec 2019 18:32:06.000,64.584,4.049,1908.522735
16 Dec 2019 18:32:07.000,64.741,3.995,1913.396687
16 Dec 2019 18:32:08.000,64.897,3.940,1918.283298
16 Dec 2019 18:32:09.000,65.052,3.886,1923.182460
16 Dec 2019 18:32:10.000,65.207,3.832,1928.094077
16 Dec 2019 18:32:11.000,65.361,3.778,1933.018044
16 Dec 2019 18:32:12.000,65.514,3.724,1937.954264
16 Dec 2019 18:32:13.000,65.666,3.670,1942.902642
16 Dec 2019 18:32:14.000,65.817,3.616,1947.863072
16 Dec 2019 18:32:15.000,65.968,3.562,1952.835460
16 Dec 2019 18:32:16.000,66.118,3.508,1957.819715
16 Dec 2019 18:32:17.000,66.267,3.454,1962.815732
16 Dec 2019 18:32:18.000,66.415,3.400,1967.823420
16 Dec 2019 18:32:19.000,66.563,3.346,1972.842688
16 Dec 2019 18:32:20.000,66.710,3.292,1977.873435
16 Dec 2019 18:32:21.000,66.856,3.238,1982.915573
16 Dec 2019 18:32:22.000,67.001,3.185,1987.969012
16 Dec 2019 18:32:23.000,67.146,3.131,1993.033654
16 Dec 2019 18:32:24.000,67.289,3.077,1998.109411
16 Dec 2019 18:32:25.000,67.433,3.024,2003.196197
16 Dec 2019 18:32:26.000,67.575,2.970,2008.293916
16 Dec 2019 18:32:27.000,67.717,2.917,2013.402482
16 Dec 2019 18:32:28.000,67.858,2.863,2018.521807
16 Dec 2019 18:32:29.000,67.998,2.810,2023.651807
16 Dec 2019 18:32:30.000,68.137,2.756,2028.792390
16 Dec 2019 18:32:31.000,68.276,2.703,2033.943471
16 Dec 2019 18:32:32.000,68.414,2.650,2039.104970
16 Dec 2019 18:32:33.000,68.552,2.597,2044.276795
16 Dec 2019 18:32:34.000,68.689,2.543,2049.458866
16 Dec 2019 18:32:35.000,68.825,2.490,2054.651099
16 Dec 2019 18:32:36.000,68.960,2.437,2059.853415
16 Dec 2019 18:32:37.000,69.095,2.384,2065.065725
16 Dec 2019 18:32:38.000,69.229,2.331,2070.287952
16 Dec 2019 18:32:39.000,69.362,2.278,2075.520015
16 Dec 2019 18:32:40.000,69.495,2.225,2080.761837
16 Dec 2019 18:32:41.000,69.627,2.172,2086.013332
16 Dec 2019 18:32:42.000,69.758,2.120,2091.274424
16 Dec 2019 18:32:43.000,69.889,2.067,2096.545036
16 Dec 2019 18:32:44.000,70.019,2.014,2101.825094
16 Dec 2019 18:32:45.000,70.149,1.962,2107.114514
16 Dec 2019 18:32:46.000,70.278,1.909,2112.413223
16 Dec 2019 18:32:47.000,70.406,1.856,2117.721145
16 Dec 2019 18:32:48.000,70.533,1.804,2123.038209
16 Dec 2019 18:32:49.000,70.660,1.752,2128.364334
16 Dec 2019 18:32:50.000,70.786,1.699,2133.699449
16 Dec 2019 18:32:51.000,70.912,1.647,2139.043482
16 Dec 2019 18:32:52.000,71.037,1.595,2144.396362
16 Dec 2019 18:32:53.000,71.161,1.543,2149.758011
16 Dec 2019 18:32:54.000,71.285,1.490,2155.128361
16 Dec 2019 18:32:55.000,71.408,1.438,2160.507342
16 Dec 2019 18:32:56.000,71.531,1.386,2165.894882
16 Dec 2019 18:32:57.000,71.653,1.334,2171.290916
16 Dec 2019 18:32:58.000,71.774,1.283,2176.695368
16 Dec 2019 18:32:59.000,71.895,1.231,2182.108172
16 Dec 2019 18:33:00.000,72.016,1.179,2187.529261
16 Dec 2019 18:33:01.000,72.135,1.127,2192.958566
16 Dec 2019 18:33:02.000,72.254,1.076,2198.396025
16 Dec 2019 18:33:03.000,72.373,1.024,2203.841565
16 Dec 2019 18:33:04.000,72.491,0.972,2209.295122
16 Dec 2019 18:33:05.000,72.608,0.921,2214.756631
16 Dec 2019 18:33:06.000,72.725,0.869,2220.226029
16 Dec 2019 18:33:07.000,72.841,0.818,2225.703250
16 Dec 2019 18:33:08.000,72.957,0.767,2231.188234
16 Dec 2019 18:33:09.000,73.072,0.716,2236.680911
16 Dec 2019 18:33:10.000,73.186,0.664,2242.181223
16 Dec 2019 18:33:11.000,73.300,0.613,2247.689106
16 Dec 2019 18:33:12.000,73.414,0.562,2253.204499
16 Dec 2019 18:33:13.000,73.527,0.511,2258.727341
16 Dec 2019 18:33:14.000,73.639,0.460,2264.257574
16 Dec 2019 18:33:15.000,73.751,0.409,2269.795133
16 Dec 2019 18:33:16.000,73.862,0.359,2275.339960
16 Dec 2019 18:33:17.000,73.973,0.308,2280.891995
16 Dec 2019 18:33:18.000,74.083,0.257,2286.451182
16 Dec 2019 18:33:19.000,74.193,0.206,2292.017461
16 Dec 2019 18:33:20.000,74.302,0.156,2297.590774
16 Dec 2019 18:33:21.000,74.411,0.105,2303.171068
16 Dec 2019 18:33:22.000,74.519,0.055,2308.758278
16 Dec 2019 18:33:23.000,74.626,0.004,2314.352353
16 Dec 2019 18:33:24.000,74.734,-0.046,2319.953236
16 Dec 2019 18:33:25.000,74.840,-0.096,2325.560872
16 Dec 2019 18:33:25.554,74.899,-0.124,2328.671920
16 Dec 2019 20:00:39.728,313.108,-0.124,2331.723538
16 Dec 2019 20:00:40.000,313.116,-0.108,2329.870158
16 Dec 2019 20:00:41.000,313.147,-0.047,2323.046794
16 Dec 2019 20:00:42.000,313.178,0.015,2316.223883
16 Dec 2019 20:00:43.000,313.209,0.076,2309.401433
16 Dec 2019 20:00:44.000,313.241,0.137,2302.579462
16 Dec 2019 20:00:45.000,313.272,0.199,2295.757981
16 Dec 2019 20:00:46.000,313.304,0.261,2288.937001
16 Dec 2019 20:00:47.000,313.336,0.323,2282.116534
16 Dec 2019 20:00:48.000,313.368,0.385,2275.296596
16 Dec 2019 20:00:49.000,313.400,0.448,2268.477199
16 Dec 2019 20:00:50.000,313.433,0.510,2261.658353
16 Dec 2019 20:00:51.000,313.465,0.573,2254.840076
16 Dec 2019 20:00:52.000,313.498,0.636,2248.022379
16 Dec 2019 20:00:53.000,313.531,0.699,2241.205276
16 Dec 2019 20:00:54.000,313.564,0.762,2234.388777
16 Dec 2019 20:00:55.000,313.597,0.826,2227.572902
16 Dec 2019 20:00:56.000,313.631,0.890,2220.757662
16 Dec 2019 20:00:57.000,313.664,0.954,2213.943071
16 Dec 2019 20:00:58.000,313.698,1.018,2207.129141
16 Dec 2019 20:00:59.000,313.732,1.082,2200.315891
16 Dec 2019 20:01:00.000,313.767,1.147,2193.503333
16 Dec 2019 20:01:01.000,313.801,1.211,2186.691480
16 Dec 2019 20:01:02.000,313.836,1.276,2179.880350
16 Dec 2019 20:01:03.000,313.871,1.341,2173.069958
16 Dec 2019 20:01:04.000,313.906,1.407,2166.260317
16 Dec 2019 20:01:05.000,313.941,1.472,2159.451441
16 Dec 2019 20:01:06.000,313.976,1.538,2152.643350
16 Dec 2019 20:01:07.000,314.012,1.604,2145.836058
16 Dec 2019 20:01:08.000,314.048,1.671,2139.029580
16 Dec 2019 20:01:09.000,314.084,1.737,2132.223929
16 Dec 2019 20:01:10.000,314.120,1.804,2125.419127
16 Dec 2019 20:01:11.000,314.157,1.871,2118.615189
16 Dec 2019 20:01:12.000,314.193,1.938,2111.812126
16 Dec 2019 20:01:13.000,314.230,2.005,2105.009963
16 Dec 2019 20:01:14.000,314.267,2.073,2098.208713
16 Dec 2019 20:01:15.000,314.305,2.141,2091.408392
16 Dec 2019 20:01:16.000,314.342,2.209,2084.609017
16 Dec 2019 20:01:17.000,314.380,2.277,2077.810609
16 Dec 2019 20:01:18.000,314.418,2.346,2071.013184
16 Dec 2019 20:01:19.000,314.457,2.414,2064.216759
16 Dec 2019 20:01:20.000,314.495,2.483,2057.421350
16 Dec 2019 20:01:21.000,314.534,2.553,2050.626981
16 Dec 2019 20:01:22.000,314.573,2.622,2043.833668
16 Dec 2019 20:01:23.000,314.612,2.692,2037.041429
16 Dec 2019 20:01:24.000,314.652,2.762,2030.250280
16 Dec 2019 20:01:25.000,314.691,2.832,2023.460247
16 Dec 2019 20:01:26.000,314.731,2.903,2016.671346
16 Dec 2019 20:01:27.000,314.771,2.974,2009.883594
16 Dec 2019 20:01:28.000,314.812,3.045,2003.097016
16 Dec 2019 20:01:29.000,314.853,3.116,1996.311630
16 Dec 2019 20:01:30.000,314.894,3.188,1989.527456
16 Dec 2019 20:01:31.000,314.935,3.260,1982.744513
16 Dec 2019 20:01:32.000,314.976,3.332,1975.962825
16 Dec 2019 20:01:33.000,315.018,3.405,1969.182413
16 Dec 2019 20:01:34.000,315.060,3.477,1962.403297
16 Dec 2019 20:01:35.000,315.103,3.550,1955.625496
16 Dec 2019 20:01:36.000,315.145,3.624,1948.849038
16 Dec 2019 20:01:37.000,315.188,3.697,1942.073942
16 Dec 2019 20:01:38.000,315.231,3.771,1935.300230
16 Dec 2019 20:01:39.000,315.275,3.845,1928.527924
16 Dec 2019 20:01:40.000,315.319,3.920,1921.757050
16 Dec 2019 20:01:41.000,315.363,3.995,1914.987631
16 Dec 2019 20:01:42.000,315.407,4.070,1908.219689
16 Dec 2019 20:01:43.000,315.452,4.145,1901.453246
16 Dec 2019 20:01:44.000,315.497,4.221,1894.688332
16 Dec 2019 20:01:45.000,315.542,4.297,1887.924967
16 Dec 2019 20:01:46.000,315.588,4.373,1881.163179
16 Dec 2019 20:01:47.000,315.633,4.450,1874.402988
16 Dec 2019 20:01:48.000,315.680,4.527,1867.644426
16 Dec 2019 20:01:49.000,315.726,4.604,1860.887516
16 Dec 2019 20:01:50.000,315.773,4.682,1854.132282
16 Dec 2019 20:01:51.000,315.820,4.760,1847.378756
16 Dec 2019 20:01:52.000,315.868,4.838,1840.626961
16 Dec 2019 20:01:53.000,315.916,4.917,1833.876926
16 Dec 2019 20:01:54.000,315.964,4.996,1827.128675
16 Dec 2019 20:01:55.000,316.012,5.075,1820.382241
16 Dec 2019 20:01:56.000,316.061,5.155,1813.637651
16 Dec 2019 20:01:57.000,316.110,5.235,1806.894933
16 Dec 2019 20:01:58.000,316.160,5.316,1800.154114
16 Dec 2019 20:01:59.000,316.210,5.396,1793.415228
16 Dec 2019 20:02:00.000,316.260,5.478,1786.678304
16 Dec 2019 20:02:01.000,316.311,5.559,1779.943371
16 Dec 2019 20:02:02.000,316.362,5.641,1773.210458
16 Dec 2019 20:02:03.000,316.414,5.723,1766.479602
16 Dec 2019 20:02:04.000,316.465,5.806,1759.750831
16 Dec 2019 20:02:05.000,316.518,5.889,1753.024177
16 Dec 2019 20:02:06.000,316.570,5.973,1746.299674
16 Dec 2019 20:02:07.000,316.623,6.056,1739.577351
16 Dec 2019 20:02:08.000,316.677,6.141,1732.857248
16 Dec 2019 20:02:09.000,316.730,6.225,1726.139397
16 Dec 2019 20:02:10.000,316.785,6.310,1719.423830
16 Dec 2019 20:02:11.000,316.839,6.396,1712.710582
16 Dec 2019 20:02:12.000,316.894,6.482,1705.999693
16 Dec 2019 20:02:13.000,316.950,6.568,1699.291196
16 Dec 2019 20:02:14.000,317.006,6.655,1692.585127
16 Dec 2019 20:02:15.000,317.062,6.742,1685.881523
16 Dec 2019 20:02:16.000,317.119,6.829,1679.180424
16 Dec 2019 20:02:17.000,317.176,6.918,1672.481867
16 Dec 2019 20:02:18.000,317.234,7.006,1665.785892
16 Dec 2019 20:02:19.000,317.292,7.095,1659.092533
16 Dec 2019 20:02:20.000,317.351,7.184,1652.401838
16 Dec 2019 20:02:21.000,317.410,7.274,1645.713843
16 Dec 2019 20:02:22.000,317.469,7.365,1639.028590
16 Dec 2019 20:02:23.000,317.529,7.455,1632.346121
16 Dec 2019 20:02:24.000,317.590,7.547,1625.666476
16 Dec 2019 20:02:25.000,317.651,7.638,1618.989703
16 Dec 2019 20:02:26.000,317.712,7.731,1612.315843
16 Dec 2019 20:02:27.000,317.775,7.823,1605.644940
16 Dec 2019 20:02:28.000,317.837,7.917,1598.977038
16 Dec 2019 20:02:29.000,317.900,8.010,1592.312186
16 Dec 2019 20:02:30.000,317.964,8.105,1585.650430
16 Dec 2019 20:02:31.000,318.028,8.200,1578.991817
16 Dec 2019 20:02:32.000,318.093,8.295,1572.336392
16 Dec 2019 20:02:33.000,318.158,8.391,1565.684208
16 Dec 2019 20:02:34.000,318.224,8.487,1559.035313
16 Dec 2019 20:02:35.000,318.290,8.584,1552.389758
16 Dec 2019 20:02:36.000,318.357,8.681,1545.747593
16 Dec 2019 20:02:37.000,318.425,8.779,1539.108868
16 Dec 2019 20:02:38.000,318.493,8.878,1532.473641
16 Dec 2019 20:02:39.000,318.562,8.977,1525.841963
16 Dec 2019 20:02:40.000,318.631,9.077,1519.213889
16 Dec 2019 20:02:41.000,318.701,9.177,1512.589473
16 Dec 2019 20:02:42.000,318.772,9.278,1505.968771
16 Dec 2019 20:02:43.000,318.843,9.380,1499.351844
16 Dec 2019 20:02:44.000,318.915,9.482,1492.738748
16 Dec 2019 20:02:45.000,318.988,9.584,1486.129542
16 Dec 2019 20:02:46.000,319.061,9.688,1479.524287
16 Dec 2019 20:02:47.000,319.135,9.792,1472.923041
16 Dec 2019 20:02:48.000,319.209,9.896,1466.325871
16 Dec 2019 20:02:49.000,319.284,10.001,1459.732839
16 Dec 2019 20:02:50.000,319.360,10.107,1453.144009
16 Dec 2019 20:02:51.000,319.437,10.214,1446.559445
16 Dec 2019 20:02:52.000,319.514,10.321,1439.979213
16 Dec 2019 20:02:53.000,319.593,10.429,1433.403385
16 Dec 2019 20:02:54.000,319.671,10.537,1426.832027
16 Dec 2019 20:02:55.000,319.751,10.647,1420.265209
16 Dec 2019 20:02:56.000,319.832,10.757,1413.703004
16 Dec 2019 20:02:57.000,319.913,10.867,1407.145480
16 Dec 2019 20:02:58.000,319.995,10.979,1400.592717
16 Dec 2019 20:02:59.000,320.077,11.091,1394.044788
16 Dec 2019 20:03:00.000,320.161,11.203,1387.501768
16 Dec 2019 20:03:01.000,320.245,11.317,1380.963736
16 Dec 2019 20:03:02.000,320.331,11.431,1374.430768
16 Dec 2019 20:03:03.000,320.417,11.546,1367.902950
16 Dec 2019 20:03:04.000,320.504,11.662,1361.380362
16 Dec 2019 20:03:05.000,320.591,11.779,1354.863087
16 Dec 2019 20:03:06.000,320.680,11.896,1348.351209
16 Dec 2019 20:03:07.000,320.770,12.014,1341.844817
16 Dec 2019 20:03:08.000,320.860,12.133,1335.343995
16 Dec 2019 20:03:09.000,320.952,12.253,1328.848838
16 Dec 2019 20:03:10.000,321.044,12.374,1322.359435
16 Dec 2019 20:03:11.000,321.138,12.495,1315.875879
