vcc_sched/network/input/aer_odugs_wj2xoh_vcc-c_44430.csv

"Time (UTCG)","Azimuth (deg)","Elevation (deg)","Range (km)"
3 Feb 2020 17:17:32.547,213.635,-0.124,2311.716466
3 Feb 2020 17:17:33.000,213.620,-0.096,2308.629463
3 Feb 2020 17:17:34.000,213.587,-0.035,2301.810139
3 Feb 2020 17:17:35.000,213.554,0.026,2294.991565
3 Feb 2020 17:17:36.000,213.520,0.088,2288.173754
3 Feb 2020 17:17:37.000,213.486,0.150,2281.356726
3 Feb 2020 17:17:38.000,213.453,0.212,2274.540494
3 Feb 2020 17:17:39.000,213.418,0.274,2267.725071
3 Feb 2020 17:17:40.000,213.384,0.336,2260.910476
3 Feb 2020 17:17:41.000,213.350,0.399,2254.096725
3 Feb 2020 17:17:42.000,213.315,0.462,2247.283832
3 Feb 2020 17:17:43.000,213.280,0.525,2240.471811
3 Feb 2020 17:17:44.000,213.245,0.588,2233.660684
3 Feb 2020 17:17:45.000,213.209,0.651,2226.850463
3 Feb 2020 17:17:46.000,213.174,0.715,2220.041167
3 Feb 2020 17:17:47.000,213.138,0.778,2213.232809
3 Feb 2020 17:17:48.000,213.102,0.842,2206.425411
3 Feb 2020 17:17:49.000,213.065,0.906,2199.618988
3 Feb 2020 17:17:50.000,213.029,0.971,2192.813555
3 Feb 2020 17:17:51.000,212.992,1.035,2186.009133
3 Feb 2020 17:17:52.000,212.955,1.100,2179.205739
3 Feb 2020 17:17:53.000,212.917,1.165,2172.403390
3 Feb 2020 17:17:54.000,212.880,1.230,2165.602103
3 Feb 2020 17:17:55.000,212.842,1.295,2158.801899
3 Feb 2020 17:17:56.000,212.804,1.361,2152.002795
3 Feb 2020 17:17:57.000,212.766,1.426,2145.204810
3 Feb 2020 17:17:58.000,212.727,1.492,2138.407961
3 Feb 2020 17:17:59.000,212.688,1.559,2131.612270
3 Feb 2020 17:18:00.000,212.649,1.625,2124.817756
3 Feb 2020 17:18:01.000,212.610,1.692,2118.024438
3 Feb 2020 17:18:02.000,212.570,1.758,2111.232333
3 Feb 2020 17:18:03.000,212.530,1.825,2104.441466
3 Feb 2020 17:18:04.000,212.490,1.893,2097.651854
3 Feb 2020 17:18:05.000,212.450,1.960,2090.863517
3 Feb 2020 17:18:06.000,212.409,2.028,2084.076479
3 Feb 2020 17:18:07.000,212.368,2.096,2077.290759
3 Feb 2020 17:18:08.000,212.327,2.164,2070.506377
3 Feb 2020 17:18:09.000,212.285,2.233,2063.723355
3 Feb 2020 17:18:10.000,212.243,2.301,2056.941716
3 Feb 2020 17:18:11.000,212.201,2.370,2050.161482
3 Feb 2020 17:18:12.000,212.159,2.440,2043.382674
3 Feb 2020 17:18:13.000,212.116,2.509,2036.605313
3 Feb 2020 17:18:14.000,212.073,2.579,2029.829425
3 Feb 2020 17:18:15.000,212.030,2.649,2023.055032
3 Feb 2020 17:18:16.000,211.986,2.719,2016.282157
3 Feb 2020 17:18:17.000,211.942,2.789,2009.510822
3 Feb 2020 17:18:18.000,211.898,2.860,2002.741053
3 Feb 2020 17:18:19.000,211.853,2.931,1995.972874
3 Feb 2020 17:18:20.000,211.808,3.002,1989.206309
3 Feb 2020 17:18:21.000,211.763,3.073,1982.441380
3 Feb 2020 17:18:22.000,211.717,3.145,1975.678117
3 Feb 2020 17:18:23.000,211.672,3.217,1968.916543
3 Feb 2020 17:18:24.000,211.625,3.290,1962.156684
3 Feb 2020 17:18:25.000,211.579,3.362,1955.398563
3 Feb 2020 17:18:26.000,211.532,3.435,1948.642211
3 Feb 2020 17:18:27.000,211.485,3.508,1941.887653
3 Feb 2020 17:18:28.000,211.437,3.582,1935.134915
3 Feb 2020 17:18:29.000,211.389,3.655,1928.384024
3 Feb 2020 17:18:30.000,211.341,3.729,1921.635009
3 Feb 2020 17:18:31.000,211.292,3.803,1914.887898
3 Feb 2020 17:18:32.000,211.243,3.878,1908.142720
3 Feb 2020 17:18:33.000,211.194,3.953,1901.399500
3 Feb 2020 17:18:34.000,211.144,4.028,1894.658271
3 Feb 2020 17:18:35.000,211.094,4.104,1887.919062
3 Feb 2020 17:18:36.000,211.043,4.179,1881.181902
3 Feb 2020 17:18:37.000,210.992,4.255,1874.446820
3 Feb 2020 17:18:38.000,210.941,4.332,1867.713850
3 Feb 2020 17:18:39.000,210.889,4.409,1860.983021
3 Feb 2020 17:18:40.000,210.837,4.486,1854.254364
3 Feb 2020 17:18:41.000,210.785,4.563,1847.527911
3 Feb 2020 17:18:42.000,210.732,4.641,1840.803696
3 Feb 2020 17:18:43.000,210.679,4.719,1834.081751
3 Feb 2020 17:18:44.000,210.625,4.797,1827.362109
3 Feb 2020 17:18:45.000,210.571,4.876,1820.644801
3 Feb 2020 17:18:46.000,210.516,4.955,1813.929867
3 Feb 2020 17:18:47.000,210.461,5.034,1807.217337
3 Feb 2020 17:18:48.000,210.406,5.114,1800.507248
3 Feb 2020 17:18:49.000,210.350,5.194,1793.799633
3 Feb 2020 17:18:50.000,210.293,5.275,1787.094531
3 Feb 2020 17:18:51.000,210.237,5.355,1780.391978
3 Feb 2020 17:18:52.000,210.179,5.436,1773.692010
3 Feb 2020 17:18:53.000,210.122,5.518,1766.994664
3 Feb 2020 17:18:54.000,210.063,5.600,1760.299980
3 Feb 2020 17:18:55.000,210.005,5.682,1753.607996
3 Feb 2020 17:18:56.000,209.946,5.765,1746.918751
3 Feb 2020 17:18:57.000,209.886,5.848,1740.232283
3 Feb 2020 17:18:58.000,209.826,5.931,1733.548635
3 Feb 2020 17:18:59.000,209.765,6.015,1726.867847
3 Feb 2020 17:19:00.000,209.704,6.099,1720.189960
3 Feb 2020 17:19:01.000,209.643,6.184,1713.515017
3 Feb 2020 17:19:02.000,209.580,6.269,1706.843057
3 Feb 2020 17:19:03.000,209.518,6.354,1700.174128
3 Feb 2020 17:19:04.000,209.455,6.440,1693.508272
3 Feb 2020 17:19:05.000,209.391,6.526,1686.845533
3 Feb 2020 17:19:06.000,209.327,6.613,1680.185955
3 Feb 2020 17:19:07.000,209.262,6.700,1673.529588
3 Feb 2020 17:19:08.000,209.196,6.787,1666.876476
3 Feb 2020 17:19:09.000,209.131,6.875,1660.226665
3 Feb 2020 17:19:10.000,209.064,6.964,1653.580205
3 Feb 2020 17:19:11.000,208.997,7.052,1646.937142
3 Feb 2020 17:19:12.000,208.929,7.142,1640.297529
3 Feb 2020 17:19:13.000,208.861,7.231,1633.661414
3 Feb 2020 17:19:14.000,208.792,7.321,1627.028849
3 Feb 2020 17:19:15.000,208.723,7.412,1620.399884
3 Feb 2020 17:19:16.000,208.653,7.503,1613.774571
3 Feb 2020 17:19:17.000,208.582,7.595,1607.152965
3 Feb 2020 17:19:18.000,208.511,7.687,1600.535121
3 Feb 2020 17:19:19.000,208.439,7.779,1593.921092
3 Feb 2020 17:19:20.000,208.366,7.872,1587.310932
3 Feb 2020 17:19:21.000,208.293,7.966,1580.704702
3 Feb 2020 17:19:22.000,208.219,8.060,1574.102457
3 Feb 2020 17:19:23.000,208.144,8.154,1567.504255
3 Feb 2020 17:19:24.000,208.069,8.249,1560.910157
3 Feb 2020 17:19:25.000,207.993,8.345,1554.320220
3 Feb 2020 17:19:26.000,207.916,8.441,1547.734509
3 Feb 2020 17:19:27.000,207.839,8.537,1541.153084
3 Feb 2020 17:19:28.000,207.761,8.634,1534.576010
3 Feb 2020 17:19:29.000,207.682,8.732,1528.003349
3 Feb 2020 17:19:30.000,207.602,8.830,1521.435166
3 Feb 2020 17:19:31.000,207.522,8.929,1514.871529
3 Feb 2020 17:19:32.000,207.441,9.028,1508.312505
3 Feb 2020 17:19:33.000,207.359,9.128,1501.758163
3 Feb 2020 17:19:34.000,207.276,9.228,1495.208571
3 Feb 2020 17:19:35.000,207.193,9.329,1488.663800
3 Feb 2020 17:19:36.000,207.109,9.431,1482.123921
3 Feb 2020 17:19:37.000,207.024,9.533,1475.589009
3 Feb 2020 17:19:38.000,206.938,9.636,1469.059138
3 Feb 2020 17:19:39.000,206.851,9.739,1462.534383
3 Feb 2020 17:19:40.000,206.763,9.843,1456.014820
3 Feb 2020 17:19:41.000,206.675,9.948,1449.500526
3 Feb 2020 17:19:42.000,206.586,10.053,1442.991584
3 Feb 2020 17:19:43.000,206.496,10.159,1436.488072
3 Feb 2020 17:19:44.000,206.404,10.265,1429.990072
3 Feb 2020 17:19:45.000,206.312,10.372,1423.497669
3 Feb 2020 17:19:46.000,206.220,10.480,1417.010946
3 Feb 2020 17:19:47.000,206.126,10.588,1410.529989
3 Feb 2020 17:19:48.000,206.031,10.697,1404.054888
3 Feb 2020 17:19:49.000,205.935,10.807,1397.585732
3 Feb 2020 17:19:50.000,205.838,10.918,1391.122610
3 Feb 2020 17:19:51.000,205.741,11.029,1384.665615
3 Feb 2020 17:19:52.000,205.642,11.141,1378.214842
3 Feb 2020 17:19:53.000,205.542,11.253,1371.770385
3 Feb 2020 17:19:54.000,205.441,11.366,1365.332341
3 Feb 2020 17:19:55.000,205.339,11.480,1358.900812
3 Feb 2020 17:19:56.000,205.236,11.595,1352.475896
3 Feb 2020 17:19:57.000,205.132,11.711,1346.057698
3 Feb 2020 17:19:58.000,205.027,11.827,1339.646319
3 Feb 2020 17:19:59.000,204.921,11.944,1333.241868
3 Feb 2020 17:20:00.000,204.814,12.061,1326.844453
3 Feb 2020 17:20:01.000,204.705,12.180,1320.454180
3 Feb 2020 17:20:02.000,204.595,12.299,1314.071167
3 Feb 2020 17:20:03.000,204.484,12.419,1307.695525
3 Feb 2020 17:20:04.000,204.372,12.540,1301.327370
3 Feb 2020 17:20:05.000,204.259,12.662,1294.966821
3 Feb 2020 17:20:06.000,204.144,12.784,1288.613998
3 Feb 2020 17:20:07.000,204.028,12.908,1282.269023
3 Feb 2020 17:20:08.000,203.911,13.032,1275.932022
3 Feb 2020 17:20:09.000,203.793,13.157,1269.603120
3 Feb 2020 17:20:10.000,203.673,13.283,1263.282450
3 Feb 2020 17:20:11.000,203.552,13.410,1256.970141
3 Feb 2020 17:20:12.000,203.429,13.537,1250.666328
3 Feb 2020 17:20:13.000,203.305,13.666,1244.371149
3 Feb 2020 17:20:14.000,203.180,13.795,1238.084742
3 Feb 2020 17:20:15.000,203.053,13.926,1231.807249
3 Feb 2020 17:20:16.000,202.925,14.057,1225.538816
3 Feb 2020 17:20:17.000,202.795,14.189,1219.279588
3 Feb 2020 17:20:18.000,202.664,14.322,1213.029718
3 Feb 2020 17:20:19.000,202.531,14.456,1206.789355
3 Feb 2020 17:20:20.000,202.397,14.592,1200.558659
3 Feb 2020 17:20:21.000,202.261,14.728,1194.337788
3 Feb 2020 17:20:22.000,202.123,14.865,1188.126903
3 Feb 2020 17:20:23.000,201.984,15.003,1181.926169
3 Feb 2020 17:20:24.000,201.843,15.142,1175.735754
3 Feb 2020 17:20:25.000,201.701,15.282,1169.555831
3 Feb 2020 17:20:26.000,201.556,15.423,1163.386573
3 Feb 2020 17:20:27.000,201.410,15.565,1157.228159
3 Feb 2020 17:20:28.000,201.262,15.708,1151.080770
3 Feb 2020 17:20:29.000,201.113,15.852,1144.944591
3 Feb 2020 17:20:30.000,200.961,15.998,1138.819812
3 Feb 2020 17:20:31.000,200.808,16.144,1132.706624
3 Feb 2020 17:20:32.000,200.652,16.292,1126.605224
3 Feb 2020 17:20:33.000,200.495,16.440,1120.515811
3 Feb 2020 17:20:34.000,200.336,16.590,1114.438590
3 Feb 2020 17:20:35.000,200.174,16.741,1108.373769
3 Feb 2020 17:20:36.000,200.011,16.893,1102.321559
3 Feb 2020 17:20:37.000,199.845,17.047,1096.282178
3 Feb 2020 17:20:38.000,199.678,17.201,1090.255845
3 Feb 2020 17:20:39.000,199.508,17.357,1084.242785
3 Feb 2020 17:20:40.000,199.336,17.513,1078.243228
3 Feb 2020 17:20:41.000,199.162,17.671,1072.257409
3 Feb 2020 17:20:42.000,198.985,17.831,1066.285565
3 Feb 2020 17:20:43.000,198.807,17.991,1060.327940
3 Feb 2020 17:20:44.000,198.625,18.153,1054.384782
3 Feb 2020 17:20:45.000,198.442,18.316,1048.456345
3 Feb 2020 17:20:46.000,198.256,18.480,1042.542887
3 Feb 2020 17:20:47.000,198.067,18.646,1036.644672
3 Feb 2020 17:20:48.000,197.876,18.812,1030.761968
3 Feb 2020 17:20:49.000,197.682,18.981,1024.895050
3 Feb 2020 17:20:50.000,197.485,19.150,1019.044198
3 Feb 2020 17:20:51.000,197.286,19.321,1013.209697
3 Feb 2020 17:20:52.000,197.084,19.493,1007.391838
3 Feb 2020 17:20:53.000,196.880,19.667,1001.590919
3 Feb 2020 17:20:54.000,196.672,19.841,995.807243
3 Feb 2020 17:20:55.000,196.462,20.018,990.041118
3 Feb 2020 17:20:56.000,196.248,20.195,984.292861
3 Feb 2020 17:20:57.000,196.032,20.374,978.562794
3 Feb 2020 17:20:58.000,195.812,20.555,972.851244
3 Feb 2020 17:20:59.000,195.589,20.737,967.158548
3 Feb 2020 17:21:00.000,195.364,20.920,961.485047
3 Feb 2020 17:21:01.000,195.134,21.105,955.831089
3 Feb 2020 17:21:02.000,194.902,21.291,950.197030
3 Feb 2020 17:21:03.000,194.666,21.478,944.583234
3 Feb 2020 17:21:04.000,194.427,21.668,938.990070
3 Feb 2020 17:21:05.000,194.184,21.858,933.417917
3 Feb 2020 17:21:06.000,193.937,22.050,927.867160
3 Feb 2020 17:21:07.000,193.687,22.244,922.338191
3 Feb 2020 17:21:08.000,193.433,22.439,916.831414
3 Feb 2020 17:21:09.000,193.175,22.635,911.347234
3 Feb 2020 17:21:10.000,192.914,22.833,905.886071
3 Feb 2020 17:21:11.000,192.648,23.033,900.448349
3 Feb 2020 17:21:12.000,192.378,23.234,895.034503
3 Feb 2020 17:21:13.000,192.104,23.437,889.644976
3 Feb 2020 17:21:14.000,191.826,23.641,884.280217
3 Feb 2020 17:21:15.000,191.544,23.846,878.940688
3 Feb 2020 17:21:16.000,191.257,24.054,873.626857
3 Feb 2020 17:21:17.000,190.966,24.262,868.339204
3 Feb 2020 17:21:18.000,190.670,24.472,863.078216
3 Feb 2020 17:21:19.000,190.370,24.684,857.844389
3 Feb 2020 17:21:20.000,190.065,24.897,852.638231
3 Feb 2020 17:21:21.000,189.755,25.112,847.460257
3 Feb 2020 17:21:22.000,189.440,25.328,842.310995
3 Feb 2020 17:21:23.000,189.120,25.546,837.190979
3 Feb 2020 17:21:24.000,188.795,25.765,832.100756
3 Feb 2020 17:21:25.000,188.464,25.986,827.040884
3 Feb 2020 17:21:26.000,188.129,26.208,822.011927
3 Feb 2020 17:21:27.000,187.787,26.432,817.014464
3 Feb 2020 17:21:28.000,187.441,26.656,812.049082
3 Feb 2020 17:21:29.000,187.088,26.883,807.116379
3 Feb 2020 17:21:30.000,186.730,27.111,802.216964
3 Feb 2020 17:21:31.000,186.366,27.340,797.351457
3 Feb 2020 17:21:32.000,185.996,27.570,792.520488
3 Feb 2020 17:21:33.000,185.619,27.802,787.724699
3 Feb 2020 17:21:34.000,185.237,28.035,782.964743
3 Feb 2020 17:21:35.000,184.848,28.269,778.241282
3 Feb 2020 17:21:36.000,184.452,28.505,773.554991
3 Feb 2020 17:21:37.000,184.050,28.742,768.906555
3 Feb 2020 17:21:38.000,183.642,28.980,764.296671
3 Feb 2020 17:21:39.000,183.226,29.219,759.726046
3 Feb 2020 17:21:40.000,182.803,29.459,755.195399
3 Feb 2020 17:21:41.000,182.373,29.700,750.705459
3 Feb 2020 17:21:42.000,181.936,29.942,746.256967
3 Feb 2020 17:21:43.000,181.491,30.184,741.850674
3 Feb 2020 17:21:44.000,181.039,30.428,737.487341
3 Feb 2020 17:21:45.000,180.579,30.673,733.167741
3 Feb 2020 17:21:46.000,180.112,30.918,728.892657
3 Feb 2020 17:21:47.000,179.636,31.163,724.662882
3 Feb 2020 17:21:48.000,179.152,31.410,720.479219
3 Feb 2020 17:21:49.000,178.660,31.657,716.342482
3 Feb 2020 17:21:50.000,178.160,31.904,712.253493
3 Feb 2020 17:21:51.000,177.651,32.151,708.213085
3 Feb 2020 17:21:52.000,177.134,32.399,704.222098
3 Feb 2020 17:21:53.000,176.607,32.647,700.281383
3 Feb 2020 17:21:54.000,176.072,32.894,696.391797
3 Feb 2020 17:21:55.000,175.528,33.142,692.554208
3 Feb 2020 17:21:56.000,174.975,33.389,688.769489
3 Feb 2020 17:21:57.000,174.412,33.637,685.038521
3 Feb 2020 17:21:58.000,173.840,33.883,681.362192
3 Feb 2020 17:21:59.000,173.258,34.129,677.741396
3 Feb 2020 17:22:00.000,172.667,34.374,674.177032
3 Feb 2020 17:22:01.000,172.066,34.619,670.670004
3 Feb 2020 17:22:02.000,171.455,34.862,667.221220
3 Feb 2020 17:22:03.000,170.834,35.104,663.831594
3 Feb 2020 17:22:04.000,170.203,35.345,660.502039
3 Feb 2020 17:22:05.000,169.562,35.585,657.233473
3 Feb 2020 17:22:06.000,168.910,35.822,654.026815
3 Feb 2020 17:22:07.000,168.248,36.058,650.882983
3 Feb 2020 17:22:08.000,167.576,36.292,647.802897
3 Feb 2020 17:22:09.000,166.893,36.524,644.787473
3 Feb 2020 17:22:10.000,166.200,36.753,641.837627
3 Feb 2020 17:22:11.000,165.497,36.980,638.954271
3 Feb 2020 17:22:12.000,164.782,37.204,636.138312
3 Feb 2020 17:22:13.000,164.058,37.425,633.390654
3 Feb 2020 17:22:14.000,163.322,37.643,630.712192
3 Feb 2020 17:22:15.000,162.576,37.857,628.103816
3 Feb 2020 17:22:16.000,161.820,38.068,625.566404
3 Feb 2020 17:22:17.000,161.053,38.275,623.100827
3 Feb 2020 17:22:18.000,160.276,38.478,620.707946
3 Feb 2020 17:22:19.000,159.488,38.676,618.388604
3 Feb 2020 17:22:20.000,158.690,38.870,616.143639
3 Feb 2020 17:22:21.000,157.882,39.060,613.973867
3 Feb 2020 17:22:22.000,157.064,39.244,611.880092
3 Feb 2020 17:22:23.000,156.236,39.424,609.863097
3 Feb 2020 17:22:24.000,155.399,39.598,607.923653
3 Feb 2020 17:22:25.000,154.552,39.766,606.062504
3 Feb 2020 17:22:26.000,153.696,39.929,604.280376
3 Feb 2020 17:22:27.000,152.831,40.086,602.577974
3 Feb 2020 17:22:28.000,151.957,40.236,600.955976
3 Feb 2020 17:22:29.000,151.074,40.380,599.415040
3 Feb 2020 17:22:30.000,150.184,40.517,597.955791
3 Feb 2020 17:22:31.000,149.286,40.648,596.578833
3 Feb 2020 17:22:32.000,148.380,40.771,595.284737
3 Feb 2020 17:22:33.000,147.467,40.887,594.074049
3 Feb 2020 17:22:34.000,146.547,40.996,592.947278
3 Feb 2020 17:22:35.000,145.621,41.097,591.904909
3 Feb 2020 17:22:36.000,144.689,41.190,590.947386
3 Feb 2020 17:22:37.000,143.752,41.276,590.075125
3 Feb 2020 17:22:38.000,142.809,41.354,589.288507
3 Feb 2020 17:22:39.000,141.862,41.423,588.587877
3 Feb 2020 17:22:40.000,140.911,41.484,587.973541
3 Feb 2020 17:22:41.000,139.957,41.537,587.445771
3 Feb 2020 17:22:42.000,138.999,41.582,587.004803
3 Feb 2020 17:22:43.000,138.039,41.618,586.650832
3 Feb 2020 17:22:44.000,137.077,41.645,586.384018
3 Feb 2020 17:22:45.000,136.114,41.664,586.204481
3 Feb 2020 17:22:46.000,135.150,41.674,586.112299
3 Feb 2020 17:22:47.000,134.185,41.675,586.107514
3 Feb 2020 17:22:48.000,133.221,41.668,586.190130
3 Feb 2020 17:22:49.000,132.257,41.652,586.360109
3 Feb 2020 17:22:50.000,131.295,41.628,586.617373
3 Feb 2020 17:22:51.000,130.334,41.595,586.961812
3 Feb 2020 17:22:52.000,129.376,41.553,587.393270
3 Feb 2020 17:22:53.000,128.421,41.503,587.911556
3 Feb 2020 17:22:54.000,127.469,41.445,588.516439
3 Feb 2020 17:22:55.000,126.521,41.378,589.207652
3 Feb 2020 17:22:56.000,125.578,41.304,589.984890
3 Feb 2020 17:22:57.000,124.639,41.221,590.847816
3 Feb 2020 17:22:58.000,123.706,41.130,591.796052
3 Feb 2020 17:22:59.000,122.779,41.032,592.829188
3 Feb 2020 17:23:00.000,121.858,40.926,593.946779
3 Feb 2020 17:23:01.000,120.943,40.812,595.148351
3 Feb 2020 17:23:02.000,120.036,40.691,596.433391
3 Feb 2020 17:23:03.000,119.136,40.564,597.801364
3 Feb 2020 17:23:04.000,118.243,40.429,599.251697
3 Feb 2020 17:23:05.000,117.359,40.287,600.783795
3 Feb 2020 17:23:06.000,116.484,40.139,602.397030
3 Feb 2020 17:23:07.000,115.616,39.985,604.090753
3 Feb 2020 17:23:08.000,114.758,39.825,605.864283
3 Feb 2020 17:23:09.000,113.909,39.659,607.716925
3 Feb 2020 17:23:10.000,113.070,39.487,609.647950
3 Feb 2020 17:23:11.000,112.240,39.310,611.656616
3 Feb 2020 17:23:12.000,111.420,39.127,613.742162
3 Feb 2020 17:23:13.000,110.610,38.940,615.903798
3 Feb 2020 17:23:14.000,109.810,38.748,618.140728
3 Feb 2020 17:23:15.000,109.020,38.551,620.452136
3 Feb 2020 17:23:16.000,108.240,38.350,622.837186
3 Feb 2020 17:23:17.000,107.471,38.145,625.295035
3 Feb 2020 17:23:18.000,106.712,37.936,627.824825
3 Feb 2020 17:23:19.000,105.964,37.723,630.425688
3 Feb 2020 17:23:20.000,105.226,37.507,633.096744
3 Feb 2020 17:23:21.000,104.499,37.288,635.837107
3 Feb 2020 17:23:22.000,103.783,37.065,638.645883
3 Feb 2020 17:23:23.000,103.077,36.840,641.522165
3 Feb 2020 17:23:24.000,102.381,36.612,644.465049
3 Feb 2020 17:23:25.000,101.697,36.382,647.473624
3 Feb 2020 17:23:26.000,101.022,36.150,650.546975
3 Feb 2020 17:23:27.000,100.358,35.915,653.684184
3 Feb 2020 17:23:28.000,99.704,35.679,656.884333
3 Feb 2020 17:23:29.000,99.061,35.441,660.146500
3 Feb 2020 17:23:30.000,98.428,35.201,663.469773
3 Feb 2020 17:23:31.000,97.805,34.960,666.853232
3 Feb 2020 17:23:32.000,97.192,34.718,670.295960
3 Feb 2020 17:23:33.000,96.589,34.474,673.797047
3 Feb 2020 17:23:34.000,95.995,34.230,677.355582
3 Feb 2020 17:23:35.000,95.411,33.985,680.970661
3 Feb 2020 17:23:36.000,94.837,33.739,684.641381
3 Feb 2020 17:23:37.000,94.273,33.493,688.366854
3 Feb 2020 17:23:38.000,93.717,33.247,692.146189
3 Feb 2020 17:23:39.000,93.171,33.000,695.978504
3 Feb 2020 17:23:40.000,92.634,32.753,699.862921
3 Feb 2020 17:23:41.000,92.106,32.506,703.798578
3 Feb 2020 17:23:42.000,91.587,32.259,707.784615
3 Feb 2020 17:23:43.000,91.076,32.012,711.820176
3 Feb 2020 17:23:44.000,90.574,31.766,715.904426
3 Feb 2020 17:23:45.000,90.081,31.520,720.036528
3 Feb 2020 17:23:46.000,89.595,31.274,724.215656
3 Feb 2020 17:23:47.000,89.118,31.029,728.441001
3 Feb 2020 17:23:48.000,88.649,30.784,732.711753
3 Feb 2020 17:23:49.000,88.188,30.541,737.027123
3 Feb 2020 17:23:50.000,87.734,30.297,741.386326
3 Feb 2020 17:23:51.000,87.288,30.055,745.788583
3 Feb 2020 17:23:52.000,86.849,29.814,750.233138
3 Feb 2020 17:23:53.000,86.418,29.573,754.719233
3 Feb 2020 17:23:54.000,85.994,29.334,759.246132
3 Feb 2020 17:23:55.000,85.577,29.095,763.813098
3 Feb 2020 17:23:56.000,85.167,28.858,768.419417
3 Feb 2020 17:23:57.000,84.763,28.621,773.064376
3 Feb 2020 17:23:58.000,84.367,28.386,777.747278
3 Feb 2020 17:23:59.000,83.976,28.152,782.467441
3 Feb 2020 17:24:00.000,83.593,27.919,787.224183
3 Feb 2020 17:24:01.000,83.215,27.688,792.016845
3 Feb 2020 17:24:02.000,82.844,27.458,796.844768
3 Feb 2020 17:24:03.000,82.479,27.229,801.707314
3 Feb 2020 17:24:04.000,82.119,27.001,806.603847
3 Feb 2020 17:24:05.000,81.766,26.775,811.533747
3 Feb 2020 17:24:06.000,81.418,26.551,816.496409
3 Feb 2020 17:24:07.000,81.076,26.327,821.491227
3 Feb 2020 17:24:08.000,80.739,26.105,826.517614
3 Feb 2020 17:24:09.000,80.408,25.885,831.574996
3 Feb 2020 17:24:10.000,80.082,25.666,836.662798
3 Feb 2020 17:24:11.000,79.761,25.448,841.780466
3 Feb 2020 17:24:12.000,79.445,25.232,846.927453
3 Feb 2020 17:24:13.000,79.135,25.018,852.103224
3 Feb 2020 17:24:14.000,78.829,24.805,857.307247
3 Feb 2020 17:24:15.000,78.528,24.593,862.539006
3 Feb 2020 17:24:16.000,78.231,24.383,867.797997
3 Feb 2020 17:24:17.000,77.939,24.175,873.083716
3 Feb 2020 17:24:18.000,77.652,23.968,878.395677
3 Feb 2020 17:24:19.000,77.369,23.762,883.733400
3 Feb 2020 17:24:20.000,77.090,23.558,889.096416
3 Feb 2020 17:24:21.000,76.816,23.356,894.484266
3 Feb 2020 17:24:22.000,76.545,23.155,899.896492
3 Feb 2020 17:24:23.000,76.279,22.955,905.332654
3 Feb 2020 17:24:24.000,76.017,22.758,910.792316
3 Feb 2020 17:24:25.000,75.759,22.561,916.275052
3 Feb 2020 17:24:26.000,75.504,22.366,921.780447
3 Feb 2020 17:24:27.000,75.254,22.173,927.308085
3 Feb 2020 17:24:28.000,75.007,21.981,932.857567
3 Feb 2020 17:24:29.000,74.763,21.790,938.428499
3 Feb 2020 17:24:30.000,74.524,21.601,944.020494
3 Feb 2020 17:24:31.000,74.287,21.414,949.633175
3 Feb 2020 17:24:32.000,74.054,21.227,955.266170
3 Feb 2020 17:24:33.000,73.825,21.043,960.919119
3 Feb 2020 17:24:34.000,73.598,20.860,966.591658
3 Feb 2020 17:24:35.000,73.375,20.678,972.283440
3 Feb 2020 17:24:36.000,73.156,20.497,977.994124
3 Feb 2020 17:24:37.000,72.939,20.318,983.723374
3 Feb 2020 17:24:38.000,72.725,20.141,989.470860
3 Feb 2020 17:24:39.000,72.514,19.965,995.236259
3 Feb 2020 17:24:40.000,72.306,19.790,1001.019256
3 Feb 2020 17:24:41.000,72.102,19.616,1006.819540
3 Feb 2020 17:24:42.000,71.899,19.444,1012.636808
3 Feb 2020 17:24:43.000,71.700,19.273,1018.470762
3 Feb 2020 17:24:44.000,71.503,19.104,1024.321109
3 Feb 2020 17:24:45.000,71.309,18.936,1030.187564
3 Feb 2020 17:24:46.000,71.118,18.769,1036.069849
3 Feb 2020 17:24:47.000,70.929,18.603,1041.967684
3 Feb 2020 17:24:48.000,70.743,18.439,1047.880801
3 Feb 2020 17:24:49.000,70.559,18.276,1053.808936
3 Feb 2020 17:24:50.000,70.378,18.115,1059.751831
3 Feb 2020 17:24:51.000,70.199,17.954,1065.709232
3 Feb 2020 17:24:52.000,70.022,17.795,1071.680890
3 Feb 2020 17:24:53.000,69.848,17.637,1077.666560
3 Feb 2020 17:24:54.000,69.676,17.480,1083.666004
3 Feb 2020 17:24:55.000,69.506,17.324,1089.678987
3 Feb 2020 17:24:56.000,69.339,17.170,1095.705279
3 Feb 2020 17:24:57.000,69.173,17.017,1101.744655
3 Feb 2020 17:24:58.000,69.010,16.865,1107.796893
3 Feb 2020 17:24:59.000,68.849,16.714,1113.861777
3 Feb 2020 17:25:00.000,68.689,16.564,1119.939094
3 Feb 2020 17:25:01.000,68.532,16.415,1126.028637
3 Feb 2020 17:25:02.000,68.377,16.268,1132.130196
3 Feb 2020 17:25:03.000,68.223,16.121,1138.243578
3 Feb 2020 17:25:04.000,68.072,15.976,1144.368584
3 Feb 2020 17:25:05.000,67.922,15.832,1150.505021
3 Feb 2020 17:25:06.000,67.774,15.689,1156.652699
3 Feb 2020 17:25:07.000,67.629,15.546,1162.811432
3 Feb 2020 17:25:08.000,67.484,15.405,1168.981040
3 Feb 2020 17:25:09.000,67.342,15.265,1175.161343
3 Feb 2020 17:25:10.000,67.201,15.126,1181.352166
3 Feb 2020 17:25:11.000,67.062,14.988,1187.553338
3 Feb 2020 17:25:12.000,66.925,14.851,1193.764690
3 Feb 2020 17:25:13.000,66.789,14.715,1199.986056
3 Feb 2020 17:25:14.000,66.655,14.580,1206.217275
3 Feb 2020 17:25:15.000,66.522,14.446,1212.458187
3 Feb 2020 17:25:16.000,66.391,14.313,1218.708635
3 Feb 2020 17:25:17.000,66.261,14.180,1224.968467
3 Feb 2020 17:25:18.000,66.133,14.049,1231.237529
3 Feb 2020 17:25:19.000,66.007,13.919,1237.515680
3 Feb 2020 17:25:20.000,65.882,13.789,1243.802771
3 Feb 2020 17:25:21.000,65.758,13.661,1250.098660
3 Feb 2020 17:25:22.000,65.636,13.533,1256.403207
3 Feb 2020 17:25:23.000,65.515,13.406,1262.716276
3 Feb 2020 17:25:24.000,65.395,13.280,1269.037732
3 Feb 2020 17:25:25.000,65.277,13.155,1275.367442
3 Feb 2020 17:25:26.000,65.160,13.031,1281.705277
3 Feb 2020 17:25:27.000,65.044,12.908,1288.051110
3 Feb 2020 17:25:28.000,64.930,12.785,1294.404812
3 Feb 2020 17:25:29.000,64.817,12.664,1300.766267
3 Feb 2020 17:25:30.000,64.705,12.543,1307.135350
3 Feb 2020 17:25:31.000,64.595,12.423,1313.511945
3 Feb 2020 17:25:32.000,64.485,12.303,1319.895933
3 Feb 2020 17:25:33.000,64.377,12.185,1326.287201
3 Feb 2020 17:25:34.000,64.270,12.067,1332.685637
3 Feb 2020 17:25:35.000,64.164,11.950,1339.091130
3 Feb 2020 17:25:36.000,64.059,11.834,1345.503569
3 Feb 2020 17:25:37.000,63.956,11.718,1351.922854
3 Feb 2020 17:25:38.000,63.853,11.604,1358.348877
3 Feb 2020 17:25:39.000,63.752,11.490,1364.781535
3 Feb 2020 17:25:40.000,63.651,11.376,1371.220728
3 Feb 2020 17:25:41.000,63.552,11.264,1377.666355
3 Feb 2020 17:25:42.000,63.453,11.152,1384.118320
3 Feb 2020 17:25:43.000,63.356,11.041,1390.576524
3 Feb 2020 17:25:44.000,63.260,10.930,1397.040879
3 Feb 2020 17:25:45.000,63.164,10.821,1403.511289
3 Feb 2020 17:25:46.000,63.070,10.711,1409.987663
3 Feb 2020 17:25:47.000,62.976,10.603,1416.469912
3 Feb 2020 17:25:48.000,62.884,10.495,1422.957947
3 Feb 2020 17:25:49.000,62.792,10.388,1429.451680
3 Feb 2020 17:25:50.000,62.702,10.282,1435.951031
3 Feb 2020 17:25:51.000,62.612,10.176,1442.455914
3 Feb 2020 17:25:52.000,62.523,10.071,1448.966247
3 Feb 2020 17:25:53.000,62.435,9.966,1455.481948
3 Feb 2020 17:25:54.000,62.348,9.862,1462.002939
3 Feb 2020 17:25:55.000,62.262,9.759,1468.529138
3 Feb 2020 17:25:56.000,62.177,9.656,1475.060475
3 Feb 2020 17:25:57.000,62.092,9.554,1481.596870
3 Feb 2020 17:25:58.000,62.008,9.452,1488.138250
3 Feb 2020 17:25:59.000,61.925,9.351,1494.684541
3 Feb 2020 17:26:00.000,61.843,9.251,1501.235669
3 Feb 2020 17:26:01.000,61.762,9.151,1507.791568
3 Feb 2020 17:26:02.000,61.681,9.052,1514.352166
3 Feb 2020 17:26:03.000,61.602,8.953,1520.917394
3 Feb 2020 17:26:04.000,61.522,8.855,1527.487185
3 Feb 2020 17:26:05.000,61.444,8.757,1534.061473
3 Feb 2020 17:26:06.000,61.367,8.660,1540.640188
3 Feb 2020 17:26:07.000,61.290,8.563,1547.223274
3 Feb 2020 17:26:08.000,61.214,8.467,1553.810664
3 Feb 2020 17:26:09.000,61.138,8.372,1560.402295
3 Feb 2020 17:26:10.000,61.064,8.277,1566.998106
3 Feb 2020 17:26:11.000,60.990,8.182,1573.598034
3 Feb 2020 17:26:12.000,60.916,8.088,1580.202025
3 Feb 2020 17:26:13.000,60.843,7.995,1586.810018
3 Feb 2020 17:26:14.000,60.771,7.902,1593.421955
3 Feb 2020 17:26:15.000,60.700,7.809,1600.037780
3 Feb 2020 17:26:16.000,60.629,7.717,1606.657434
3 Feb 2020 17:26:17.000,60.559,7.626,1613.280867
3 Feb 2020 17:26:18.000,60.490,7.535,1619.908024
3 Feb 2020 17:26:19.000,60.421,7.444,1626.538849
3 Feb 2020 17:26:20.000,60.353,7.354,1633.173289
3 Feb 2020 17:26:21.000,60.285,7.264,1639.811296
3 Feb 2020 17:26:22.000,60.218,7.175,1646.452818
3 Feb 2020 17:26:23.000,60.152,7.086,1653.097804
3 Feb 2020 17:26:24.000,60.086,6.998,1659.746204
3 Feb 2020 17:26:25.000,60.021,6.910,1666.397967
3 Feb 2020 17:26:26.000,59.956,6.822,1673.053051
3 Feb 2020 17:26:27.000,59.892,6.735,1679.711406
3 Feb 2020 17:26:28.000,59.828,6.649,1686.372984
3 Feb 2020 17:26:29.000,59.765,6.562,1693.037737
3 Feb 2020 17:26:30.000,59.703,6.477,1699.705627
3 Feb 2020 17:26:31.000,59.641,6.391,1706.376604
3 Feb 2020 17:26:32.000,59.579,6.306,1713.050626
3 Feb 2020 17:26:33.000,59.518,6.222,1719.727649
3 Feb 2020 17:26:34.000,59.458,6.137,1726.407626
3 Feb 2020 17:26:35.000,59.398,6.054,1733.090523
3 Feb 2020 17:26:36.000,59.338,5.970,1739.776295
3 Feb 2020 17:26:37.000,59.280,5.887,1746.464900
3 Feb 2020 17:26:38.000,59.221,5.804,1753.156296
3 Feb 2020 17:26:39.000,59.163,5.722,1759.850448
3 Feb 2020 17:26:40.000,59.106,5.640,1766.547315
3 Feb 2020 17:26:41.000,59.049,5.559,1773.246858
3 Feb 2020 17:26:42.000,58.992,5.478,1779.949038
3 Feb 2020 17:26:43.000,58.936,5.397,1786.653815
3 Feb 2020 17:26:44.000,58.881,5.316,1793.361158
3 Feb 2020 17:26:45.000,58.826,5.236,1800.071028
3 Feb 2020 17:26:46.000,58.771,5.156,1806.783388
3 Feb 2020 17:26:47.000,58.717,5.077,1813.498200
3 Feb 2020 17:26:48.000,58.663,4.998,1820.215434
3 Feb 2020 17:26:49.000,58.609,4.919,1826.935054
3 Feb 2020 17:26:50.000,58.556,4.841,1833.657024
3 Feb 2020 17:26:51.000,58.504,4.763,1840.381309
3 Feb 2020 17:26:52.000,58.452,4.685,1847.107880
3 Feb 2020 17:26:53.000,58.400,4.608,1853.836703
3 Feb 2020 17:26:54.000,58.349,4.531,1860.567745
3 Feb 2020 17:26:55.000,58.298,4.454,1867.300970
3 Feb 2020 17:26:56.000,58.247,4.378,1874.036353
3 Feb 2020 17:26:57.000,58.197,4.301,1880.773861
3 Feb 2020 17:26:58.000,58.148,4.226,1887.513462
3 Feb 2020 17:26:59.000,58.098,4.150,1894.255124
3 Feb 2020 17:27:00.000,58.049,4.075,1900.998822
3 Feb 2020 17:27:01.000,58.001,4.000,1907.744523
3 Feb 2020 17:27:02.000,57.953,3.925,1914.492199
3 Feb 2020 17:27:03.000,57.905,3.851,1921.241818
3 Feb 2020 17:27:04.000,57.857,3.777,1927.993357
3 Feb 2020 17:27:05.000,57.810,3.703,1934.746786
3 Feb 2020 17:27:06.000,57.764,3.630,1941.502076
3 Feb 2020 17:27:07.000,57.717,3.557,1948.259197
3 Feb 2020 17:27:08.000,57.671,3.484,1955.018129
3 Feb 2020 17:27:09.000,57.625,3.411,1961.778842
3 Feb 2020 17:27:10.000,57.580,3.339,1968.541309
3 Feb 2020 17:27:11.000,57.535,3.267,1975.305501
3 Feb 2020 17:27:12.000,57.490,3.195,1982.071399
3 Feb 2020 17:27:13.000,57.446,3.124,1988.838974
3 Feb 2020 17:27:14.000,57.402,3.053,1995.608201
3 Feb 2020 17:27:15.000,57.358,2.982,2002.379052
3 Feb 2020 17:27:16.000,57.315,2.911,2009.151510
3 Feb 2020 17:27:17.000,57.272,2.841,2015.925546
3 Feb 2020 17:27:18.000,57.229,2.770,2022.701137
3 Feb 2020 17:27:19.000,57.187,2.700,2029.478257
3 Feb 2020 17:27:20.000,57.145,2.631,2036.256888
3 Feb 2020 17:27:21.000,57.103,2.561,2043.037003
3 Feb 2020 17:27:22.000,57.061,2.492,2049.818581
3 Feb 2020 17:27:23.000,57.020,2.423,2056.601596
3 Feb 2020 17:27:24.000,56.979,2.354,2063.386031
3 Feb 2020 17:27:25.000,56.939,2.286,2070.171862
3 Feb 2020 17:27:26.000,56.898,2.218,2076.959064
3 Feb 2020 17:27:27.000,56.858,2.150,2083.747622
3 Feb 2020 17:27:28.000,56.818,2.082,2090.537510
3 Feb 2020 17:27:29.000,56.779,2.014,2097.328709
3 Feb 2020 17:27:30.000,56.740,1.947,2104.121195
3 Feb 2020 17:27:31.000,56.701,1.880,2110.914953
3 Feb 2020 17:27:32.000,56.662,1.813,2117.709959
3 Feb 2020 17:27:33.000,56.624,1.747,2124.506195
3 Feb 2020 17:27:34.000,56.586,1.680,2131.303636
3 Feb 2020 17:27:35.000,56.548,1.614,2138.102270
3 Feb 2020 17:27:36.000,56.510,1.548,2144.902074
3 Feb 2020 17:27:37.000,56.473,1.482,2151.703029
3 Feb 2020 17:27:38.000,56.436,1.417,2158.505114
3 Feb 2020 17:27:39.000,56.399,1.351,2165.308314
3 Feb 2020 17:27:40.000,56.363,1.286,2172.112610
3 Feb 2020 17:27:41.000,56.326,1.221,2178.917979
3 Feb 2020 17:27:42.000,56.290,1.157,2185.724409
3 Feb 2020 17:27:43.000,56.254,1.092,2192.531880
3 Feb 2020 17:27:44.000,56.219,1.028,2199.340374
3 Feb 2020 17:27:45.000,56.183,0.964,2206.149870
3 Feb 2020 17:27:46.000,56.148,0.900,2212.960358
3 Feb 2020 17:27:47.000,56.113,0.836,2219.771816
3 Feb 2020 17:27:48.000,56.079,0.773,2226.584228
3 Feb 2020 17:27:49.000,56.044,0.709,2233.397574
3 Feb 2020 17:27:50.000,56.010,0.646,2240.211843
3 Feb 2020 17:27:51.000,55.976,0.583,2247.027017
3 Feb 2020 17:27:52.000,55.943,0.520,2253.843075
3 Feb 2020 17:27:53.000,55.909,0.458,2260.660008
3 Feb 2020 17:27:54.000,55.876,0.396,2267.477797
3 Feb 2020 17:27:55.000,55.843,0.333,2274.296425
3 Feb 2020 17:27:56.000,55.810,0.271,2281.115876
3 Feb 2020 17:27:57.000,55.777,0.209,2287.936138
3 Feb 2020 17:27:58.000,55.745,0.148,2294.757194
3 Feb 2020 17:27:59.000,55.713,0.086,2301.579028
3 Feb 2020 17:28:00.000,55.681,0.025,2308.401623
3 Feb 2020 17:28:01.000,55.649,-0.036,2315.224970
3 Feb 2020 17:28:02.000,55.618,-0.097,2322.049050
3 Feb 2020 17:28:02.442,55.604,-0.124,2325.065406
3 Feb 2020 18:54:18.063,261.845,-0.124,2319.229171
3 Feb 2020 18:54:19.000,261.915,-0.071,2313.301821
3 Feb 2020 18:54:20.000,261.990,-0.014,2306.978286
3 Feb 2020 18:54:21.000,262.065,0.043,2300.658034
3 Feb 2020 18:54:22.000,262.140,0.100,2294.341105
3 Feb 2020 18:54:23.000,262.216,0.157,2288.027531
3 Feb 2020 18:54:24.000,262.293,0.214,2281.717347
3 Feb 2020 18:54:25.000,262.370,0.272,2275.410588
3 Feb 2020 18:54:26.000,262.447,0.329,2269.107290
3 Feb 2020 18:54:27.000,262.524,0.387,2262.807490
3 Feb 2020 18:54:28.000,262.602,0.445,2256.511223
3 Feb 2020 18:54:29.000,262.681,0.503,2250.218526
3 Feb 2020 18:54:30.000,262.760,0.561,2243.929437
3 Feb 2020 18:54:31.000,262.839,0.619,2237.643990
3 Feb 2020 18:54:32.000,262.919,0.678,2231.362229
3 Feb 2020 18:54:33.000,262.999,0.736,2225.084190
3 Feb 2020 18:54:34.000,263.080,0.795,2218.809911
3 Feb 2020 18:54:35.000,263.161,0.854,2212.539431
3 Feb 2020 18:54:36.000,263.242,0.913,2206.272790
3 Feb 2020 18:54:37.000,263.324,0.972,2200.010028
3 Feb 2020 18:54:38.000,263.407,1.031,2193.751185
3 Feb 2020 18:54:39.000,263.490,1.091,2187.496301
3 Feb 2020 18:54:40.000,263.573,1.150,2181.245419
3 Feb 2020 18:54:41.000,263.657,1.210,2174.998579
3 Feb 2020 18:54:42.000,263.741,1.270,2168.755820
3 Feb 2020 18:54:43.000,263.826,1.330,2162.517192
3 Feb 2020 18:54:44.000,263.912,1.390,2156.282734
3 Feb 2020 18:54:45.000,263.997,1.450,2150.052490
3 Feb 2020 18:54:46.000,264.084,1.510,2143.826502
3 Feb 2020 18:54:47.000,264.170,1.571,2137.604816
3 Feb 2020 18:54:48.000,264.258,1.631,2131.387476
3 Feb 2020 18:54:49.000,264.345,1.692,2125.174527
3 Feb 2020 18:54:50.000,264.434,1.753,2118.966015
3 Feb 2020 18:54:51.000,264.522,1.814,2112.761986
3 Feb 2020 18:54:52.000,264.612,1.876,2106.562487
3 Feb 2020 18:54:53.000,264.702,1.937,2100.367565
3 Feb 2020 18:54:54.000,264.792,1.999,2094.177268
3 Feb 2020 18:54:55.000,264.883,2.061,2087.991639
3 Feb 2020 18:54:56.000,264.974,2.122,2081.810736
3 Feb 2020 18:54:57.000,265.066,2.185,2075.634603
3 Feb 2020 18:54:58.000,265.158,2.247,2069.463290
3 Feb 2020 18:54:59.000,265.251,2.309,2063.296848
3 Feb 2020 18:55:00.000,265.345,2.372,2057.135327
3 Feb 2020 18:55:01.000,265.439,2.434,2050.978779
3 Feb 2020 18:55:02.000,265.534,2.497,2044.827255
3 Feb 2020 18:55:03.000,265.629,2.560,2038.680809
3 Feb 2020 18:55:04.000,265.725,2.624,2032.539492
3 Feb 2020 18:55:05.000,265.821,2.687,2026.403358
3 Feb 2020 18:55:06.000,265.918,2.751,2020.272463
3 Feb 2020 18:55:07.000,266.016,2.814,2014.146859
3 Feb 2020 18:55:08.000,266.114,2.878,2008.026604
3 Feb 2020 18:55:09.000,266.213,2.942,2001.911752
3 Feb 2020 18:55:10.000,266.312,3.006,1995.802361
3 Feb 2020 18:55:11.000,266.412,3.071,1989.698488
3 Feb 2020 18:55:12.000,266.513,3.135,1983.600189
3 Feb 2020 18:55:13.000,266.614,3.200,1977.507525
3 Feb 2020 18:55:14.000,266.716,3.265,1971.420554
3 Feb 2020 18:55:15.000,266.818,3.330,1965.339335
3 Feb 2020 18:55:16.000,266.921,3.395,1959.263930
3 Feb 2020 18:55:17.000,267.025,3.461,1953.194399
3 Feb 2020 18:55:18.000,267.129,3.526,1947.130800
3 Feb 2020 18:55:19.000,267.234,3.592,1941.073204
3 Feb 2020 18:55:20.000,267.340,3.658,1935.021670
3 Feb 2020 18:55:21.000,267.446,3.724,1928.976261
3 Feb 2020 18:55:22.000,267.553,3.791,1922.937042
3 Feb 2020 18:55:23.000,267.661,3.857,1916.904079
3 Feb 2020 18:55:24.000,267.769,3.924,1910.877437
3 Feb 2020 18:55:25.000,267.878,3.991,1904.857184
3 Feb 2020 18:55:26.000,267.988,4.058,1898.843387
3 Feb 2020 18:55:27.000,268.098,4.125,1892.836114
3 Feb 2020 18:55:28.000,268.209,4.192,1886.835434
3 Feb 2020 18:55:29.000,268.321,4.260,1880.841418
3 Feb 2020 18:55:30.000,268.434,4.328,1874.854135
3 Feb 2020 18:55:31.000,268.547,4.396,1868.873658
3 Feb 2020 18:55:32.000,268.661,4.464,1862.900058
3 Feb 2020 18:55:33.000,268.776,4.532,1856.933409
3 Feb 2020 18:55:34.000,268.891,4.601,1850.973785
3 Feb 2020 18:55:35.000,269.008,4.670,1845.021260
3 Feb 2020 18:55:36.000,269.125,4.739,1839.075910
3 Feb 2020 18:55:37.000,269.242,4.808,1833.137811
3 Feb 2020 18:55:38.000,269.361,4.877,1827.207042
3 Feb 2020 18:55:39.000,269.480,4.947,1821.283679
3 Feb 2020 18:55:40.000,269.600,5.017,1815.367807
3 Feb 2020 18:55:41.000,269.721,5.087,1809.459498
3 Feb 2020 18:55:42.000,269.843,5.157,1803.558835
3 Feb 2020 18:55:43.000,269.965,5.227,1797.665903
3 Feb 2020 18:55:44.000,270.089,5.298,1791.780782
3 Feb 2020 18:55:45.000,270.213,5.368,1785.903557
3 Feb 2020 18:55:46.000,270.338,5.439,1780.034314
3 Feb 2020 18:55:47.000,270.464,5.511,1774.173137
3 Feb 2020 18:55:48.000,270.590,5.582,1768.320113
3 Feb 2020 18:55:49.000,270.718,5.654,1762.475331
3 Feb 2020 18:55:50.000,270.846,5.725,1756.638879
3 Feb 2020 18:55:51.000,270.975,5.797,1750.810847
3 Feb 2020 18:55:52.000,271.106,5.870,1744.991325
3 Feb 2020 18:55:53.000,271.237,5.942,1739.180406
3 Feb 2020 18:55:54.000,271.369,6.015,1733.378184
3 Feb 2020 18:55:55.000,271.501,6.087,1727.584751
3 Feb 2020 18:55:56.000,271.635,6.160,1721.800203
3 Feb 2020 18:55:57.000,271.770,6.234,1716.024636
3 Feb 2020 18:55:58.000,271.905,6.307,1710.258149
3 Feb 2020 18:55:59.000,272.042,6.381,1704.500839
3 Feb 2020 18:56:00.000,272.179,6.455,1698.752810
3 Feb 2020 18:56:01.000,272.318,6.529,1693.014156
3 Feb 2020 18:56:02.000,272.457,6.603,1687.284981
3 Feb 2020 18:56:03.000,272.597,6.678,1681.565391
3 Feb 2020 18:56:04.000,272.739,6.753,1675.855488
3 Feb 2020 18:56:05.000,272.881,6.828,1670.155380
3 Feb 2020 18:56:06.000,273.024,6.903,1664.465172
3 Feb 2020 18:56:07.000,273.169,6.978,1658.784973
3 Feb 2020 18:56:08.000,273.314,7.054,1653.114893
3 Feb 2020 18:56:09.000,273.460,7.130,1647.455042
3 Feb 2020 18:56:10.000,273.608,7.206,1641.805537
3 Feb 2020 18:56:11.000,273.756,7.282,1636.166482
3 Feb 2020 18:56:12.000,273.906,7.359,1630.537998
3 Feb 2020 18:56:13.000,274.056,7.435,1624.920199
3 Feb 2020 18:56:14.000,274.208,7.512,1619.313203
3 Feb 2020 18:56:15.000,274.361,7.589,1613.717130
3 Feb 2020 18:56:16.000,274.515,7.667,1608.132099
3 Feb 2020 18:56:17.000,274.670,7.745,1602.558232
3 Feb 2020 18:56:18.000,274.826,7.822,1596.995656
3 Feb 2020 18:56:19.000,274.983,7.900,1591.444488
3 Feb 2020 18:56:20.000,275.141,7.979,1585.904857
3 Feb 2020 18:56:21.000,275.301,8.057,1580.376892
3 Feb 2020 18:56:22.000,275.462,8.136,1574.860721
3 Feb 2020 18:56:23.000,275.623,8.215,1569.356475
3 Feb 2020 18:56:24.000,275.786,8.294,1563.864289
3 Feb 2020 18:56:25.000,275.951,8.374,1558.384289
3 Feb 2020 18:56:26.000,276.116,8.453,1552.916615
3 Feb 2020 18:56:27.000,276.283,8.533,1547.461403
3 Feb 2020 18:56:28.000,276.451,8.613,1542.018791
3 Feb 2020 18:56:29.000,276.620,8.693,1536.588920
3 Feb 2020 18:56:30.000,276.790,8.774,1531.171935
3 Feb 2020 18:56:31.000,276.962,8.855,1525.767970
3 Feb 2020 18:56:32.000,277.135,8.935,1520.377176
3 Feb 2020 18:56:33.000,277.309,9.017,1514.999698
3 Feb 2020 18:56:34.000,277.484,9.098,1509.635685
3 Feb 2020 18:56:35.000,277.661,9.180,1504.285291
3 Feb 2020 18:56:36.000,277.839,9.261,1498.948659
3 Feb 2020 18:56:37.000,278.019,9.343,1493.625948
3 Feb 2020 18:56:38.000,278.200,9.426,1488.317311
3 Feb 2020 18:56:39.000,278.382,9.508,1483.022910
3 Feb 2020 18:56:40.000,278.565,9.591,1477.742897
3 Feb 2020 18:56:41.000,278.750,9.674,1472.477435
3 Feb 2020 18:56:42.000,278.937,9.757,1467.226687
3 Feb 2020 18:56:43.000,279.124,9.840,1461.990821
3 Feb 2020 18:56:44.000,279.313,9.924,1456.769997
3 Feb 2020 18:56:45.000,279.504,10.007,1451.564385
3 Feb 2020 18:56:46.000,279.696,10.091,1446.374155
3 Feb 2020 18:56:47.000,279.890,10.175,1441.199484
3 Feb 2020 18:56:48.000,280.084,10.260,1436.040538
3 Feb 2020 18:56:49.000,280.281,10.344,1430.897496
3 Feb 2020 18:56:50.000,280.479,10.429,1425.770536
3 Feb 2020 18:56:51.000,280.678,10.514,1420.659841
3 Feb 2020 18:56:52.000,280.879,10.599,1415.565586
3 Feb 2020 18:56:53.000,281.082,10.684,1410.487958
3 Feb 2020 18:56:54.000,281.286,10.770,1405.427147
3 Feb 2020 18:56:55.000,281.492,10.855,1400.383334
3 Feb 2020 18:56:56.000,281.699,10.941,1395.356711
3 Feb 2020 18:56:57.000,281.908,11.027,1390.347474
3 Feb 2020 18:56:58.000,282.118,11.113,1385.355810
3 Feb 2020 18:56:59.000,282.330,11.200,1380.381919
3 Feb 2020 18:57:00.000,282.544,11.286,1375.426003
3 Feb 2020 18:57:01.000,282.759,11.373,1370.488255
3 Feb 2020 18:57:02.000,282.977,11.460,1365.568881
3 Feb 2020 18:57:03.000,283.195,11.547,1360.668089
3 Feb 2020 18:57:04.000,283.416,11.634,1355.786079
3 Feb 2020 18:57:05.000,283.638,11.722,1350.923063
3 Feb 2020 18:57:06.000,283.862,11.809,1346.079257
3 Feb 2020 18:57:07.000,284.087,11.897,1341.254866
3 Feb 2020 18:57:08.000,284.315,11.985,1336.450113
3 Feb 2020 18:57:09.000,284.544,12.073,1331.665209
3 Feb 2020 18:57:10.000,284.774,12.161,1326.900377
3 Feb 2020 18:57:11.000,285.007,12.249,1322.155843
3 Feb 2020 18:57:12.000,285.242,12.337,1317.431825
3 Feb 2020 18:57:13.000,285.478,12.426,1312.728555
3 Feb 2020 18:57:14.000,285.716,12.514,1308.046257
3 Feb 2020 18:57:15.000,285.956,12.603,1303.385167
3 Feb 2020 18:57:16.000,286.198,12.692,1298.745513
3 Feb 2020 18:57:17.000,286.442,12.781,1294.127533
3 Feb 2020 18:57:18.000,286.687,12.870,1289.531469
3 Feb 2020 18:57:19.000,286.935,12.959,1284.957554
3 Feb 2020 18:57:20.000,287.184,13.048,1280.406037
3 Feb 2020 18:57:21.000,287.436,13.137,1275.877156
3 Feb 2020 18:57:22.000,287.689,13.226,1271.371164
3 Feb 2020 18:57:23.000,287.944,13.315,1266.888304
3 Feb 2020 18:57:24.000,288.202,13.405,1262.428835
3 Feb 2020 18:57:25.000,288.461,13.494,1257.993001
3 Feb 2020 18:57:26.000,288.722,13.584,1253.581067
3 Feb 2020 18:57:27.000,288.985,13.673,1249.193283
3 Feb 2020 18:57:28.000,289.251,13.763,1244.829916
3 Feb 2020 18:57:29.000,289.518,13.852,1240.491222
3 Feb 2020 18:57:30.000,289.787,13.942,1236.177472
3 Feb 2020 18:57:31.000,290.059,14.031,1231.888929
3 Feb 2020 18:57:32.000,290.333,14.121,1227.625858
3 Feb 2020 18:57:33.000,290.608,14.210,1223.388537
3 Feb 2020 18:57:34.000,290.886,14.300,1219.177233
3 Feb 2020 18:57:35.000,291.166,14.389,1214.992227
3 Feb 2020 18:57:36.000,291.448,14.478,1210.833792
3 Feb 2020 18:57:37.000,291.732,14.568,1206.702206
3 Feb 2020 18:57:38.000,292.018,14.657,1202.597755
3 Feb 2020 18:57:39.000,292.307,14.746,1198.520715
3 Feb 2020 18:57:40.000,292.598,14.835,1194.471380
3 Feb 2020 18:57:41.000,292.891,14.924,1190.450031
3 Feb 2020 18:57:42.000,293.186,15.013,1186.456955
3 Feb 2020 18:57:43.000,293.483,15.102,1182.492450
3 Feb 2020 18:57:44.000,293.782,15.190,1178.556803
3 Feb 2020 18:57:45.000,294.084,15.279,1174.650307
3 Feb 2020 18:57:46.000,294.388,15.367,1170.773263
3 Feb 2020 18:57:47.000,294.694,15.455,1166.925966
3 Feb 2020 18:57:48.000,295.003,15.543,1163.108716
3 Feb 2020 18:57:49.000,295.314,15.630,1159.321809
3 Feb 2020 18:57:50.000,295.627,15.718,1155.565555
3 Feb 2020 18:57:51.000,295.942,15.805,1151.840253
3 Feb 2020 18:57:52.000,296.260,15.892,1148.146210
3 Feb 2020 18:57:53.000,296.580,15.979,1144.483729
3 Feb 2020 18:57:54.000,296.902,16.065,1140.853123
3 Feb 2020 18:57:55.000,297.226,16.151,1137.254699
3 Feb 2020 18:57:56.000,297.553,16.237,1133.688767
3 Feb 2020 18:57:57.000,297.882,16.323,1130.155638
3 Feb 2020 18:57:58.000,298.214,16.408,1126.655621
3 Feb 2020 18:57:59.000,298.548,16.493,1123.189036
3 Feb 2020 18:58:00.000,298.884,16.577,1119.756193
3 Feb 2020 18:58:01.000,299.222,16.661,1116.357408
3 Feb 2020 18:58:02.000,299.563,16.745,1112.992995
3 Feb 2020 18:58:03.000,299.906,16.828,1109.663271
3 Feb 2020 18:58:04.000,300.252,16.911,1106.368553
3 Feb 2020 18:58:05.000,300.599,16.993,1103.109154
3 Feb 2020 18:58:06.000,300.950,17.075,1099.885399
3 Feb 2020 18:58:07.000,301.302,17.157,1096.697601
3 Feb 2020 18:58:08.000,301.657,17.238,1093.546078
3 Feb 2020 18:58:09.000,302.014,17.318,1090.431147
3 Feb 2020 18:58:10.000,302.374,17.398,1087.353128
3 Feb 2020 18:58:11.000,302.735,17.477,1084.312336
3 Feb 2020 18:58:12.000,303.100,17.556,1081.309089
3 Feb 2020 18:58:13.000,303.466,17.634,1078.343705
3 Feb 2020 18:58:14.000,303.835,17.711,1075.416498
3 Feb 2020 18:58:15.000,304.206,17.788,1072.527784
3 Feb 2020 18:58:16.000,304.579,17.864,1069.677879
3 Feb 2020 18:58:17.000,304.955,17.940,1066.867096
3 Feb 2020 18:58:18.000,305.333,18.015,1064.095747
3 Feb 2020 18:58:19.000,305.713,18.089,1061.364145
3 Feb 2020 18:58:20.000,306.095,18.162,1058.672603
3 Feb 2020 18:58:21.000,306.480,18.235,1056.021424
3 Feb 2020 18:58:22.000,306.867,18.306,1053.410917
3 Feb 2020 18:58:23.000,307.256,18.377,1050.841389
3 Feb 2020 18:58:24.000,307.647,18.447,1048.313144
3 Feb 2020 18:58:25.000,308.041,18.517,1045.826484
3 Feb 2020 18:58:26.000,308.436,18.585,1043.381707
3 Feb 2020 18:58:27.000,308.834,18.653,1040.979114
3 Feb 2020 18:58:28.000,309.234,18.719,1038.618996
3 Feb 2020 18:58:29.000,309.636,18.785,1036.301646
3 Feb 2020 18:58:30.000,310.040,18.850,1034.027355
3 Feb 2020 18:58:31.000,310.446,18.913,1031.796413
3 Feb 2020 18:58:32.000,310.855,18.976,1029.609097
3 Feb 2020 18:58:33.000,311.265,19.038,1027.465691
3 Feb 2020 18:58:34.000,311.677,19.099,1025.366472
3 Feb 2020 18:58:35.000,312.091,19.158,1023.311718
3 Feb 2020 18:58:36.000,312.507,19.217,1021.301692
3 Feb 2020 18:58:37.000,312.925,19.274,1019.336665
3 Feb 2020 18:58:38.000,313.345,19.331,1017.416900
3 Feb 2020 18:58:39.000,313.767,19.386,1015.542652
3 Feb 2020 18:58:40.000,314.190,19.440,1013.714176
3 Feb 2020 18:58:41.000,314.616,19.493,1011.931726
3 Feb 2020 18:58:42.000,315.043,19.544,1010.195541
3 Feb 2020 18:58:43.000,315.471,19.595,1008.505867
3 Feb 2020 18:58:44.000,315.902,19.644,1006.862934
3 Feb 2020 18:58:45.000,316.334,19.692,1005.266979
3 Feb 2020 18:58:46.000,316.768,19.739,1003.718220
3 Feb 2020 18:58:47.000,317.203,19.784,1002.216884
3 Feb 2020 18:58:48.000,317.640,19.828,1000.763180
3 Feb 2020 18:58:49.000,318.078,19.871,999.357322
3 Feb 2020 18:58:50.000,318.518,19.912,997.999509
3 Feb 2020 18:58:51.000,318.959,19.952,996.689942
3 Feb 2020 18:58:52.000,319.401,19.991,995.428809
3 Feb 2020 18:58:53.000,319.845,20.028,994.216298
3 Feb 2020 18:58:54.000,320.290,20.064,993.052586
3 Feb 2020 18:58:55.000,320.736,20.099,991.937848
3 Feb 2020 18:58:56.000,321.183,20.132,990.872248
3 Feb 2020 18:58:57.000,321.632,20.163,989.855944
3 Feb 2020 18:58:58.000,322.081,20.193,988.889093
3 Feb 2020 18:58:59.000,322.532,20.222,987.971838
3 Feb 2020 18:59:00.000,322.983,20.249,987.104316
3 Feb 2020 18:59:01.000,323.436,20.275,986.286663
3 Feb 2020 18:59:02.000,323.889,20.299,985.519001
3 Feb 2020 18:59:03.000,324.343,20.321,984.801447
3 Feb 2020 18:59:04.000,324.798,20.342,984.134110
3 Feb 2020 18:59:05.000,325.254,20.362,983.517096
3 Feb 2020 18:59:06.000,325.710,20.380,982.950498
3 Feb 2020 18:59:07.000,326.167,20.396,982.434402
3 Feb 2020 18:59:08.000,326.624,20.411,981.968890
3 Feb 2020 18:59:09.000,327.082,20.424,981.554030
3 Feb 2020 18:59:10.000,327.541,20.436,981.189891
3 Feb 2020 18:59:11.000,327.999,20.446,980.876528
3 Feb 2020 18:59:12.000,328.458,20.454,980.613988
3 Feb 2020 18:59:13.000,328.918,20.461,980.402313
3 Feb 2020 18:59:14.000,329.377,20.466,980.241535
3 Feb 2020 18:59:15.000,329.837,20.470,980.131678
3 Feb 2020 18:59:16.000,330.297,20.472,980.072760
3 Feb 2020 18:59:17.000,330.756,20.473,980.064789
3 Feb 2020 18:59:18.000,331.216,20.472,980.107765
3 Feb 2020 18:59:19.000,331.676,20.469,980.201682
3 Feb 2020 18:59:20.000,332.135,20.465,980.346525
3 Feb 2020 18:59:21.000,332.595,20.459,980.542269
3 Feb 2020 18:59:22.000,333.054,20.451,980.788884
3 Feb 2020 18:59:23.000,333.513,20.442,981.086330
3 Feb 2020 18:59:24.000,333.971,20.431,981.434561
3 Feb 2020 18:59:25.000,334.429,20.419,981.833521
3 Feb 2020 18:59:26.000,334.887,20.405,982.283149
3 Feb 2020 18:59:27.000,335.344,20.390,982.783371
3 Feb 2020 18:59:28.000,335.800,20.373,983.334111
3 Feb 2020 18:59:29.000,336.256,20.354,983.935283
3 Feb 2020 18:59:30.000,336.711,20.334,984.586792
3 Feb 2020 18:59:31.000,337.166,20.313,985.288539
3 Feb 2020 18:59:32.000,337.619,20.290,986.040414
3 Feb 2020 18:59:33.000,338.072,20.265,986.842300
3 Feb 2020 18:59:34.000,338.524,20.239,987.694075
3 Feb 2020 18:59:35.000,338.975,20.211,988.595609
3 Feb 2020 18:59:36.000,339.425,20.182,989.546763
3 Feb 2020 18:59:37.000,339.874,20.151,990.547393
3 Feb 2020 18:59:38.000,340.322,20.119,991.597349
3 Feb 2020 18:59:39.000,340.768,20.086,992.696470
3 Feb 2020 18:59:40.000,341.214,20.051,993.844593
3 Feb 2020 18:59:41.000,341.658,20.015,995.041546
3 Feb 2020 18:59:42.000,342.101,19.977,996.287150
3 Feb 2020 18:59:43.000,342.542,19.938,997.581223
3 Feb 2020 18:59:44.000,342.982,19.897,998.923573
3 Feb 2020 18:59:45.000,343.421,19.855,1000.314003
3 Feb 2020 18:59:46.000,343.858,19.812,1001.752312
3 Feb 2020 18:59:47.000,344.294,19.768,1003.238291
3 Feb 2020 18:59:48.000,344.729,19.722,1004.771727
3 Feb 2020 18:59:49.000,345.161,19.675,1006.352400
3 Feb 2020 18:59:50.000,345.592,19.626,1007.980086
3 Feb 2020 18:59:51.000,346.022,19.577,1009.654554
3 Feb 2020 18:59:52.000,346.449,19.526,1011.375571
3 Feb 2020 18:59:53.000,346.875,19.474,1013.142896
3 Feb 2020 18:59:54.000,347.299,19.421,1014.956284
3 Feb 2020 18:59:55.000,347.722,19.366,1016.815488
3 Feb 2020 18:59:56.000,348.142,19.311,1018.720252
3 Feb 2020 18:59:57.000,348.561,19.254,1020.670320
3 Feb 2020 18:59:58.000,348.978,19.196,1022.665429
3 Feb 2020 18:59:59.000,349.393,19.137,1024.705313
3 Feb 2020 19:00:00.000,349.806,19.077,1026.789703
3 Feb 2020 19:00:01.000,350.217,19.016,1028.918325
3 Feb 2020 19:00:02.000,350.625,18.954,1031.090903
3 Feb 2020 19:00:03.000,351.032,18.891,1033.307155
3 Feb 2020 19:00:04.000,351.437,18.827,1035.566799
3 Feb 2020 19:00:05.000,351.840,18.762,1037.869547
3 Feb 2020 19:00:06.000,352.241,18.697,1040.215111
3 Feb 2020 19:00:07.000,352.639,18.630,1042.603198
3 Feb 2020 19:00:08.000,353.036,18.562,1045.033513
3 Feb 2020 19:00:09.000,353.430,18.493,1047.505760
3 Feb 2020 19:00:10.000,353.822,18.424,1050.019638
3 Feb 2020 19:00:11.000,354.212,18.354,1052.574845
3 Feb 2020 19:00:12.000,354.600,18.283,1055.171079
3 Feb 2020 19:00:13.000,354.985,18.211,1057.808033
3 Feb 2020 19:00:14.000,355.369,18.138,1060.485400
3 Feb 2020 19:00:15.000,355.750,18.065,1063.202871
3 Feb 2020 19:00:16.000,356.128,17.991,1065.960136
3 Feb 2020 19:00:17.000,356.505,17.916,1068.756882
3 Feb 2020 19:00:18.000,356.879,17.840,1071.592798
3 Feb 2020 19:00:19.000,357.251,17.764,1074.467569
3 Feb 2020 19:00:20.000,357.621,17.687,1077.380881
3 Feb 2020 19:00:21.000,357.988,17.610,1080.332417
3 Feb 2020 19:00:22.000,358.353,17.531,1083.321861
3 Feb 2020 19:00:23.000,358.716,17.453,1086.348896
3 Feb 2020 19:00:24.000,359.076,17.373,1089.413206
3 Feb 2020 19:00:25.000,359.434,17.294,1092.514471
3 Feb 2020 19:00:26.000,359.790,17.213,1095.652375
3 Feb 2020 19:00:27.000,0.143,17.132,1098.826599
3 Feb 2020 19:00:28.000,0.494,17.051,1102.036826
3 Feb 2020 19:00:29.000,0.843,16.969,1105.282736
3 Feb 2020 19:00:30.000,1.190,16.887,1108.564014
3 Feb 2020 19:00:31.000,1.534,16.804,1111.880340
3 Feb 2020 19:00:32.000,1.875,16.721,1115.231399
3 Feb 2020 19:00:33.000,2.215,16.637,1118.616873
3 Feb 2020 19:00:34.000,2.552,16.553,1122.036446
3 Feb 2020 19:00:35.000,2.887,16.469,1125.489805
3 Feb 2020 19:00:36.000,3.219,16.384,1128.976633
3 Feb 2020 19:00:37.000,3.549,16.299,1132.496617
3 Feb 2020 19:00:38.000,3.877,16.214,1136.049445
3 Feb 2020 19:00:39.000,4.202,16.128,1139.634804
3 Feb 2020 19:00:40.000,4.525,16.042,1143.252384
3 Feb 2020 19:00:41.000,4.846,15.956,1146.901875
3 Feb 2020 19:00:42.000,5.165,15.869,1150.582970
3 Feb 2020 19:00:43.000,5.481,15.782,1154.295360
3 Feb 2020 19:00:44.000,5.795,15.695,1158.038741
3 Feb 2020 19:00:45.000,6.107,15.608,1161.812807
3 Feb 2020 19:00:46.000,6.416,15.521,1165.617256
3 Feb 2020 19:00:47.000,6.723,15.433,1169.451786
3 Feb 2020 19:00:48.000,7.028,15.345,1173.316098
3 Feb 2020 19:00:49.000,7.331,15.257,1177.209893
3 Feb 2020 19:00:50.000,7.631,15.169,1181.132875
3 Feb 2020 19:00:51.000,7.930,15.081,1185.084748
3 Feb 2020 19:00:52.000,8.226,14.992,1189.065221
3 Feb 2020 19:00:53.000,8.519,14.904,1193.074001
3 Feb 2020 19:00:54.000,8.811,14.815,1197.110798
3 Feb 2020 19:00:55.000,9.100,14.726,1201.175326
3 Feb 2020 19:00:56.000,9.388,14.637,1205.267299
3 Feb 2020 19:00:57.000,9.673,14.548,1209.386432
3 Feb 2020 19:00:58.000,9.956,14.459,1213.532444
3 Feb 2020 19:00:59.000,10.237,14.370,1217.705056
3 Feb 2020 19:01:00.000,10.515,14.281,1221.903988
3 Feb 2020 19:01:01.000,10.792,14.192,1226.128967
3 Feb 2020 19:01:02.000,11.066,14.103,1230.379717
3 Feb 2020 19:01:03.000,11.339,14.013,1234.655967
3 Feb 2020 19:01:04.000,11.609,13.924,1238.957448
3 Feb 2020 19:01:05.000,11.877,13.835,1243.283894
3 Feb 2020 19:01:06.000,12.144,13.746,1247.635038
3 Feb 2020 19:01:07.000,12.408,13.656,1252.010616
3 Feb 2020 19:01:08.000,12.670,13.567,1256.410370
3 Feb 2020 19:01:09.000,12.930,13.478,1260.834039
3 Feb 2020 19:01:10.000,13.188,13.389,1265.281369
3 Feb 2020 19:01:11.000,13.445,13.300,1269.752103
3 Feb 2020 19:01:12.000,13.699,13.211,1274.245991
3 Feb 2020 19:01:13.000,13.951,13.122,1278.762782
3 Feb 2020 19:01:14.000,14.201,13.033,1283.302230
3 Feb 2020 19:01:15.000,14.450,12.944,1287.864088
3 Feb 2020 19:01:16.000,14.696,12.856,1292.448115
3 Feb 2020 19:01:17.000,14.941,12.767,1297.054068
3 Feb 2020 19:01:18.000,15.184,12.678,1301.681710
3 Feb 2020 19:01:19.000,15.425,12.590,1306.330804
3 Feb 2020 19:01:20.000,15.664,12.502,1311.001117
3 Feb 2020 19:01:21.000,15.901,12.413,1315.692415
3 Feb 2020 19:01:22.000,16.136,12.325,1320.404470
3 Feb 2020 19:01:23.000,16.370,12.237,1325.137056
3 Feb 2020 19:01:24.000,16.601,12.149,1329.889945
3 Feb 2020 19:01:25.000,16.831,12.062,1334.662916
3 Feb 2020 19:01:26.000,17.060,11.974,1339.455748
3 Feb 2020 19:01:27.000,17.286,11.887,1344.268222
3 Feb 2020 19:01:28.000,17.511,11.799,1349.100124
3 Feb 2020 19:01:29.000,17.734,11.712,1353.951237
3 Feb 2020 19:01:30.000,17.955,11.625,1358.821352
3 Feb 2020 19:01:31.000,18.175,11.538,1363.710256
3 Feb 2020 19:01:32.000,18.393,11.451,1368.617744
3 Feb 2020 19:01:33.000,18.609,11.365,1373.543611
3 Feb 2020 19:01:34.000,18.823,11.279,1378.487653
3 Feb 2020 19:01:35.000,19.036,11.192,1383.449668
3 Feb 2020 19:01:36.000,19.248,11.106,1388.429460
3 Feb 2020 19:01:37.000,19.457,11.020,1393.426829
3 Feb 2020 19:01:38.000,19.665,10.935,1398.441581
3 Feb 2020 19:01:39.000,19.872,10.849,1403.473527
3 Feb 2020 19:01:40.000,20.077,10.764,1408.522472
3 Feb 2020 19:01:41.000,20.280,10.679,1413.588229
3 Feb 2020 19:01:42.000,20.482,10.594,1418.670613
3 Feb 2020 19:01:43.000,20.682,10.509,1423.769438
3 Feb 2020 19:01:44.000,20.881,10.425,1428.884523
3 Feb 2020 19:01:45.000,21.079,10.340,1434.015687
3 Feb 2020 19:01:46.000,21.274,10.256,1439.162751
3 Feb 2020 19:01:47.000,21.469,10.172,1444.325540
3 Feb 2020 19:01:48.000,21.662,10.088,1449.503878
3 Feb 2020 19:01:49.000,21.853,10.005,1454.697596
3 Feb 2020 19:01:50.000,22.043,9.921,1459.906519
3 Feb 2020 19:01:51.000,22.231,9.838,1465.130480
3 Feb 2020 19:01:52.000,22.419,9.755,1470.369313
3 Feb 2020 19:01:53.000,22.604,9.672,1475.622855
3 Feb 2020 19:01:54.000,22.789,9.590,1480.890938
3 Feb 2020 19:01:55.000,22.972,9.508,1486.173405
3 Feb 2020 19:01:56.000,23.153,9.426,1491.470095
3 Feb 2020 19:01:57.000,23.334,9.344,1496.780852
3 Feb 2020 19:01:58.000,23.513,9.262,1502.105518
3 Feb 2020 19:01:59.000,23.690,9.180,1507.443940
3 Feb 2020 19:02:00.000,23.866,9.099,1512.795966
3 Feb 2020 19:02:01.000,24.041,9.018,1518.161448
3 Feb 2020 19:02:02.000,24.215,8.937,1523.540232
3 Feb 2020 19:02:03.000,24.388,8.857,1528.932175
3 Feb 2020 19:02:04.000,24.559,8.776,1534.337129
3 Feb 2020 19:02:05.000,24.729,8.696,1539.754953
3 Feb 2020 19:02:06.000,24.897,8.616,1545.185505
3 Feb 2020 19:02:07.000,25.065,8.537,1550.628642
3 Feb 2020 19:02:08.000,25.231,8.457,1556.084227
3 Feb 2020 19:02:09.000,25.396,8.378,1561.552122
3 Feb 2020 19:02:10.000,25.560,8.299,1567.032193
3 Feb 2020 19:02:11.000,25.723,8.220,1572.524304
3 Feb 2020 19:02:12.000,25.884,8.141,1578.028326
3 Feb 2020 19:02:13.000,26.044,8.063,1583.544123
3 Feb 2020 19:02:14.000,26.204,7.985,1589.071569
3 Feb 2020 19:02:15.000,26.362,7.907,1594.610535
3 Feb 2020 19:02:16.000,26.518,7.829,1600.160895
3 Feb 2020 19:02:17.000,26.674,7.751,1605.722525
3 Feb 2020 19:02:18.000,26.829,7.674,1611.295299
3 Feb 2020 19:02:19.000,26.982,7.597,1616.879099
3 Feb 2020 19:02:20.000,27.135,7.520,1622.473801
3 Feb 2020 19:02:21.000,27.286,7.444,1628.079285
3 Feb 2020 19:02:22.000,27.437,7.367,1633.695436
3 Feb 2020 19:02:23.000,27.586,7.291,1639.322136
3 Feb 2020 19:02:24.000,27.734,7.215,1644.959270
3 Feb 2020 19:02:25.000,27.881,7.139,1650.606725
3 Feb 2020 19:02:26.000,28.027,7.064,1656.264390
3 Feb 2020 19:02:27.000,28.173,6.988,1661.932149
3 Feb 2020 19:02:28.000,28.317,6.913,1667.609896
3 Feb 2020 19:02:29.000,28.460,6.838,1673.297521
3 Feb 2020 19:02:30.000,28.602,6.764,1678.994917
3 Feb 2020 19:02:31.000,28.743,6.689,1684.701978
3 Feb 2020 19:02:32.000,28.883,6.615,1690.418600
3 Feb 2020 19:02:33.000,29.022,6.541,1696.144677
3 Feb 2020 19:02:34.000,29.161,6.467,1701.880110
3 Feb 2020 19:02:35.000,29.298,6.393,1707.624795
3 Feb 2020 19:02:36.000,29.434,6.320,1713.378633
3 Feb 2020 19:02:37.000,29.570,6.247,1719.141526
3 Feb 2020 19:02:38.000,29.704,6.174,1724.913375
3 Feb 2020 19:02:39.000,29.838,6.101,1730.694083
3 Feb 2020 19:02:40.000,29.971,6.029,1736.483554
3 Feb 2020 19:02:41.000,30.102,5.956,1742.281696
3 Feb 2020 19:02:42.000,30.233,5.884,1748.088414
3 Feb 2020 19:02:43.000,30.363,5.812,1753.903617
3 Feb 2020 19:02:44.000,30.493,5.741,1759.727212
3 Feb 2020 19:02:45.000,30.621,5.669,1765.559110
3 Feb 2020 19:02:46.000,30.748,5.598,1771.399222
3 Feb 2020 19:02:47.000,30.875,5.527,1777.247460
3 Feb 2020 19:02:48.000,31.001,5.456,1783.103736
3 Feb 2020 19:02:49.000,31.126,5.385,1788.967966
3 Feb 2020 19:02:50.000,31.250,5.315,1794.840062
3 Feb 2020 19:02:51.000,31.373,5.244,1800.719943
3 Feb 2020 19:02:52.000,31.495,5.174,1806.607524
3 Feb 2020 19:02:53.000,31.617,5.104,1812.502723
3 Feb 2020 19:02:54.000,31.738,5.035,1818.405459
3 Feb 2020 19:02:55.000,31.858,4.965,1824.315651
3 Feb 2020 19:02:56.000,31.977,4.896,1830.233223
3 Feb 2020 19:02:57.000,32.096,4.827,1836.158092
3 Feb 2020 19:02:58.000,32.214,4.758,1842.090182
3 Feb 2020 19:02:59.000,32.331,4.689,1848.029417
3 Feb 2020 19:03:00.000,32.447,4.621,1853.975720
3 Feb 2020 19:03:01.000,32.563,4.553,1859.929017
3 Feb 2020 19:03:02.000,32.677,4.484,1865.889234
3 Feb 2020 19:03:03.000,32.792,4.417,1871.856297
3 Feb 2020 19:03:04.000,32.905,4.349,1877.830133
3 Feb 2020 19:03:05.000,33.018,4.281,1883.810672
3 Feb 2020 19:03:06.000,33.129,4.214,1889.797842
3 Feb 2020 19:03:07.000,33.241,4.147,1895.791573
3 Feb 2020 19:03:08.000,33.351,4.080,1901.791795
3 Feb 2020 19:03:09.000,33.461,4.013,1907.798442
3 Feb 2020 19:03:10.000,33.570,3.946,1913.811444
3 Feb 2020 19:03:11.000,33.679,3.880,1919.830735
3 Feb 2020 19:03:12.000,33.786,3.814,1925.856248
3 Feb 2020 19:03:13.000,33.893,3.748,1931.887918
3 Feb 2020 19:03:14.000,34.000,3.682,1937.925680
3 Feb 2020 19:03:15.000,34.106,3.616,1943.969471
3 Feb 2020 19:03:16.000,34.211,3.550,1950.019226
3 Feb 2020 19:03:17.000,34.315,3.485,1956.074884
3 Feb 2020 19:03:18.000,34.419,3.420,1962.136381
3 Feb 2020 19:03:19.000,34.522,3.355,1968.203658
3 Feb 2020 19:03:20.000,34.625,3.290,1974.276651
3 Feb 2020 19:03:21.000,34.727,3.225,1980.355305
3 Feb 2020 19:03:22.000,34.828,3.161,1986.439557
3 Feb 2020 19:03:23.000,34.929,3.097,1992.529351
3 Feb 2020 19:03:24.000,35.029,3.033,1998.624626
3 Feb 2020 19:03:25.000,35.129,2.969,2004.725328
3 Feb 2020 19:03:26.000,35.228,2.905,2010.831397
3 Feb 2020 19:03:27.000,35.326,2.841,2016.942779
3 Feb 2020 19:03:28.000,35.424,2.778,2023.059418
3 Feb 2020 19:03:29.000,35.521,2.714,2029.181259
3 Feb 2020 19:03:30.000,35.618,2.651,2035.308247
3 Feb 2020 19:03:31.000,35.714,2.588,2041.440330
3 Feb 2020 19:03:32.000,35.809,2.526,2047.577453
3 Feb 2020 19:03:33.000,35.904,2.463,2053.719564
3 Feb 2020 19:03:34.000,35.999,2.400,2059.866612
3 Feb 2020 19:03:35.000,36.092,2.338,2066.018544
3 Feb 2020 19:03:36.000,36.186,2.276,2072.175311
3 Feb 2020 19:03:37.000,36.278,2.214,2078.336861
3 Feb 2020 19:03:38.000,36.371,2.152,2084.503144
3 Feb 2020 19:03:39.000,36.462,2.090,2090.674112
3 Feb 2020 19:03:40.000,36.553,2.029,2096.849716
3 Feb 2020 19:03:41.000,36.644,1.968,2103.029907
3 Feb 2020 19:03:42.000,36.734,1.906,2109.214637
3 Feb 2020 19:03:43.000,36.824,1.845,2115.403858
3 Feb 2020 19:03:44.000,36.913,1.784,2121.597526
3 Feb 2020 19:03:45.000,37.001,1.724,2127.795594
