vcc_sched/network/input/aer_odugs_wj2xoh_vcc-b_44431.csv

"Time (UTCG)","Azimuth (deg)","Elevation (deg)","Range (km)"
16 Dec 2019 17:27:55.648,321.111,-0.124,2336.345447
16 Dec 2019 17:27:56.000,321.158,-0.110,2334.698365
16 Dec 2019 17:27:57.000,321.291,-0.068,2330.027013
16 Dec 2019 17:27:58.000,321.425,-0.026,2325.366283
16 Dec 2019 17:27:59.000,321.560,0.016,2320.716240
16 Dec 2019 17:28:00.000,321.695,0.058,2316.076958
16 Dec 2019 17:28:01.000,321.830,0.099,2311.448503
16 Dec 2019 17:28:02.000,321.966,0.141,2306.830947
16 Dec 2019 17:28:03.000,322.103,0.183,2302.224365
16 Dec 2019 17:28:04.000,322.240,0.225,2297.628822
16 Dec 2019 17:28:05.000,322.378,0.266,2293.044395
16 Dec 2019 17:28:06.000,322.516,0.308,2288.471151
16 Dec 2019 17:28:07.000,322.655,0.350,2283.909169
16 Dec 2019 17:28:08.000,322.794,0.391,2279.358515
16 Dec 2019 17:28:09.000,322.934,0.433,2274.819268
16 Dec 2019 17:28:10.000,323.075,0.475,2270.291496
16 Dec 2019 17:28:11.000,323.216,0.516,2265.775280
16 Dec 2019 17:28:12.000,323.357,0.558,2261.270687
16 Dec 2019 17:28:13.000,323.499,0.599,2256.777799
16 Dec 2019 17:28:14.000,323.642,0.641,2252.296685
16 Dec 2019 17:28:15.000,323.785,0.682,2247.827426
16 Dec 2019 17:28:16.000,323.929,0.724,2243.370093
16 Dec 2019 17:28:17.000,324.073,0.765,2238.924767
16 Dec 2019 17:28:18.000,324.218,0.807,2234.491521
16 Dec 2019 17:28:19.000,324.363,0.848,2230.070436
16 Dec 2019 17:28:20.000,324.509,0.890,2225.661586
16 Dec 2019 17:28:21.000,324.656,0.931,2221.265052
16 Dec 2019 17:28:22.000,324.803,0.972,2216.880909
16 Dec 2019 17:28:23.000,324.951,1.013,2212.509240
16 Dec 2019 17:28:24.000,325.099,1.055,2208.150121
16 Dec 2019 17:28:25.000,325.248,1.096,2203.803631
16 Dec 2019 17:28:26.000,325.397,1.137,2199.469853
16 Dec 2019 17:28:27.000,325.547,1.178,2195.148864
16 Dec 2019 17:28:28.000,325.698,1.219,2190.840749
16 Dec 2019 17:28:29.000,325.849,1.260,2186.545584
16 Dec 2019 17:28:30.000,326.001,1.301,2182.263455
16 Dec 2019 17:28:31.000,326.153,1.342,2177.994439
16 Dec 2019 17:28:32.000,326.306,1.383,2173.738624
16 Dec 2019 17:28:33.000,326.460,1.424,2169.496090
16 Dec 2019 17:28:34.000,326.614,1.465,2165.266917
16 Dec 2019 17:28:35.000,326.769,1.506,2161.051193
16 Dec 2019 17:28:36.000,326.924,1.547,2156.848998
16 Dec 2019 17:28:37.000,327.080,1.587,2152.660421
16 Dec 2019 17:28:38.000,327.236,1.628,2148.485542
16 Dec 2019 17:28:39.000,327.393,1.669,2144.324446
16 Dec 2019 17:28:40.000,327.551,1.709,2140.177222
16 Dec 2019 17:28:41.000,327.709,1.750,2136.043951
16 Dec 2019 17:28:42.000,327.868,1.790,2131.924723
16 Dec 2019 17:28:43.000,328.028,1.831,2127.819623
16 Dec 2019 17:28:44.000,328.188,1.871,2123.728735
16 Dec 2019 17:28:45.000,328.349,1.911,2119.652151
16 Dec 2019 17:28:46.000,328.510,1.952,2115.589955
16 Dec 2019 17:28:47.000,328.672,1.992,2111.542234
16 Dec 2019 17:28:48.000,328.835,2.032,2107.509079
16 Dec 2019 17:28:49.000,328.998,2.072,2103.490578
16 Dec 2019 17:28:50.000,329.162,2.112,2099.486817
16 Dec 2019 17:28:51.000,329.326,2.152,2095.497889
16 Dec 2019 17:28:52.000,329.491,2.192,2091.523882
16 Dec 2019 17:28:53.000,329.657,2.232,2087.564883
16 Dec 2019 17:28:54.000,329.823,2.272,2083.620987
16 Dec 2019 17:28:55.000,329.990,2.311,2079.692283
16 Dec 2019 17:28:56.000,330.158,2.351,2075.778858
16 Dec 2019 17:28:57.000,330.326,2.390,2071.880809
16 Dec 2019 17:28:58.000,330.495,2.430,2067.998224
16 Dec 2019 17:28:59.000,330.664,2.469,2064.131194
16 Dec 2019 17:29:00.000,330.834,2.509,2060.279815
16 Dec 2019 17:29:01.000,331.005,2.548,2056.444177
16 Dec 2019 17:29:02.000,331.176,2.587,2052.624372
16 Dec 2019 17:29:03.000,331.348,2.626,2048.820493
16 Dec 2019 17:29:04.000,331.521,2.665,2045.032635
16 Dec 2019 17:29:05.000,331.694,2.704,2041.260892
16 Dec 2019 17:29:06.000,331.868,2.743,2037.505356
16 Dec 2019 17:29:07.000,332.043,2.782,2033.766120
16 Dec 2019 17:29:08.000,332.218,2.820,2030.043282
16 Dec 2019 17:29:09.000,332.394,2.859,2026.336935
16 Dec 2019 17:29:10.000,332.570,2.897,2022.647174
16 Dec 2019 17:29:11.000,332.747,2.936,2018.974093
16 Dec 2019 17:29:12.000,332.925,2.974,2015.317790
16 Dec 2019 17:29:13.000,333.104,3.012,2011.678360
16 Dec 2019 17:29:14.000,333.283,3.050,2008.055899
16 Dec 2019 17:29:15.000,333.462,3.088,2004.450500
16 Dec 2019 17:29:16.000,333.643,3.126,2000.862264
16 Dec 2019 17:29:17.000,333.824,3.164,1997.291287
16 Dec 2019 17:29:18.000,334.005,3.202,1993.737664
16 Dec 2019 17:29:19.000,334.187,3.239,1990.201493
16 Dec 2019 17:29:20.000,334.370,3.277,1986.682871
16 Dec 2019 17:29:21.000,334.554,3.314,1983.181895
16 Dec 2019 17:29:22.000,334.738,3.351,1979.698665
16 Dec 2019 17:29:23.000,334.923,3.388,1976.233277
16 Dec 2019 17:29:24.000,335.109,3.425,1972.785830
16 Dec 2019 17:29:25.000,335.295,3.462,1969.356422
16 Dec 2019 17:29:26.000,335.482,3.499,1965.945151
16 Dec 2019 17:29:27.000,335.669,3.536,1962.552115
16 Dec 2019 17:29:28.000,335.857,3.572,1959.177414
16 Dec 2019 17:29:29.000,336.046,3.609,1955.821147
16 Dec 2019 17:29:30.000,336.235,3.645,1952.483412
16 Dec 2019 17:29:31.000,336.425,3.681,1949.164309
16 Dec 2019 17:29:32.000,336.616,3.717,1945.863937
16 Dec 2019 17:29:33.000,336.807,3.753,1942.582395
16 Dec 2019 17:29:34.000,336.999,3.789,1939.319782
16 Dec 2019 17:29:35.000,337.192,3.824,1936.076198
16 Dec 2019 17:29:36.000,337.385,3.860,1932.851744
16 Dec 2019 17:29:37.000,337.579,3.895,1929.646516
16 Dec 2019 17:29:38.000,337.774,3.930,1926.460618
16 Dec 2019 17:29:39.000,337.969,3.965,1923.294147
16 Dec 2019 17:29:40.000,338.165,4.000,1920.147205
16 Dec 2019 17:29:41.000,338.362,4.035,1917.019890
16 Dec 2019 17:29:42.000,338.559,4.070,1913.912303
16 Dec 2019 17:29:43.000,338.757,4.104,1910.824543
16 Dec 2019 17:29:44.000,338.955,4.138,1907.756711
16 Dec 2019 17:29:45.000,339.154,4.173,1904.708905
16 Dec 2019 17:29:46.000,339.354,4.207,1901.681227
16 Dec 2019 17:29:47.000,339.555,4.240,1898.673777
16 Dec 2019 17:29:48.000,339.756,4.274,1895.686652
16 Dec 2019 17:29:49.000,339.957,4.308,1892.719955
16 Dec 2019 17:29:50.000,340.160,4.341,1889.773784
16 Dec 2019 17:29:51.000,340.363,4.374,1886.848238
16 Dec 2019 17:29:52.000,340.566,4.407,1883.943418
16 Dec 2019 17:29:53.000,340.770,4.440,1881.059423
16 Dec 2019 17:29:54.000,340.975,4.472,1878.196352
16 Dec 2019 17:29:55.000,341.181,4.505,1875.354305
16 Dec 2019 17:29:56.000,341.387,4.537,1872.533380
16 Dec 2019 17:29:57.000,341.594,4.569,1869.733677
16 Dec 2019 17:29:58.000,341.801,4.601,1866.955294
16 Dec 2019 17:29:59.000,342.009,4.633,1864.198331
16 Dec 2019 17:30:00.000,342.218,4.664,1861.462884
16 Dec 2019 17:30:01.000,342.427,4.696,1858.749052
16 Dec 2019 17:30:02.000,342.637,4.727,1856.056934
16 Dec 2019 17:30:03.000,342.847,4.758,1853.386628
16 Dec 2019 17:30:04.000,343.058,4.789,1850.738230
16 Dec 2019 17:30:05.000,343.270,4.819,1848.111839
16 Dec 2019 17:30:06.000,343.482,4.850,1845.507551
16 Dec 2019 17:30:07.000,343.695,4.880,1842.925463
16 Dec 2019 17:30:08.000,343.909,4.910,1840.365673
16 Dec 2019 17:30:09.000,344.123,4.939,1837.828274
16 Dec 2019 17:30:10.000,344.338,4.969,1835.313364
16 Dec 2019 17:30:11.000,344.553,4.998,1832.821039
16 Dec 2019 17:30:12.000,344.769,5.027,1830.351393
16 Dec 2019 17:30:13.000,344.985,5.056,1827.904521
16 Dec 2019 17:30:14.000,345.203,5.085,1825.480519
16 Dec 2019 17:30:15.000,345.420,5.113,1823.079479
16 Dec 2019 17:30:16.000,345.638,5.141,1820.701496
16 Dec 2019 17:30:17.000,345.857,5.169,1818.346663
16 Dec 2019 17:30:18.000,346.077,5.197,1816.015072
16 Dec 2019 17:30:19.000,346.297,5.225,1813.706818
16 Dec 2019 17:30:20.000,346.517,5.252,1811.421989
16 Dec 2019 17:30:21.000,346.738,5.279,1809.160680
16 Dec 2019 17:30:22.000,346.960,5.306,1806.922980
16 Dec 2019 17:30:23.000,347.182,5.332,1804.708981
16 Dec 2019 17:30:24.000,347.405,5.358,1802.518771
16 Dec 2019 17:30:25.000,347.628,5.385,1800.352441
16 Dec 2019 17:30:26.000,347.852,5.410,1798.210079
16 Dec 2019 17:30:27.000,348.077,5.436,1796.091775
16 Dec 2019 17:30:28.000,348.302,5.461,1793.997615
16 Dec 2019 17:30:29.000,348.527,5.486,1791.927686
16 Dec 2019 17:30:30.000,348.753,5.511,1789.882077
16 Dec 2019 17:30:31.000,348.980,5.536,1787.860870
16 Dec 2019 17:30:32.000,349.207,5.560,1785.864153
16 Dec 2019 17:30:33.000,349.434,5.584,1783.892011
16 Dec 2019 17:30:34.000,349.662,5.608,1781.944527
16 Dec 2019 17:30:35.000,349.891,5.631,1780.021783
16 Dec 2019 17:30:36.000,350.120,5.654,1778.123865
16 Dec 2019 17:30:37.000,350.350,5.677,1776.250851
16 Dec 2019 17:30:38.000,350.580,5.700,1774.402824
16 Dec 2019 17:30:39.000,350.810,5.722,1772.579865
16 Dec 2019 17:30:40.000,351.042,5.744,1770.782052
16 Dec 2019 17:30:41.000,351.273,5.766,1769.009466
16 Dec 2019 17:30:42.000,351.505,5.788,1767.262183
16 Dec 2019 17:30:43.000,351.738,5.809,1765.540280
16 Dec 2019 17:30:44.000,351.971,5.830,1763.843836
16 Dec 2019 17:30:45.000,352.204,5.851,1762.172924
16 Dec 2019 17:30:46.000,352.438,5.871,1760.527621
16 Dec 2019 17:30:47.000,352.672,5.891,1758.907998
16 Dec 2019 17:30:48.000,352.907,5.911,1757.314131
16 Dec 2019 17:30:49.000,353.142,5.930,1755.746090
16 Dec 2019 17:30:50.000,353.378,5.950,1754.203947
16 Dec 2019 17:30:51.000,353.614,5.968,1752.687771
16 Dec 2019 17:30:52.000,353.850,5.987,1751.197634
16 Dec 2019 17:30:53.000,354.087,6.005,1749.733602
16 Dec 2019 17:30:54.000,354.324,6.023,1748.295743
16 Dec 2019 17:30:55.000,354.562,6.041,1746.884123
16 Dec 2019 17:30:56.000,354.800,6.058,1745.498808
16 Dec 2019 17:30:57.000,355.038,6.075,1744.139863
16 Dec 2019 17:30:58.000,355.277,6.092,1742.807350
16 Dec 2019 17:30:59.000,355.516,6.109,1741.501332
16 Dec 2019 17:31:00.000,355.756,6.125,1740.221870
16 Dec 2019 17:31:01.000,355.995,6.140,1738.969025
16 Dec 2019 17:31:02.000,356.236,6.156,1737.742855
16 Dec 2019 17:31:03.000,356.476,6.171,1736.543419
16 Dec 2019 17:31:04.000,356.717,6.186,1735.370773
16 Dec 2019 17:31:05.000,356.958,6.200,1734.224973
16 Dec 2019 17:31:06.000,357.200,6.214,1733.106074
16 Dec 2019 17:31:07.000,357.442,6.228,1732.014130
16 Dec 2019 17:31:08.000,357.684,6.242,1730.949193
16 Dec 2019 17:31:09.000,357.927,6.255,1729.911313
16 Dec 2019 17:31:10.000,358.169,6.268,1728.900542
16 Dec 2019 17:31:11.000,358.412,6.280,1727.916928
16 Dec 2019 17:31:12.000,358.656,6.293,1726.960518
16 Dec 2019 17:31:13.000,358.899,6.304,1726.031359
16 Dec 2019 17:31:14.000,359.143,6.316,1725.129497
16 Dec 2019 17:31:15.000,359.388,6.327,1724.254975
16 Dec 2019 17:31:16.000,359.632,6.338,1723.407835
16 Dec 2019 17:31:17.000,359.877,6.348,1722.588120
16 Dec 2019 17:31:18.000,0.122,6.358,1721.795870
16 Dec 2019 17:31:19.000,0.367,6.368,1721.031124
16 Dec 2019 17:31:20.000,0.612,6.378,1720.293919
16 Dec 2019 17:31:21.000,0.858,6.387,1719.584291
16 Dec 2019 17:31:22.000,1.103,6.395,1718.902277
16 Dec 2019 17:31:23.000,1.349,6.404,1718.247909
16 Dec 2019 17:31:24.000,1.595,6.412,1717.621220
16 Dec 2019 17:31:25.000,1.842,6.420,1717.022241
16 Dec 2019 17:31:26.000,2.088,6.427,1716.451002
16 Dec 2019 17:31:27.000,2.335,6.434,1715.907532
16 Dec 2019 17:31:28.000,2.582,6.440,1715.391857
16 Dec 2019 17:31:29.000,2.829,6.447,1714.904004
16 Dec 2019 17:31:30.000,3.076,6.453,1714.443997
16 Dec 2019 17:31:31.000,3.323,6.458,1714.011859
16 Dec 2019 17:31:32.000,3.570,6.463,1713.607611
16 Dec 2019 17:31:33.000,3.818,6.468,1713.231274
16 Dec 2019 17:31:34.000,4.065,6.473,1712.882867
16 Dec 2019 17:31:35.000,4.313,6.477,1712.562407
16 Dec 2019 17:31:36.000,4.561,6.481,1712.269912
16 Dec 2019 17:31:37.000,4.809,6.484,1712.005395
16 Dec 2019 17:31:38.000,5.057,6.487,1711.768869
16 Dec 2019 17:31:39.000,5.305,6.490,1711.560347
16 Dec 2019 17:31:40.000,5.553,6.492,1711.379840
16 Dec 2019 17:31:41.000,5.801,6.494,1711.227356
16 Dec 2019 17:31:42.000,6.049,6.496,1711.102904
16 Dec 2019 17:31:43.000,6.297,6.497,1711.006490
16 Dec 2019 17:31:44.000,6.545,6.498,1710.938118
16 Dec 2019 17:31:45.000,6.794,6.499,1710.897793
16 Dec 2019 17:31:46.000,7.042,6.499,1710.885516
16 Dec 2019 17:31:47.000,7.290,6.499,1710.901289
16 Dec 2019 17:31:48.000,7.538,6.498,1710.945110
16 Dec 2019 17:31:49.000,7.786,6.497,1711.016978
16 Dec 2019 17:31:50.000,8.035,6.496,1711.116888
16 Dec 2019 17:31:51.000,8.283,6.494,1711.244837
16 Dec 2019 17:31:52.000,8.531,6.492,1711.400818
16 Dec 2019 17:31:53.000,8.779,6.490,1711.584822
16 Dec 2019 17:31:54.000,9.027,6.487,1711.796842
16 Dec 2019 17:31:55.000,9.275,6.484,1712.036866
16 Dec 2019 17:31:56.000,9.523,6.481,1712.304883
16 Dec 2019 17:31:57.000,9.770,6.477,1712.600879
16 Dec 2019 17:31:58.000,10.018,6.473,1712.924838
16 Dec 2019 17:31:59.000,10.266,6.468,1713.276747
16 Dec 2019 17:32:00.000,10.513,6.464,1713.656587
16 Dec 2019 17:32:01.000,10.761,6.458,1714.064338
16 Dec 2019 17:32:02.000,11.008,6.453,1714.499981
16 Dec 2019 17:32:03.000,11.255,6.447,1714.963495
16 Dec 2019 17:32:04.000,11.502,6.441,1715.454856
16 Dec 2019 17:32:05.000,11.749,6.434,1715.974038
16 Dec 2019 17:32:06.000,11.995,6.427,1716.521019
16 Dec 2019 17:32:07.000,12.242,6.420,1717.095769
16 Dec 2019 17:32:08.000,12.488,6.412,1717.698261
16 Dec 2019 17:32:09.000,12.734,6.404,1718.328465
16 Dec 2019 17:32:10.000,12.980,6.396,1718.986349
16 Dec 2019 17:32:11.000,13.226,6.387,1719.671882
16 Dec 2019 17:32:12.000,13.471,6.378,1720.385030
16 Dec 2019 17:32:13.000,13.717,6.368,1721.125757
16 Dec 2019 17:32:14.000,13.962,6.358,1721.894028
16 Dec 2019 17:32:15.000,14.207,6.348,1722.689804
16 Dec 2019 17:32:16.000,14.451,6.338,1723.513047
16 Dec 2019 17:32:17.000,14.696,6.327,1724.363717
16 Dec 2019 17:32:18.000,14.940,6.316,1725.241772
16 Dec 2019 17:32:19.000,15.184,6.304,1726.147170
16 Dec 2019 17:32:20.000,15.427,6.293,1727.079866
16 Dec 2019 17:32:21.000,15.671,6.280,1728.039817
16 Dec 2019 17:32:22.000,15.914,6.268,1729.026973
16 Dec 2019 17:32:23.000,16.156,6.255,1730.041291
16 Dec 2019 17:32:24.000,16.399,6.242,1731.082718
16 Dec 2019 17:32:25.000,16.641,6.228,1732.151207
16 Dec 2019 17:32:26.000,16.883,6.215,1733.246706
16 Dec 2019 17:32:27.000,17.124,6.200,1734.369161
16 Dec 2019 17:32:28.000,17.366,6.186,1735.518521
16 Dec 2019 17:32:29.000,17.607,6.171,1736.694731
16 Dec 2019 17:32:30.000,17.847,6.156,1737.897733
16 Dec 2019 17:32:31.000,18.087,6.141,1739.127473
16 Dec 2019 17:32:32.000,18.327,6.125,1740.383891
16 Dec 2019 17:32:33.000,18.567,6.109,1741.666930
16 Dec 2019 17:32:34.000,18.806,6.092,1742.976529
16 Dec 2019 17:32:35.000,19.044,6.076,1744.312625
16 Dec 2019 17:32:36.000,19.283,6.059,1745.675158
16 Dec 2019 17:32:37.000,19.521,6.041,1747.064064
16 Dec 2019 17:32:38.000,19.758,6.023,1748.479279
16 Dec 2019 17:32:39.000,19.996,6.006,1749.920736
16 Dec 2019 17:32:40.000,20.232,5.987,1751.388372
16 Dec 2019 17:32:41.000,20.469,5.969,1752.882116
16 Dec 2019 17:32:42.000,20.705,5.950,1754.401902
16 Dec 2019 17:32:43.000,20.940,5.931,1755.947660
16 Dec 2019 17:32:44.000,21.175,5.911,1757.519321
16 Dec 2019 17:32:45.000,21.410,5.891,1759.116812
16 Dec 2019 17:32:46.000,21.644,5.871,1760.740063
16 Dec 2019 17:32:47.000,21.878,5.851,1762.388999
16 Dec 2019 17:32:48.000,22.111,5.830,1764.063548
16 Dec 2019 17:32:49.000,22.344,5.809,1765.763634
16 Dec 2019 17:32:50.000,22.577,5.788,1767.489182
16 Dec 2019 17:32:51.000,22.809,5.766,1769.240117
16 Dec 2019 17:32:52.000,23.040,5.745,1771.016359
16 Dec 2019 17:32:53.000,23.271,5.722,1772.817833
16 Dec 2019 17:32:54.000,23.502,5.700,1774.644458
16 Dec 2019 17:32:55.000,23.732,5.677,1776.496155
16 Dec 2019 17:32:56.000,23.961,5.654,1778.372846
16 Dec 2019 17:32:57.000,24.190,5.631,1780.274446
16 Dec 2019 17:32:58.000,24.419,5.608,1782.200876
16 Dec 2019 17:32:59.000,24.647,5.584,1784.152052
16 Dec 2019 17:33:00.000,24.874,5.560,1786.127891
16 Dec 2019 17:33:01.000,25.101,5.536,1788.128312
16 Dec 2019 17:33:02.000,25.328,5.511,1790.153226
16 Dec 2019 17:33:03.000,25.554,5.486,1792.202550
16 Dec 2019 17:33:04.000,25.779,5.461,1794.276199
16 Dec 2019 17:33:05.000,26.004,5.436,1796.374084
16 Dec 2019 17:33:06.000,26.229,5.411,1798.496120
16 Dec 2019 17:33:07.000,26.452,5.385,1800.642218
16 Dec 2019 17:33:08.000,26.676,5.359,1802.812293
16 Dec 2019 17:33:09.000,26.898,5.332,1805.006251
16 Dec 2019 17:33:10.000,27.121,5.306,1807.224006
16 Dec 2019 17:33:11.000,27.342,5.279,1809.465469
16 Dec 2019 17:33:12.000,27.563,5.252,1811.730546
16 Dec 2019 17:33:13.000,27.784,5.225,1814.019148
16 Dec 2019 17:33:14.000,28.004,5.197,1816.331183
16 Dec 2019 17:33:15.000,28.223,5.170,1818.666563
16 Dec 2019 17:33:16.000,28.442,5.142,1821.025189
16 Dec 2019 17:33:17.000,28.660,5.113,1823.406973
16 Dec 2019 17:33:18.000,28.878,5.085,1825.811819
16 Dec 2019 17:33:19.000,29.095,5.056,1828.239636
16 Dec 2019 17:33:20.000,29.311,5.027,1830.690329
16 Dec 2019 17:33:21.000,29.527,4.998,1833.163803
16 Dec 2019 17:33:22.000,29.742,4.969,1835.659963
16 Dec 2019 17:33:23.000,29.957,4.940,1838.178714
16 Dec 2019 17:33:24.000,30.171,4.910,1840.719961
16 Dec 2019 17:33:25.000,30.384,4.880,1843.283608
16 Dec 2019 17:33:26.000,30.597,4.850,1845.869559
16 Dec 2019 17:33:27.000,30.809,4.819,1848.477719
16 Dec 2019 17:33:28.000,31.021,4.789,1851.107988
16 Dec 2019 17:33:29.000,31.232,4.758,1853.760271
16 Dec 2019 17:33:30.000,31.442,4.727,1856.434471
16 Dec 2019 17:33:31.000,31.652,4.696,1859.130489
16 Dec 2019 17:33:32.000,31.861,4.665,1861.848228
16 Dec 2019 17:33:33.000,32.070,4.633,1864.587591
16 Dec 2019 17:33:34.000,32.278,4.601,1867.348479
16 Dec 2019 17:33:35.000,32.485,4.570,1870.130794
16 Dec 2019 17:33:36.000,32.692,4.537,1872.934437
16 Dec 2019 17:33:37.000,32.898,4.505,1875.759311
16 Dec 2019 17:33:38.000,33.103,4.473,1878.605314
16 Dec 2019 17:33:39.000,33.308,4.440,1881.472349
16 Dec 2019 17:33:40.000,33.512,4.407,1884.360316
16 Dec 2019 17:33:41.000,33.716,4.374,1887.269116
16 Dec 2019 17:33:42.000,33.918,4.341,1890.198650
16 Dec 2019 17:33:43.000,34.121,4.308,1893.148819
16 Dec 2019 17:33:44.000,34.322,4.274,1896.119522
16 Dec 2019 17:33:45.000,34.523,4.241,1899.110660
16 Dec 2019 17:33:46.000,34.724,4.207,1902.122134
16 Dec 2019 17:33:47.000,34.923,4.173,1905.153843
16 Dec 2019 17:33:48.000,35.122,4.139,1908.205688
16 Dec 2019 17:33:49.000,35.321,4.104,1911.277570
16 Dec 2019 17:33:50.000,35.518,4.070,1914.369387
16 Dec 2019 17:33:51.000,35.716,4.035,1917.481041
16 Dec 2019 17:33:52.000,35.912,4.001,1920.612432
16 Dec 2019 17:33:53.000,36.108,3.966,1923.763459
16 Dec 2019 17:33:54.000,36.303,3.931,1926.934023
16 Dec 2019 17:33:55.000,36.497,3.895,1930.124022
16 Dec 2019 17:33:56.000,36.691,3.860,1933.333361
16 Dec 2019 17:33:57.000,36.885,3.825,1936.561938
16 Dec 2019 17:33:58.000,37.077,3.789,1939.809652
16 Dec 2019 17:33:59.000,37.269,3.753,1943.076405
16 Dec 2019 17:34:00.000,37.460,3.717,1946.362097
16 Dec 2019 17:34:01.000,37.651,3.681,1949.666629
16 Dec 2019 17:34:02.000,37.841,3.645,1952.989901
16 Dec 2019 17:34:03.000,38.030,3.609,1956.331814
16 Dec 2019 17:34:04.000,38.219,3.572,1959.692270
16 Dec 2019 17:34:05.000,38.407,3.536,1963.071169
16 Dec 2019 17:34:06.000,38.594,3.499,1966.468409
16 Dec 2019 17:34:07.000,38.781,3.462,1969.883898
16 Dec 2019 17:34:08.000,38.967,3.426,1973.317534
16 Dec 2019 17:34:09.000,39.152,3.388,1976.769219
16 Dec 2019 17:34:10.000,39.337,3.351,1980.238855
16 Dec 2019 17:34:11.000,39.521,3.314,1983.726343
16 Dec 2019 17:34:12.000,39.705,3.277,1987.231584
16 Dec 2019 17:34:13.000,39.888,3.239,1990.754484
16 Dec 2019 17:34:14.000,40.070,3.202,1994.294943
16 Dec 2019 17:34:15.000,40.251,3.164,1997.852865
16 Dec 2019 17:34:16.000,40.432,3.126,2001.428152
16 Dec 2019 17:34:17.000,40.612,3.088,2005.020708
16 Dec 2019 17:34:18.000,40.792,3.050,2008.630433
16 Dec 2019 17:34:19.000,40.971,3.012,2012.257236
16 Dec 2019 17:34:20.000,41.149,2.974,2015.901018
16 Dec 2019 17:34:21.000,41.327,2.936,2019.561683
16 Dec 2019 17:34:22.000,41.504,2.897,2023.239133
16 Dec 2019 17:34:23.000,41.680,2.859,2026.933277
16 Dec 2019 17:34:24.000,41.856,2.820,2030.644019
16 Dec 2019 17:34:25.000,42.031,2.782,2034.371262
16 Dec 2019 17:34:26.000,42.205,2.743,2038.114913
16 Dec 2019 17:34:27.000,42.379,2.704,2041.874874
16 Dec 2019 17:34:28.000,42.552,2.665,2045.651056
16 Dec 2019 17:34:29.000,42.725,2.626,2049.443363
16 Dec 2019 17:34:30.000,42.897,2.587,2053.251699
16 Dec 2019 17:34:31.000,43.068,2.548,2057.075976
16 Dec 2019 17:34:32.000,43.238,2.509,2060.916097
16 Dec 2019 17:34:33.000,43.408,2.469,2064.771971
16 Dec 2019 17:34:34.000,43.578,2.430,2068.643503
16 Dec 2019 17:34:35.000,43.746,2.390,2072.530604
16 Dec 2019 17:34:36.000,43.914,2.351,2076.433182
16 Dec 2019 17:34:37.000,44.082,2.311,2080.351143
16 Dec 2019 17:34:38.000,44.249,2.272,2084.284399
16 Dec 2019 17:34:39.000,44.415,2.232,2088.232858
16 Dec 2019 17:34:40.000,44.580,2.192,2092.196430
16 Dec 2019 17:34:41.000,44.745,2.152,2096.175021
16 Dec 2019 17:34:42.000,44.910,2.112,2100.168548
16 Dec 2019 17:34:43.000,45.073,2.072,2104.176917
16 Dec 2019 17:34:44.000,45.237,2.032,2108.200038
16 Dec 2019 17:34:45.000,45.399,1.992,2112.237826
16 Dec 2019 17:34:46.000,45.561,1.952,2116.290191
16 Dec 2019 17:34:47.000,45.722,1.911,2120.357041
16 Dec 2019 17:34:48.000,45.883,1.871,2124.438296
16 Dec 2019 17:34:49.000,46.043,1.831,2128.533861
16 Dec 2019 17:34:50.000,46.202,1.790,2132.643654
16 Dec 2019 17:34:51.000,46.361,1.750,2136.767588
16 Dec 2019 17:34:52.000,46.519,1.709,2140.905573
16 Dec 2019 17:34:53.000,46.677,1.669,2145.057527
16 Dec 2019 17:34:54.000,46.834,1.628,2149.223364
16 Dec 2019 17:34:55.000,46.990,1.587,2153.402994
16 Dec 2019 17:34:56.000,47.146,1.547,2157.596339
16 Dec 2019 17:34:57.000,47.301,1.506,2161.803309
16 Dec 2019 17:34:58.000,47.456,1.465,2166.023825
16 Dec 2019 17:34:59.000,47.609,1.424,2170.257800
16 Dec 2019 17:35:00.000,47.763,1.383,2174.505149
16 Dec 2019 17:35:01.000,47.916,1.342,2178.765793
16 Dec 2019 17:35:02.000,48.068,1.301,2183.039646
16 Dec 2019 17:35:03.000,48.220,1.260,2187.326630
16 Dec 2019 17:35:04.000,48.371,1.219,2191.626657
16 Dec 2019 17:35:05.000,48.521,1.178,2195.939653
16 Dec 2019 17:35:06.000,48.671,1.137,2200.265533
16 Dec 2019 17:35:07.000,48.820,1.096,2204.604213
16 Dec 2019 17:35:08.000,48.969,1.054,2208.955620
16 Dec 2019 17:35:09.000,49.117,1.013,2213.319667
16 Dec 2019 17:35:10.000,49.265,0.972,2217.696280
16 Dec 2019 17:35:11.000,49.412,0.931,2222.085375
16 Dec 2019 17:35:12.000,49.558,0.889,2226.486879
16 Dec 2019 17:35:13.000,49.704,0.848,2230.900708
16 Dec 2019 17:35:14.000,49.849,0.806,2235.326789
16 Dec 2019 17:35:15.000,49.994,0.765,2239.765039
16 Dec 2019 17:35:16.000,50.138,0.724,2244.215387
16 Dec 2019 17:35:17.000,50.282,0.682,2248.677751
16 Dec 2019 17:35:18.000,50.425,0.641,2253.152058
16 Dec 2019 17:35:19.000,50.567,0.599,2257.638229
16 Dec 2019 17:35:20.000,50.709,0.557,2262.136193
16 Dec 2019 17:35:21.000,50.850,0.516,2266.645868
16 Dec 2019 17:35:22.000,50.991,0.474,2271.167186
16 Dec 2019 17:35:23.000,51.131,0.433,2275.700068
16 Dec 2019 17:35:24.000,51.271,0.391,2280.244443
16 Dec 2019 17:35:25.000,51.410,0.349,2284.800234
16 Dec 2019 17:35:26.000,51.549,0.308,2289.367372
16 Dec 2019 17:35:27.000,51.687,0.266,2293.945779
16 Dec 2019 17:35:28.000,51.825,0.224,2298.535388
16 Dec 2019 17:35:29.000,51.962,0.182,2303.136121
16 Dec 2019 17:35:30.000,52.098,0.141,2307.747913
16 Dec 2019 17:35:31.000,52.234,0.099,2312.370687
16 Dec 2019 17:35:32.000,52.370,0.057,2317.004376
16 Dec 2019 17:35:33.000,52.504,0.015,2321.648905
16 Dec 2019 17:35:34.000,52.639,-0.027,2326.304210
16 Dec 2019 17:35:35.000,52.773,-0.068,2330.970215
16 Dec 2019 17:35:36.000,52.906,-0.110,2335.646853
16 Dec 2019 17:35:36.335,52.951,-0.124,2337.214851
16 Dec 2019 19:04:29.872,321.479,-0.124,2337.721204
16 Dec 2019 19:04:30.000,321.490,-0.117,2336.936834
16 Dec 2019 19:04:31.000,321.574,-0.063,2330.816807
16 Dec 2019 19:04:32.000,321.659,-0.008,2324.700883
16 Dec 2019 19:04:33.000,321.744,0.047,2318.589106
16 Dec 2019 19:04:34.000,321.830,0.102,2312.481514
16 Dec 2019 19:04:35.000,321.916,0.157,2306.378148
16 Dec 2019 19:04:36.000,322.003,0.212,2300.279048
16 Dec 2019 19:04:37.000,322.090,0.268,2294.184256
16 Dec 2019 19:04:38.000,322.177,0.323,2288.093814
16 Dec 2019 19:04:39.000,322.265,0.379,2282.007763
16 Dec 2019 19:04:40.000,322.354,0.434,2275.926147
16 Dec 2019 19:04:41.000,322.442,0.490,2269.849008
16 Dec 2019 19:04:42.000,322.532,0.546,2263.776390
16 Dec 2019 19:04:43.000,322.621,0.602,2257.708336
16 Dec 2019 19:04:44.000,322.712,0.658,2251.644892
16 Dec 2019 19:04:45.000,322.802,0.714,2245.586100
16 Dec 2019 19:04:46.000,322.893,0.771,2239.532007
16 Dec 2019 19:04:47.000,322.985,0.827,2233.482658
16 Dec 2019 19:04:48.000,323.077,0.884,2227.438099
16 Dec 2019 19:04:49.000,323.170,0.941,2221.398376
16 Dec 2019 19:04:50.000,323.263,0.997,2215.363536
16 Dec 2019 19:04:51.000,323.356,1.054,2209.333626
16 Dec 2019 19:04:52.000,323.450,1.111,2203.308695
16 Dec 2019 19:04:53.000,323.545,1.168,2197.288790
16 Dec 2019 19:04:54.000,323.640,1.226,2191.273960
16 Dec 2019 19:04:55.000,323.736,1.283,2185.264254
16 Dec 2019 19:04:56.000,323.832,1.341,2179.259722
16 Dec 2019 19:04:57.000,323.928,1.398,2173.260414
16 Dec 2019 19:04:58.000,324.025,1.456,2167.266380
16 Dec 2019 19:04:59.000,324.123,1.514,2161.277673
16 Dec 2019 19:05:00.000,324.221,1.572,2155.294342
16 Dec 2019 19:05:01.000,324.320,1.630,2149.316442
16 Dec 2019 19:05:02.000,324.419,1.688,2143.344023
16 Dec 2019 19:05:03.000,324.519,1.746,2137.377140
16 Dec 2019 19:05:04.000,324.619,1.805,2131.415845
16 Dec 2019 19:05:05.000,324.720,1.864,2125.460194
16 Dec 2019 19:05:06.000,324.822,1.922,2119.510241
16 Dec 2019 19:05:07.000,324.924,1.981,2113.566041
16 Dec 2019 19:05:08.000,325.026,2.040,2107.627650
16 Dec 2019 19:05:09.000,325.129,2.099,2101.695125
16 Dec 2019 19:05:10.000,325.233,2.158,2095.768523
16 Dec 2019 19:05:11.000,325.337,2.218,2089.847900
16 Dec 2019 19:05:12.000,325.442,2.277,2083.933316
16 Dec 2019 19:05:13.000,325.547,2.337,2078.024829
16 Dec 2019 19:05:14.000,325.654,2.397,2072.122498
16 Dec 2019 19:05:15.000,325.760,2.457,2066.226383
16 Dec 2019 19:05:16.000,325.867,2.517,2060.336546
16 Dec 2019 19:05:17.000,325.975,2.577,2054.453045
16 Dec 2019 19:05:18.000,326.084,2.637,2048.575945
16 Dec 2019 19:05:19.000,326.193,2.697,2042.705306
16 Dec 2019 19:05:20.000,326.302,2.758,2036.841192
16 Dec 2019 19:05:21.000,326.413,2.818,2030.983667
16 Dec 2019 19:05:22.000,326.524,2.879,2025.132795
16 Dec 2019 19:05:23.000,326.635,2.940,2019.288642
16 Dec 2019 19:05:24.000,326.747,3.001,2013.451270
16 Dec 2019 19:05:25.000,326.860,3.062,2007.620748
16 Dec 2019 19:05:26.000,326.974,3.124,2001.797143
16 Dec 2019 19:05:27.000,327.088,3.185,1995.980521
16 Dec 2019 19:05:28.000,327.203,3.247,1990.170952
16 Dec 2019 19:05:29.000,327.318,3.308,1984.368504
16 Dec 2019 19:05:30.000,327.434,3.370,1978.573248
16 Dec 2019 19:05:31.000,327.551,3.432,1972.785252
16 Dec 2019 19:05:32.000,327.669,3.494,1967.004590
16 Dec 2019 19:05:33.000,327.787,3.557,1961.231331
16 Dec 2019 19:05:34.000,327.906,3.619,1955.465550
16 Dec 2019 19:05:35.000,328.025,3.682,1949.707319
16 Dec 2019 19:05:36.000,328.145,3.744,1943.956713
16 Dec 2019 19:05:37.000,328.266,3.807,1938.213806
16 Dec 2019 19:05:38.000,328.388,3.870,1932.478675
16 Dec 2019 19:05:39.000,328.511,3.933,1926.751394
16 Dec 2019 19:05:40.000,328.634,3.996,1921.032042
16 Dec 2019 19:05:41.000,328.758,4.060,1915.320696
16 Dec 2019 19:05:42.000,328.882,4.123,1909.617436
16 Dec 2019 19:05:43.000,329.008,4.187,1903.922340
16 Dec 2019 19:05:44.000,329.134,4.251,1898.235490
16 Dec 2019 19:05:45.000,329.261,4.315,1892.556966
16 Dec 2019 19:05:46.000,329.388,4.379,1886.886851
16 Dec 2019 19:05:47.000,329.517,4.443,1881.225227
16 Dec 2019 19:05:48.000,329.646,4.507,1875.572181
16 Dec 2019 19:05:49.000,329.776,4.572,1869.927793
16 Dec 2019 19:05:50.000,329.907,4.637,1864.292150
16 Dec 2019 19:05:51.000,330.038,4.701,1858.665340
16 Dec 2019 19:05:52.000,330.171,4.766,1853.047449
16 Dec 2019 19:05:53.000,330.304,4.831,1847.438565
16 Dec 2019 19:05:54.000,330.438,4.897,1841.838778
16 Dec 2019 19:05:55.000,330.573,4.962,1836.248178
16 Dec 2019 19:05:56.000,330.708,5.027,1830.666858
16 Dec 2019 19:05:57.000,330.845,5.093,1825.094905
16 Dec 2019 19:05:58.000,330.982,5.159,1819.532415
16 Dec 2019 19:05:59.000,331.120,5.225,1813.979481
16 Dec 2019 19:06:00.000,331.259,5.291,1808.436198
16 Dec 2019 19:06:01.000,331.399,5.357,1802.902663
16 Dec 2019 19:06:02.000,331.540,5.423,1797.378971
16 Dec 2019 19:06:03.000,331.681,5.490,1791.865222
16 Dec 2019 19:06:04.000,331.824,5.556,1786.361513
16 Dec 2019 19:06:05.000,331.967,5.623,1780.867943
16 Dec 2019 19:06:06.000,332.112,5.690,1775.384614
16 Dec 2019 19:06:07.000,332.257,5.757,1769.911629
16 Dec 2019 19:06:08.000,332.403,5.824,1764.449089
16 Dec 2019 19:06:09.000,332.550,5.892,1758.997101
16 Dec 2019 19:06:10.000,332.698,5.959,1753.555766
16 Dec 2019 19:06:11.000,332.847,6.027,1748.125192
16 Dec 2019 19:06:12.000,332.997,6.095,1742.705487
16 Dec 2019 19:06:13.000,333.148,6.163,1737.296758
16 Dec 2019 19:06:14.000,333.299,6.231,1731.899118
16 Dec 2019 19:06:15.000,333.452,6.299,1726.512672
16 Dec 2019 19:06:16.000,333.606,6.367,1721.137535
16 Dec 2019 19:06:17.000,333.760,6.436,1715.773820
16 Dec 2019 19:06:18.000,333.916,6.504,1710.421640
16 Dec 2019 19:06:19.000,334.073,6.573,1705.081112
16 Dec 2019 19:06:20.000,334.230,6.642,1699.752350
16 Dec 2019 19:06:21.000,334.389,6.711,1694.435472
16 Dec 2019 19:06:22.000,334.549,6.780,1689.130598
16 Dec 2019 19:06:23.000,334.710,6.849,1683.837848
16 Dec 2019 19:06:24.000,334.871,6.919,1678.557342
16 Dec 2019 19:06:25.000,335.034,6.988,1673.289203
16 Dec 2019 19:06:26.000,335.198,7.058,1668.033554
16 Dec 2019 19:06:27.000,335.363,7.128,1662.790522
16 Dec 2019 19:06:28.000,335.529,7.198,1657.560231
16 Dec 2019 19:06:29.000,335.696,7.268,1652.342808
16 Dec 2019 19:06:30.000,335.864,7.338,1647.138384
16 Dec 2019 19:06:31.000,336.034,7.408,1641.947089
16 Dec 2019 19:06:32.000,336.204,7.479,1636.769051
16 Dec 2019 19:06:33.000,336.375,7.549,1631.604406
16 Dec 2019 19:06:34.000,336.548,7.620,1626.453286
16 Dec 2019 19:06:35.000,336.722,7.691,1621.315829
16 Dec 2019 19:06:36.000,336.897,7.762,1616.192167
16 Dec 2019 19:06:37.000,337.073,7.833,1611.082442
16 Dec 2019 19:06:38.000,337.250,7.904,1605.986793
16 Dec 2019 19:06:39.000,337.428,7.975,1600.905358
16 Dec 2019 19:06:40.000,337.608,8.047,1595.838281
16 Dec 2019 19:06:41.000,337.788,8.118,1590.785705
16 Dec 2019 19:06:42.000,337.970,8.190,1585.747777
16 Dec 2019 19:06:43.000,338.154,8.262,1580.724639
16 Dec 2019 19:06:44.000,338.338,8.334,1575.716442
16 Dec 2019 19:06:45.000,338.523,8.406,1570.723335
16 Dec 2019 19:06:46.000,338.710,8.478,1565.745466
16 Dec 2019 19:06:47.000,338.898,8.550,1560.782989
16 Dec 2019 19:06:48.000,339.087,8.622,1555.836059
16 Dec 2019 19:06:49.000,339.278,8.695,1550.904827
16 Dec 2019 19:06:50.000,339.470,8.767,1545.989453
16 Dec 2019 19:06:51.000,339.663,8.840,1541.090092
16 Dec 2019 19:06:52.000,339.857,8.913,1536.206904
16 Dec 2019 19:06:53.000,340.053,8.985,1531.340052
16 Dec 2019 19:06:54.000,340.250,9.058,1526.489695
16 Dec 2019 19:06:55.000,340.448,9.131,1521.655999
16 Dec 2019 19:06:56.000,340.647,9.204,1516.839129
16 Dec 2019 19:06:57.000,340.848,9.277,1512.039251
16 Dec 2019 19:06:58.000,341.051,9.351,1507.256535
16 Dec 2019 19:06:59.000,341.254,9.424,1502.491148
16 Dec 2019 19:07:00.000,341.459,9.497,1497.743263
16 Dec 2019 19:07:01.000,341.665,9.571,1493.013054
16 Dec 2019 19:07:02.000,341.873,9.644,1488.300693
16 Dec 2019 19:07:03.000,342.082,9.718,1483.606359
16 Dec 2019 19:07:04.000,342.293,9.791,1478.930226
16 Dec 2019 19:07:05.000,342.505,9.865,1474.272477
16 Dec 2019 19:07:06.000,342.718,9.939,1469.633288
16 Dec 2019 19:07:07.000,342.933,10.012,1465.012845
16 Dec 2019 19:07:08.000,343.149,10.086,1460.411330
16 Dec 2019 19:07:09.000,343.366,10.160,1455.828928
16 Dec 2019 19:07:10.000,343.585,10.234,1451.265828
16 Dec 2019 19:07:11.000,343.806,10.308,1446.722215
16 Dec 2019 19:07:12.000,344.028,10.382,1442.198282
16 Dec 2019 19:07:13.000,344.251,10.456,1437.694217
16 Dec 2019 19:07:14.000,344.476,10.530,1433.210217
16 Dec 2019 19:07:15.000,344.703,10.604,1428.746473
16 Dec 2019 19:07:16.000,344.930,10.678,1424.303184
16 Dec 2019 19:07:17.000,345.160,10.752,1419.880545
16 Dec 2019 19:07:18.000,345.391,10.826,1415.478758
16 Dec 2019 19:07:19.000,345.623,10.900,1411.098020
16 Dec 2019 19:07:20.000,345.857,10.974,1406.738537
16 Dec 2019 19:07:21.000,346.093,11.048,1402.400511
16 Dec 2019 19:07:22.000,346.330,11.122,1398.084146
16 Dec 2019 19:07:23.000,346.569,11.196,1393.789650
16 Dec 2019 19:07:24.000,346.809,11.270,1389.517231
16 Dec 2019 19:07:25.000,347.051,11.344,1385.267099
16 Dec 2019 19:07:26.000,347.294,11.418,1381.039464
16 Dec 2019 19:07:27.000,347.539,11.492,1376.834541
16 Dec 2019 19:07:28.000,347.786,11.565,1372.652542
16 Dec 2019 19:07:29.000,348.034,11.639,1368.493682
16 Dec 2019 19:07:30.000,348.284,11.713,1364.358180
16 Dec 2019 19:07:31.000,348.536,11.786,1360.246252
16 Dec 2019 19:07:32.000,348.789,11.860,1356.158120
16 Dec 2019 19:07:33.000,349.044,11.933,1352.094003
16 Dec 2019 19:07:34.000,349.300,12.007,1348.054124
16 Dec 2019 19:07:35.000,349.558,12.080,1344.038708
16 Dec 2019 19:07:36.000,349.818,12.153,1340.047978
16 Dec 2019 19:07:37.000,350.079,12.226,1336.082161
16 Dec 2019 19:07:38.000,350.342,12.299,1332.141486
16 Dec 2019 19:07:39.000,350.607,12.371,1328.226180
16 Dec 2019 19:07:40.000,350.874,12.444,1324.336473
16 Dec 2019 19:07:41.000,351.142,12.517,1320.472598
16 Dec 2019 19:07:42.000,351.412,12.589,1316.634785
16 Dec 2019 19:07:43.000,351.683,12.661,1312.823270
16 Dec 2019 19:07:44.000,351.957,12.733,1309.038285
16 Dec 2019 19:07:45.000,352.232,12.805,1305.280067
16 Dec 2019 19:07:46.000,352.508,12.877,1301.548854
16 Dec 2019 19:07:47.000,352.787,12.948,1297.844881
16 Dec 2019 19:07:48.000,353.067,13.019,1294.168388
16 Dec 2019 19:07:49.000,353.349,13.090,1290.519616
16 Dec 2019 19:07:50.000,353.633,13.161,1286.898803
16 Dec 2019 19:07:51.000,353.918,13.232,1283.306192
16 Dec 2019 19:07:52.000,354.205,13.302,1279.742024
16 Dec 2019 19:07:53.000,354.494,13.372,1276.206543
16 Dec 2019 19:07:54.000,354.785,13.442,1272.699992
16 Dec 2019 19:07:55.000,355.077,13.511,1269.222616
16 Dec 2019 19:07:56.000,355.371,13.581,1265.774659
16 Dec 2019 19:07:57.000,355.667,13.650,1262.356367
16 Dec 2019 19:07:58.000,355.965,13.718,1258.967987
16 Dec 2019 19:07:59.000,356.264,13.787,1255.609764
16 Dec 2019 19:08:00.000,356.565,13.855,1252.281945
16 Dec 2019 19:08:01.000,356.868,13.922,1248.984779
16 Dec 2019 19:08:02.000,357.173,13.990,1245.718513
16 Dec 2019 19:08:03.000,357.479,14.057,1242.483395
16 Dec 2019 19:08:04.000,357.787,14.124,1239.279673
16 Dec 2019 19:08:05.000,358.097,14.190,1236.107595
16 Dec 2019 19:08:06.000,358.409,14.256,1232.967409
16 Dec 2019 19:08:07.000,358.722,14.321,1229.859365
16 Dec 2019 19:08:08.000,359.037,14.386,1226.783710
16 Dec 2019 19:08:09.000,359.354,14.451,1223.740694
16 Dec 2019 19:08:10.000,359.673,14.515,1220.730563
16 Dec 2019 19:08:11.000,359.993,14.579,1217.753566
16 Dec 2019 19:08:12.000,0.315,14.642,1214.809950
16 Dec 2019 19:08:13.000,0.639,14.705,1211.899963
16 Dec 2019 19:08:14.000,0.965,14.768,1209.023851
16 Dec 2019 19:08:15.000,1.292,14.829,1206.181861
16 Dec 2019 19:08:16.000,1.621,14.891,1203.374237
16 Dec 2019 19:08:17.000,1.952,14.952,1200.601226
16 Dec 2019 19:08:18.000,2.284,15.012,1197.863070
16 Dec 2019 19:08:19.000,2.618,15.072,1195.160013
16 Dec 2019 19:08:20.000,2.954,15.131,1192.492299
16 Dec 2019 19:08:21.000,3.291,15.190,1189.860166
16 Dec 2019 19:08:22.000,3.630,15.248,1187.263857
16 Dec 2019 19:08:23.000,3.971,15.305,1184.703610
16 Dec 2019 19:08:24.000,4.313,15.362,1182.179663
16 Dec 2019 19:08:25.000,4.657,15.418,1179.692253
16 Dec 2019 19:08:26.000,5.003,15.474,1177.241613
16 Dec 2019 19:08:27.000,5.350,15.529,1174.827979
16 Dec 2019 19:08:28.000,5.699,15.583,1172.451581
16 Dec 2019 19:08:29.000,6.049,15.637,1170.112650
16 Dec 2019 19:08:30.000,6.401,15.690,1167.811414
16 Dec 2019 19:08:31.000,6.754,15.742,1165.548100
16 Dec 2019 19:08:32.000,7.109,15.793,1163.322933
16 Dec 2019 19:08:33.000,7.466,15.844,1161.136133
16 Dec 2019 19:08:34.000,7.824,15.894,1158.987922
16 Dec 2019 19:08:35.000,8.183,15.944,1156.878519
16 Dec 2019 19:08:36.000,8.544,15.992,1154.808137
16 Dec 2019 19:08:37.000,8.907,16.040,1152.776992
16 Dec 2019 19:08:38.000,9.271,16.087,1150.785292
16 Dec 2019 19:08:39.000,9.636,16.133,1148.833247
16 Dec 2019 19:08:40.000,10.002,16.178,1146.921061
16 Dec 2019 19:08:41.000,10.370,16.223,1145.048938
16 Dec 2019 19:08:42.000,10.740,16.267,1143.217075
16 Dec 2019 19:08:43.000,11.110,16.310,1141.425671
16 Dec 2019 19:08:44.000,11.482,16.352,1139.674919
16 Dec 2019 19:08:45.000,11.856,16.393,1137.965007
16 Dec 2019 19:08:46.000,12.230,16.433,1136.296125
16 Dec 2019 19:08:47.000,12.606,16.472,1134.668453
16 Dec 2019 19:08:48.000,12.983,16.511,1133.082175
16 Dec 2019 19:08:49.000,13.361,16.548,1131.537464
16 Dec 2019 19:08:50.000,13.740,16.585,1130.034496
16 Dec 2019 19:08:51.000,14.121,16.620,1128.573437
16 Dec 2019 19:08:52.000,14.502,16.655,1127.154454
16 Dec 2019 19:08:53.000,14.885,16.689,1125.777707
16 Dec 2019 19:08:54.000,15.268,16.721,1124.443356
16 Dec 2019 19:08:55.000,15.653,16.753,1123.151551
16 Dec 2019 19:08:56.000,16.039,16.784,1121.902443
16 Dec 2019 19:08:57.000,16.425,16.814,1120.696175
16 Dec 2019 19:08:58.000,16.813,16.842,1119.532888
16 Dec 2019 19:08:59.000,17.201,16.870,1118.412721
16 Dec 2019 19:09:00.000,17.590,16.897,1117.335801
16 Dec 2019 19:09:01.000,17.981,16.922,1116.302257
16 Dec 2019 19:09:02.000,18.372,16.947,1115.312213
16 Dec 2019 19:09:03.000,18.763,16.971,1114.365783
16 Dec 2019 19:09:04.000,19.156,16.993,1113.463082
16 Dec 2019 19:09:05.000,19.549,17.015,1112.604220
16 Dec 2019 19:09:06.000,19.943,17.035,1111.789296
16 Dec 2019 19:09:07.000,20.337,17.054,1111.018410
16 Dec 2019 19:09:08.000,20.732,17.072,1110.291657
16 Dec 2019 19:09:09.000,21.128,17.089,1109.609122
16 Dec 2019 19:09:10.000,21.524,17.105,1108.970890
16 Dec 2019 19:09:11.000,21.921,17.120,1108.377038
16 Dec 2019 19:09:12.000,22.318,17.134,1107.827639
16 Dec 2019 19:09:13.000,22.716,17.146,1107.322761
16 Dec 2019 19:09:14.000,23.114,17.158,1106.862464
16 Dec 2019 19:09:15.000,23.512,17.168,1106.446807
16 Dec 2019 19:09:16.000,23.911,17.178,1106.075839
16 Dec 2019 19:09:17.000,24.310,17.186,1105.749608
16 Dec 2019 19:09:18.000,24.709,17.193,1105.468154
16 Dec 2019 19:09:19.000,25.108,17.199,1105.231512
16 Dec 2019 19:09:20.000,25.508,17.203,1105.039711
16 Dec 2019 19:09:21.000,25.908,17.207,1104.892776
16 Dec 2019 19:09:22.000,26.308,17.209,1104.790726
16 Dec 2019 19:09:23.000,26.707,17.210,1104.733572
16 Dec 2019 19:09:24.000,27.107,17.211,1104.721324
16 Dec 2019 19:09:25.000,27.507,17.210,1104.753983
16 Dec 2019 19:09:26.000,27.907,17.207,1104.831545
16 Dec 2019 19:09:27.000,28.307,17.204,1104.954002
16 Dec 2019 19:09:28.000,28.707,17.200,1105.121339
16 Dec 2019 19:09:29.000,29.106,17.194,1105.333537
16 Dec 2019 19:09:30.000,29.506,17.187,1105.590568
16 Dec 2019 19:09:31.000,29.905,17.180,1105.892403
16 Dec 2019 19:09:32.000,30.304,17.171,1106.239005
16 Dec 2019 19:09:33.000,30.702,17.160,1106.630333
16 Dec 2019 19:09:34.000,31.100,17.149,1107.066338
16 Dec 2019 19:09:35.000,31.498,17.137,1107.546968
16 Dec 2019 19:09:36.000,31.895,17.123,1108.072163
16 Dec 2019 19:09:37.000,32.292,17.109,1108.641864
16 Dec 2019 19:09:38.000,32.689,17.093,1109.255999
16 Dec 2019 19:09:39.000,33.085,17.076,1109.914496
16 Dec 2019 19:09:40.000,33.480,17.058,1110.617274
16 Dec 2019 19:09:41.000,33.875,17.039,1111.364248
16 Dec 2019 19:09:42.000,34.269,17.019,1112.155332
16 Dec 2019 19:09:43.000,34.663,16.998,1112.990430
16 Dec 2019 19:09:44.000,35.056,16.976,1113.869442
16 Dec 2019 19:09:45.000,35.448,16.952,1114.792262
16 Dec 2019 19:09:46.000,35.839,16.928,1115.758785
16 Dec 2019 19:09:47.000,36.230,16.902,1116.768895
16 Dec 2019 19:09:48.000,36.619,16.876,1117.822471
16 Dec 2019 19:09:49.000,37.008,16.848,1118.919393
16 Dec 2019 19:09:50.000,37.396,16.820,1120.059531
16 Dec 2019 19:09:51.000,37.783,16.790,1121.242751
16 Dec 2019 19:09:52.000,38.169,16.760,1122.468920
16 Dec 2019 19:09:53.000,38.555,16.728,1123.737892
16 Dec 2019 19:09:54.000,38.939,16.696,1125.049526
16 Dec 2019 19:09:55.000,39.322,16.662,1126.403666
16 Dec 2019 19:09:56.000,39.704,16.628,1127.800165
16 Dec 2019 19:09:57.000,40.085,16.592,1129.238860
16 Dec 2019 19:09:58.000,40.465,16.556,1130.719588
16 Dec 2019 19:09:59.000,40.843,16.518,1132.242187
16 Dec 2019 19:10:00.000,41.221,16.480,1133.806482
16 Dec 2019 19:10:01.000,41.597,16.441,1135.412305
16 Dec 2019 19:10:02.000,41.972,16.401,1137.059473
16 Dec 2019 19:10:03.000,42.346,16.360,1138.747809
16 Dec 2019 19:10:04.000,42.719,16.318,1140.477130
16 Dec 2019 19:10:05.000,43.090,16.275,1142.247244
16 Dec 2019 19:10:06.000,43.460,16.232,1144.057964
16 Dec 2019 19:10:07.000,43.829,16.187,1145.909093
16 Dec 2019 19:10:08.000,44.196,16.142,1147.800434
16 Dec 2019 19:10:09.000,44.562,16.096,1149.731791
16 Dec 2019 19:10:10.000,44.927,16.049,1151.702956
16 Dec 2019 19:10:11.000,45.290,16.001,1153.713725
16 Dec 2019 19:10:12.000,45.652,15.953,1155.763892
16 Dec 2019 19:10:13.000,46.012,15.904,1157.853241
16 Dec 2019 19:10:14.000,46.371,15.854,1159.981561
16 Dec 2019 19:10:15.000,46.728,15.803,1162.148638
16 Dec 2019 19:10:16.000,47.084,15.751,1164.354250
16 Dec 2019 19:10:17.000,47.438,15.699,1166.598177
16 Dec 2019 19:10:18.000,47.790,15.646,1168.880197
16 Dec 2019 19:10:19.000,48.142,15.593,1171.200088
16 Dec 2019 19:10:20.000,48.491,15.539,1173.557619
16 Dec 2019 19:10:21.000,48.839,15.484,1175.952562
16 Dec 2019 19:10:22.000,49.185,15.428,1178.384688
16 Dec 2019 19:10:23.000,49.530,15.372,1180.853767
16 Dec 2019 19:10:24.000,49.873,15.315,1183.359560
16 Dec 2019 19:10:25.000,50.215,15.257,1185.901835
16 Dec 2019 19:10:26.000,50.555,15.199,1188.480355
16 Dec 2019 19:10:27.000,50.893,15.141,1191.094882
16 Dec 2019 19:10:28.000,51.230,15.082,1193.745177
16 Dec 2019 19:10:29.000,51.564,15.022,1196.431001
16 Dec 2019 19:10:30.000,51.898,14.961,1199.152111
16 Dec 2019 19:10:31.000,52.229,14.900,1201.908268
16 Dec 2019 19:10:32.000,52.559,14.839,1204.699223
16 Dec 2019 19:10:33.000,52.887,14.777,1207.524735
16 Dec 2019 19:10:34.000,53.213,14.715,1210.384560
16 Dec 2019 19:10:35.000,53.538,14.652,1213.278451
16 Dec 2019 19:10:36.000,53.861,14.588,1216.206163
16 Dec 2019 19:10:37.000,54.182,14.525,1219.167449
16 Dec 2019 19:10:38.000,54.502,14.460,1222.162062
16 Dec 2019 19:10:39.000,54.819,14.396,1225.189755
16 Dec 2019 19:10:40.000,55.135,14.330,1228.250280
16 Dec 2019 19:10:41.000,55.450,14.265,1231.343390
16 Dec 2019 19:10:42.000,55.762,14.199,1234.468835
16 Dec 2019 19:10:43.000,56.073,14.132,1237.626369
16 Dec 2019 19:10:44.000,56.382,14.066,1240.815743
16 Dec 2019 19:10:45.000,56.689,13.999,1244.036709
16 Dec 2019 19:10:46.000,56.995,13.931,1247.289015
16 Dec 2019 19:10:47.000,57.298,13.863,1250.572421
16 Dec 2019 19:10:48.000,57.600,13.795,1253.886675
16 Dec 2019 19:10:49.000,57.901,13.727,1257.231530
16 Dec 2019 19:10:50.000,58.199,13.658,1260.606739
16 Dec 2019 19:10:51.000,58.496,13.589,1264.012056
16 Dec 2019 19:10:52.000,58.791,13.519,1267.447234
16 Dec 2019 19:10:53.000,59.084,13.450,1270.912028
16 Dec 2019 19:10:54.000,59.375,13.380,1274.406189
16 Dec 2019 19:10:55.000,59.665,13.309,1277.929480
16 Dec 2019 19:10:56.000,59.953,13.239,1281.481652
16 Dec 2019 19:10:57.000,60.239,13.168,1285.062464
16 Dec 2019 19:10:58.000,60.523,13.097,1288.671673
16 Dec 2019 19:10:59.000,60.806,13.026,1292.309036
16 Dec 2019 19:11:00.000,61.087,12.955,1295.974311
16 Dec 2019 19:11:01.000,61.366,12.883,1299.667263
16 Dec 2019 19:11:02.000,61.644,12.811,1303.387651
16 Dec 2019 19:11:03.000,61.920,12.739,1307.135235
16 Dec 2019 19:11:04.000,62.194,12.667,1310.909776
16 Dec 2019 19:11:05.000,62.466,12.595,1314.711044
16 Dec 2019 19:11:06.000,62.737,12.522,1318.538801
16 Dec 2019 19:11:07.000,63.005,12.450,1322.392813
16 Dec 2019 19:11:08.000,63.273,12.377,1326.272843
16 Dec 2019 19:11:09.000,63.538,12.304,1330.178666
16 Dec 2019 19:11:10.000,63.802,12.231,1334.110049
16 Dec 2019 19:11:11.000,64.064,12.158,1338.066759
16 Dec 2019 19:11:12.000,64.325,12.084,1342.048574
16 Dec 2019 19:11:13.000,64.583,12.011,1346.055264
16 Dec 2019 19:11:14.000,64.841,11.937,1350.086600
16 Dec 2019 19:11:15.000,65.096,11.864,1354.142364
16 Dec 2019 19:11:16.000,65.350,11.790,1358.222330
16 Dec 2019 19:11:17.000,65.602,11.716,1362.326273
16 Dec 2019 19:11:18.000,65.853,11.642,1366.453979
16 Dec 2019 19:11:19.000,66.102,11.568,1370.605225
16 Dec 2019 19:11:20.000,66.349,11.494,1374.779792
16 Dec 2019 19:11:21.000,66.595,11.420,1378.977468
16 Dec 2019 19:11:22.000,66.839,11.346,1383.198033
16 Dec 2019 19:11:23.000,67.081,11.272,1387.441281
16 Dec 2019 19:11:24.000,67.322,11.198,1391.706991
16 Dec 2019 19:11:25.000,67.562,11.124,1395.994961
16 Dec 2019 19:11:26.000,67.799,11.049,1400.304979
16 Dec 2019 19:11:27.000,68.036,10.975,1404.636833
16 Dec 2019 19:11:28.000,68.270,10.901,1408.990324
16 Dec 2019 19:11:29.000,68.503,10.827,1413.365241
16 Dec 2019 19:11:30.000,68.735,10.752,1417.761387
16 Dec 2019 19:11:31.000,68.965,10.678,1422.178555
16 Dec 2019 19:11:32.000,69.193,10.604,1426.616550
16 Dec 2019 19:11:33.000,69.420,10.530,1431.075168
16 Dec 2019 19:11:34.000,69.646,10.455,1435.554219
16 Dec 2019 19:11:35.000,69.870,10.381,1440.053501
16 Dec 2019 19:11:36.000,70.092,10.307,1444.572826
16 Dec 2019 19:11:37.000,70.313,10.233,1449.111995
16 Dec 2019 19:11:38.000,70.533,10.159,1453.670824
16 Dec 2019 19:11:39.000,70.751,10.085,1458.249117
16 Dec 2019 19:11:40.000,70.968,10.010,1462.846694
16 Dec 2019 19:11:41.000,71.183,9.936,1467.463361
16 Dec 2019 19:11:42.000,71.397,9.862,1472.098941
16 Dec 2019 19:11:43.000,71.609,9.789,1476.753243
16 Dec 2019 19:11:44.000,71.820,9.715,1481.426094
16 Dec 2019 19:11:45.000,72.030,9.641,1486.117306
16 Dec 2019 19:11:46.000,72.238,9.567,1490.826704
16 Dec 2019 19:11:47.000,72.445,9.493,1495.554115
16 Dec 2019 19:11:48.000,72.650,9.420,1500.299357
16 Dec 2019 19:11:49.000,72.854,9.346,1505.062262
16 Dec 2019 19:11:50.000,73.057,9.273,1509.842652
16 Dec 2019 19:11:51.000,73.258,9.199,1514.640363
16 Dec 2019 19:11:52.000,73.458,9.126,1519.455219
16 Dec 2019 19:11:53.000,73.657,9.053,1524.287055
16 Dec 2019 19:11:54.000,73.854,8.980,1529.135709
16 Dec 2019 19:11:55.000,74.050,8.907,1534.001008
16 Dec 2019 19:11:56.000,74.245,8.834,1538.882794
16 Dec 2019 19:11:57.000,74.438,8.761,1543.780909
16 Dec 2019 19:11:58.000,74.630,8.688,1548.695184
16 Dec 2019 19:11:59.000,74.821,8.616,1553.625469
16 Dec 2019 19:12:00.000,75.011,8.543,1558.571599
16 Dec 2019 19:12:01.000,75.199,8.471,1563.533421
16 Dec 2019 19:12:02.000,75.386,8.398,1568.510786
16 Dec 2019 19:12:03.000,75.572,8.326,1573.503532
16 Dec 2019 19:12:04.000,75.757,8.254,1578.511513
16 Dec 2019 19:12:05.000,75.940,8.182,1583.534582
16 Dec 2019 19:12:06.000,76.123,8.110,1588.572583
16 Dec 2019 19:12:07.000,76.304,8.038,1593.625373
16 Dec 2019 19:12:08.000,76.484,7.966,1598.692809
16 Dec 2019 19:12:09.000,76.662,7.895,1603.774740
16 Dec 2019 19:12:10.000,76.840,7.823,1608.871027
16 Dec 2019 19:12:11.000,77.016,7.752,1613.981528
16 Dec 2019 19:12:12.000,77.191,7.681,1619.106107
16 Dec 2019 19:12:13.000,77.365,7.610,1624.244617
16 Dec 2019 19:12:14.000,77.538,7.539,1629.396925
16 Dec 2019 19:12:15.000,77.710,7.468,1634.562898
16 Dec 2019 19:12:16.000,77.880,7.397,1639.742395
16 Dec 2019 19:12:17.000,78.050,7.327,1644.935285
16 Dec 2019 19:12:18.000,78.218,7.256,1650.141436
16 Dec 2019 19:12:19.000,78.386,7.186,1655.360722
16 Dec 2019 19:12:20.000,78.552,7.116,1660.593005
16 Dec 2019 19:12:21.000,78.717,7.045,1665.838161
16 Dec 2019 19:12:22.000,78.881,6.976,1671.096063
16 Dec 2019 19:12:23.000,79.044,6.906,1676.366588
16 Dec 2019 19:12:24.000,79.206,6.836,1681.649606
16 Dec 2019 19:12:25.000,79.367,6.766,1686.944997
16 Dec 2019 19:12:26.000,79.527,6.697,1692.252638
16 Dec 2019 19:12:27.000,79.686,6.628,1697.572413
16 Dec 2019 19:12:28.000,79.844,6.559,1702.904194
16 Dec 2019 19:12:29.000,80.000,6.490,1708.247868
16 Dec 2019 19:12:30.000,80.156,6.421,1713.603317
16 Dec 2019 19:12:31.000,80.311,6.352,1718.970429
16 Dec 2019 19:12:32.000,80.465,6.284,1724.349081
16 Dec 2019 19:12:33.000,80.618,6.215,1729.739164
16 Dec 2019 19:12:34.000,80.770,6.147,1735.140566
16 Dec 2019 19:12:35.000,80.921,6.079,1740.553175
16 Dec 2019 19:12:36.000,81.070,6.011,1745.976884
16 Dec 2019 19:12:37.000,81.219,5.943,1751.411577
16 Dec 2019 19:12:38.000,81.368,5.875,1756.857150
16 Dec 2019 19:12:39.000,81.515,5.807,1762.313497
16 Dec 2019 19:12:40.000,81.661,5.740,1767.780510
16 Dec 2019 19:12:41.000,81.806,5.673,1773.258086
16 Dec 2019 19:12:42.000,81.951,5.606,1778.746125
16 Dec 2019 19:12:43.000,82.094,5.539,1784.244517
16 Dec 2019 19:12:44.000,82.237,5.472,1789.753163
16 Dec 2019 19:12:45.000,82.378,5.405,1795.271965
16 Dec 2019 19:12:46.000,82.519,5.338,1800.800821
16 Dec 2019 19:12:47.000,82.659,5.272,1806.339634
16 Dec 2019 19:12:48.000,82.798,5.206,1811.888309
16 Dec 2019 19:12:49.000,82.936,5.139,1817.446744
16 Dec 2019 19:12:50.000,83.074,5.073,1823.014847
16 Dec 2019 19:12:51.000,83.210,5.008,1828.592522
16 Dec 2019 19:12:52.000,83.346,4.942,1834.179677
16 Dec 2019 19:12:53.000,83.480,4.876,1839.776218
16 Dec 2019 19:12:54.000,83.614,4.811,1845.382055
16 Dec 2019 19:12:55.000,83.748,4.745,1850.997101
16 Dec 2019 19:12:56.000,83.880,4.680,1856.621258
16 Dec 2019 19:12:57.000,84.011,4.615,1862.254441
16 Dec 2019 19:12:58.000,84.142,4.550,1867.896562
16 Dec 2019 19:12:59.000,84.272,4.486,1873.547534
16 Dec 2019 19:13:00.000,84.401,4.421,1879.207272
16 Dec 2019 19:13:01.000,84.530,4.357,1884.875690
16 Dec 2019 19:13:02.000,84.657,4.292,1890.552703
16 Dec 2019 19:13:03.000,84.784,4.228,1896.238229
16 Dec 2019 19:13:04.000,84.910,4.164,1901.932188
16 Dec 2019 19:13:05.000,85.035,4.100,1907.634491
16 Dec 2019 19:13:06.000,85.160,4.036,1913.345061
16 Dec 2019 19:13:07.000,85.284,3.973,1919.063817
16 Dec 2019 19:13:08.000,85.407,3.909,1924.790681
16 Dec 2019 19:13:09.000,85.529,3.846,1930.525574
16 Dec 2019 19:13:10.000,85.651,3.783,1936.268418
16 Dec 2019 19:13:11.000,85.772,3.720,1942.019136
16 Dec 2019 19:13:12.000,85.892,3.657,1947.777653
16 Dec 2019 19:13:13.000,86.011,3.594,1953.543892
16 Dec 2019 19:13:14.000,86.130,3.532,1959.317780
16 Dec 2019 19:13:15.000,86.248,3.469,1965.099242
16 Dec 2019 19:13:16.000,86.365,3.407,1970.888209
16 Dec 2019 19:13:17.000,86.482,3.344,1976.684602
16 Dec 2019 19:13:18.000,86.598,3.282,1982.488352
16 Dec 2019 19:13:19.000,86.713,3.220,1988.299388
16 Dec 2019 19:13:20.000,86.828,3.159,1994.117641
16 Dec 2019 19:13:21.000,86.942,3.097,1999.943041
16 Dec 2019 19:13:22.000,87.055,3.035,2005.775520
16 Dec 2019 19:13:23.000,87.168,2.974,2011.615008
16 Dec 2019 19:13:24.000,87.280,2.913,2017.461439
16 Dec 2019 19:13:25.000,87.391,2.852,2023.314746
16 Dec 2019 19:13:26.000,87.502,2.791,2029.174864
16 Dec 2019 19:13:27.000,87.612,2.730,2035.041726
16 Dec 2019 19:13:28.000,87.722,2.669,2040.915268
16 Dec 2019 19:13:29.000,87.831,2.608,2046.795427
16 Dec 2019 19:13:30.000,87.939,2.548,2052.682138
16 Dec 2019 19:13:31.000,88.046,2.488,2058.575338
16 Dec 2019 19:13:32.000,88.153,2.427,2064.474967
16 Dec 2019 19:13:33.000,88.260,2.367,2070.380962
16 Dec 2019 19:13:34.000,88.366,2.307,2076.293262
16 Dec 2019 19:13:35.000,88.471,2.248,2082.211807
16 Dec 2019 19:13:36.000,88.575,2.188,2088.136538
16 Dec 2019 19:13:37.000,88.679,2.128,2094.067394
16 Dec 2019 19:13:38.000,88.783,2.069,2100.004322
16 Dec 2019 19:13:39.000,88.886,2.009,2105.947257
16 Dec 2019 19:13:40.000,88.988,1.950,2111.896143
16 Dec 2019 19:13:41.000,89.090,1.891,2117.850925
16 Dec 2019 19:13:42.000,89.191,1.832,2123.811547
16 Dec 2019 19:13:43.000,89.291,1.774,2129.777952
16 Dec 2019 19:13:44.000,89.392,1.715,2135.750086
16 Dec 2019 19:13:45.000,89.491,1.656,2141.727894
16 Dec 2019 19:13:46.000,89.590,1.598,2147.711322
16 Dec 2019 19:13:47.000,89.688,1.540,2153.700316
16 Dec 2019 19:13:48.000,89.786,1.481,2159.694824
16 Dec 2019 19:13:49.000,89.884,1.423,2165.694792
16 Dec 2019 19:13:50.000,89.980,1.365,2171.700170
16 Dec 2019 19:13:51.000,90.077,1.307,2177.710905
16 Dec 2019 19:13:52.000,90.172,1.250,2183.726947
16 Dec 2019 19:13:53.000,90.268,1.192,2189.748245
16 Dec 2019 19:13:54.000,90.362,1.135,2195.774749
16 Dec 2019 19:13:55.000,90.457,1.077,2201.806410
16 Dec 2019 19:13:56.000,90.550,1.020,2207.843178
16 Dec 2019 19:13:57.000,90.644,0.963,2213.885005
16 Dec 2019 19:13:58.000,90.736,0.906,2219.931844
16 Dec 2019 19:13:59.000,90.829,0.849,2225.983646
16 Dec 2019 19:14:00.000,90.920,0.792,2232.040360
16 Dec 2019 19:14:01.000,91.012,0.736,2238.101948
16 Dec 2019 19:14:02.000,91.102,0.679,2244.168359
16 Dec 2019 19:14:03.000,91.193,0.623,2250.239548
16 Dec 2019 19:14:04.000,91.282,0.566,2256.315469
16 Dec 2019 19:14:05.000,91.372,0.510,2262.396078
16 Dec 2019 19:14:06.000,91.461,0.454,2268.481329
16 Dec 2019 19:14:07.000,91.549,0.398,2274.571179
16 Dec 2019 19:14:08.000,91.637,0.342,2280.665584
16 Dec 2019 19:14:09.000,91.725,0.287,2286.764500
16 Dec 2019 19:14:10.000,91.812,0.231,2292.867886
16 Dec 2019 19:14:11.000,91.898,0.175,2298.975698
16 Dec 2019 19:14:12.000,91.984,0.120,2305.087895
16 Dec 2019 19:14:13.000,92.070,0.065,2311.204434
16 Dec 2019 19:14:14.000,92.155,0.009,2317.325275
16 Dec 2019 19:14:15.000,92.240,-0.046,2323.450377
16 Dec 2019 19:14:16.000,92.325,-0.101,2329.579699
16 Dec 2019 19:14:16.429,92.361,-0.124,2332.209514
16 Dec 2019 20:40:46.180,307.263,-0.124,2337.169542
16 Dec 2019 20:40:47.000,307.250,-0.074,2331.515295
16 Dec 2019 20:40:48.000,307.235,-0.012,2324.617889
16 Dec 2019 20:40:49.000,307.220,0.050,2317.720683
16 Dec 2019 20:40:50.000,307.204,0.112,2310.823686
16 Dec 2019 20:40:51.000,307.188,0.174,2303.926906
16 Dec 2019 20:40:52.000,307.172,0.237,2297.030352
16 Dec 2019 20:40:53.000,307.156,0.299,2290.134040
16 Dec 2019 20:40:54.000,307.140,0.362,2283.237976
16 Dec 2019 20:40:55.000,307.124,0.425,2276.342169
16 Dec 2019 20:40:56.000,307.108,0.488,2269.446635
16 Dec 2019 20:40:57.000,307.092,0.552,2262.551381
16 Dec 2019 20:40:58.000,307.075,0.615,2255.656416
16 Dec 2019 20:40:59.000,307.058,0.679,2248.761757
16 Dec 2019 20:41:00.000,307.042,0.743,2241.867411
16 Dec 2019 20:41:01.000,307.025,0.807,2234.973390
16 Dec 2019 20:41:02.000,307.008,0.871,2228.079702
16 Dec 2019 20:41:03.000,306.991,0.936,2221.186364
16 Dec 2019 20:41:04.000,306.973,1.001,2214.293385
16 Dec 2019 20:41:05.000,306.956,1.066,2207.400774
16 Dec 2019 20:41:06.000,306.938,1.131,2200.508548
16 Dec 2019 20:41:07.000,306.921,1.197,2193.616716
16 Dec 2019 20:41:08.000,306.903,1.262,2186.725286
16 Dec 2019 20:41:09.000,306.885,1.328,2179.834278
16 Dec 2019 20:41:10.000,306.867,1.394,2172.943700
16 Dec 2019 20:41:11.000,306.849,1.460,2166.053565
16 Dec 2019 20:41:12.000,306.830,1.527,2159.163882
16 Dec 2019 20:41:13.000,306.812,1.594,2152.274670
16 Dec 2019 20:41:14.000,306.793,1.661,2145.385938
16 Dec 2019 20:41:15.000,306.774,1.728,2138.497697
16 Dec 2019 20:41:16.000,306.756,1.795,2131.609965
16 Dec 2019 20:41:17.000,306.737,1.863,2124.722753
16 Dec 2019 20:41:18.000,306.717,1.931,2117.836071
16 Dec 2019 20:41:19.000,306.698,1.999,2110.949938
16 Dec 2019 20:41:20.000,306.678,2.067,2104.064365
16 Dec 2019 20:41:21.000,306.659,2.136,2097.179366
16 Dec 2019 20:41:22.000,306.639,2.205,2090.294951
16 Dec 2019 20:41:23.000,306.619,2.274,2083.411141
16 Dec 2019 20:41:24.000,306.599,2.343,2076.527948
16 Dec 2019 20:41:25.000,306.579,2.413,2069.645381
16 Dec 2019 20:41:26.000,306.558,2.483,2062.763462
16 Dec 2019 20:41:27.000,306.538,2.553,2055.882203
16 Dec 2019 20:41:28.000,306.517,2.623,2049.001619
16 Dec 2019 20:41:29.000,306.496,2.694,2042.121721
16 Dec 2019 20:41:30.000,306.475,2.765,2035.242530
16 Dec 2019 20:41:31.000,306.454,2.836,2028.364060
16 Dec 2019 20:41:32.000,306.432,2.908,2021.486323
16 Dec 2019 20:41:33.000,306.411,2.979,2014.609340
16 Dec 2019 20:41:34.000,306.389,3.051,2007.733125
16 Dec 2019 20:41:35.000,306.367,3.124,2000.857690
16 Dec 2019 20:41:36.000,306.345,3.196,1993.983059
16 Dec 2019 20:41:37.000,306.323,3.269,1987.109243
16 Dec 2019 20:41:38.000,306.300,3.342,1980.236262
16 Dec 2019 20:41:39.000,306.278,3.416,1973.364127
16 Dec 2019 20:41:40.000,306.255,3.490,1966.492863
16 Dec 2019 20:41:41.000,306.232,3.564,1959.622483
16 Dec 2019 20:41:42.000,306.208,3.638,1952.753003
16 Dec 2019 20:41:43.000,306.185,3.713,1945.884445
16 Dec 2019 20:41:44.000,306.161,3.787,1939.016826
16 Dec 2019 20:41:45.000,306.138,3.863,1932.150163
16 Dec 2019 20:41:46.000,306.114,3.938,1925.284472
16 Dec 2019 20:41:47.000,306.090,4.014,1918.419777
16 Dec 2019 20:41:48.000,306.065,4.090,1911.556094
16 Dec 2019 20:41:49.000,306.041,4.167,1904.693440
16 Dec 2019 20:41:50.000,306.016,4.244,1897.831841
16 Dec 2019 20:41:51.000,305.991,4.321,1890.971311
16 Dec 2019 20:41:52.000,305.966,4.398,1884.111869
16 Dec 2019 20:41:53.000,305.940,4.476,1877.253541
16 Dec 2019 20:41:54.000,305.915,4.554,1870.396344
16 Dec 2019 20:41:55.000,305.889,4.633,1863.540299
16 Dec 2019 20:41:56.000,305.863,4.712,1856.685424
16 Dec 2019 20:41:57.000,305.836,4.791,1849.831745
16 Dec 2019 20:41:58.000,305.810,4.871,1842.979283
16 Dec 2019 20:41:59.000,305.783,4.950,1836.128055
16 Dec 2019 20:42:00.000,305.756,5.031,1829.278089
16 Dec 2019 20:42:01.000,305.729,5.111,1822.429405
16 Dec 2019 20:42:02.000,305.701,5.192,1815.582026
16 Dec 2019 20:42:03.000,305.674,5.274,1808.735972
16 Dec 2019 20:42:04.000,305.646,5.356,1801.891272
16 Dec 2019 20:42:05.000,305.618,5.438,1795.047946
16 Dec 2019 20:42:06.000,305.589,5.520,1788.206019
16 Dec 2019 20:42:07.000,305.560,5.603,1781.365512
16 Dec 2019 20:42:08.000,305.532,5.687,1774.526456
16 Dec 2019 20:42:09.000,305.502,5.770,1767.688873
16 Dec 2019 20:42:10.000,305.473,5.854,1760.852784
16 Dec 2019 20:42:11.000,305.443,5.939,1754.018223
16 Dec 2019 20:42:12.000,305.413,6.024,1747.185211
16 Dec 2019 20:42:13.000,305.383,6.109,1740.353775
16 Dec 2019 20:42:14.000,305.352,6.195,1733.523940
16 Dec 2019 20:42:15.000,305.322,6.281,1726.695738
16 Dec 2019 20:42:16.000,305.291,6.368,1719.869194
16 Dec 2019 20:42:17.000,305.259,6.455,1713.044332
16 Dec 2019 20:42:18.000,305.228,6.543,1706.221188
16 Dec 2019 20:42:19.000,305.196,6.631,1699.399788
16 Dec 2019 20:42:20.000,305.163,6.719,1692.580160
16 Dec 2019 20:42:21.000,305.131,6.808,1685.762331
16 Dec 2019 20:42:22.000,305.098,6.897,1678.946337
16 Dec 2019 20:42:23.000,305.065,6.987,1672.132206
16 Dec 2019 20:42:24.000,305.032,7.077,1665.319969
16 Dec 2019 20:42:25.000,304.998,7.168,1658.509654
16 Dec 2019 20:42:26.000,304.964,7.260,1651.701300
16 Dec 2019 20:42:27.000,304.929,7.351,1644.894936
16 Dec 2019 20:42:28.000,304.895,7.444,1638.090592
16 Dec 2019 20:42:29.000,304.860,7.536,1631.288307
16 Dec 2019 20:42:30.000,304.824,7.630,1624.488112
16 Dec 2019 20:42:31.000,304.788,7.723,1617.690042
16 Dec 2019 20:42:32.000,304.752,7.818,1610.894129
16 Dec 2019 20:42:33.000,304.716,7.913,1604.100415
16 Dec 2019 20:42:34.000,304.679,8.008,1597.308932
16 Dec 2019 20:42:35.000,304.642,8.104,1590.519718
16 Dec 2019 20:42:36.000,304.604,8.200,1583.732807
16 Dec 2019 20:42:37.000,304.567,8.297,1576.948242
16 Dec 2019 20:42:38.000,304.528,8.395,1570.166060
16 Dec 2019 20:42:39.000,304.490,8.493,1563.386299
16 Dec 2019 20:42:40.000,304.451,8.592,1556.608996
16 Dec 2019 20:42:41.000,304.411,8.691,1549.834198
16 Dec 2019 20:42:42.000,304.372,8.791,1543.061942
16 Dec 2019 20:42:43.000,304.331,8.892,1536.292268
16 Dec 2019 20:42:44.000,304.291,8.993,1529.525223
16 Dec 2019 20:42:45.000,304.250,9.094,1522.760849
16 Dec 2019 20:42:46.000,304.208,9.197,1515.999189
16 Dec 2019 20:42:47.000,304.167,9.300,1509.240284
16 Dec 2019 20:42:48.000,304.124,9.403,1502.484186
16 Dec 2019 20:42:49.000,304.082,9.508,1495.730937
16 Dec 2019 20:42:50.000,304.038,9.613,1488.980586
16 Dec 2019 20:42:51.000,303.995,9.718,1482.233176
16 Dec 2019 20:42:52.000,303.951,9.824,1475.488763
16 Dec 2019 20:42:53.000,303.906,9.931,1468.747391
16 Dec 2019 20:42:54.000,303.861,10.039,1462.009112
16 Dec 2019 20:42:55.000,303.816,10.147,1455.273974
16 Dec 2019 20:42:56.000,303.770,10.256,1448.542035
