vcc_sched/network/input/aer_odugs_wj2xoh_vcc-b_44431.csv

"Time (UTCG)","Azimuth (deg)","Elevation (deg)","Range (km)"
3 Feb 2020 16:59:00.986,201.998,-0.124,2319.225771
3 Feb 2020 16:59:01.000,201.997,-0.123,2319.137237
3 Feb 2020 16:59:02.000,201.936,-0.065,2312.608934
3 Feb 2020 16:59:03.000,201.875,-0.006,2306.083076
3 Feb 2020 16:59:04.000,201.813,0.053,2299.559691
3 Feb 2020 16:59:05.000,201.751,0.112,2293.038807
3 Feb 2020 16:59:06.000,201.688,0.171,2286.520455
3 Feb 2020 16:59:07.000,201.625,0.230,2280.004664
3 Feb 2020 16:59:08.000,201.562,0.290,2273.491462
3 Feb 2020 16:59:09.000,201.498,0.350,2266.980883
3 Feb 2020 16:59:10.000,201.434,0.409,2260.472956
3 Feb 2020 16:59:11.000,201.370,0.469,2253.967713
3 Feb 2020 16:59:12.000,201.305,0.530,2247.465183
3 Feb 2020 16:59:13.000,201.240,0.590,2240.965400
3 Feb 2020 16:59:14.000,201.174,0.650,2234.468393
3 Feb 2020 16:59:15.000,201.109,0.711,2227.974198
3 Feb 2020 16:59:16.000,201.042,0.772,2221.482846
3 Feb 2020 16:59:17.000,200.976,0.832,2214.994369
3 Feb 2020 16:59:18.000,200.908,0.893,2208.508803
3 Feb 2020 16:59:19.000,200.841,0.955,2202.026179
3 Feb 2020 16:59:20.000,200.773,1.016,2195.546531
3 Feb 2020 16:59:21.000,200.705,1.078,2189.069895
3 Feb 2020 16:59:22.000,200.636,1.139,2182.596307
3 Feb 2020 16:59:23.000,200.567,1.201,2176.125799
3 Feb 2020 16:59:24.000,200.497,1.263,2169.658409
3 Feb 2020 16:59:25.000,200.427,1.325,2163.194172
3 Feb 2020 16:59:26.000,200.356,1.388,2156.733123
3 Feb 2020 16:59:27.000,200.286,1.450,2150.275301
3 Feb 2020 16:59:28.000,200.214,1.513,2143.820742
3 Feb 2020 16:59:29.000,200.142,1.576,2137.369484
3 Feb 2020 16:59:30.000,200.070,1.639,2130.921565
3 Feb 2020 16:59:31.000,199.997,1.702,2124.477023
3 Feb 2020 16:59:32.000,199.924,1.766,2118.035896
3 Feb 2020 16:59:33.000,199.851,1.829,2111.598224
3 Feb 2020 16:59:34.000,199.777,1.893,2105.164047
3 Feb 2020 16:59:35.000,199.702,1.957,2098.733406
3 Feb 2020 16:59:36.000,199.627,2.021,2092.306339
3 Feb 2020 16:59:37.000,199.552,2.086,2085.882889
3 Feb 2020 16:59:38.000,199.476,2.150,2079.463097
3 Feb 2020 16:59:39.000,199.399,2.215,2073.047004
3 Feb 2020 16:59:40.000,199.322,2.280,2066.634652
3 Feb 2020 16:59:41.000,199.245,2.345,2060.226086
3 Feb 2020 16:59:42.000,199.167,2.410,2053.821349
3 Feb 2020 16:59:43.000,199.088,2.475,2047.420484
3 Feb 2020 16:59:44.000,199.009,2.541,2041.023535
3 Feb 2020 16:59:45.000,198.930,2.607,2034.630548
3 Feb 2020 16:59:46.000,198.850,2.673,2028.241567
3 Feb 2020 16:59:47.000,198.769,2.739,2021.856638
3 Feb 2020 16:59:48.000,198.688,2.806,2015.475809
3 Feb 2020 16:59:49.000,198.607,2.872,2009.099126
3 Feb 2020 16:59:50.000,198.525,2.939,2002.726636
3 Feb 2020 16:59:51.000,198.442,3.006,1996.358388
3 Feb 2020 16:59:52.000,198.359,3.073,1989.994430
3 Feb 2020 16:59:53.000,198.275,3.141,1983.634812
3 Feb 2020 16:59:54.000,198.191,3.209,1977.279582
3 Feb 2020 16:59:55.000,198.106,3.276,1970.928790
3 Feb 2020 16:59:56.000,198.020,3.344,1964.582490
3 Feb 2020 16:59:57.000,197.934,3.413,1958.240732
3 Feb 2020 16:59:58.000,197.848,3.481,1951.903567
3 Feb 2020 16:59:59.000,197.761,3.550,1945.571049
3 Feb 2020 17:00:00.000,197.673,3.619,1939.243232
3 Feb 2020 17:00:01.000,197.584,3.688,1932.920168
3 Feb 2020 17:00:02.000,197.495,3.757,1926.601912
3 Feb 2020 17:00:03.000,197.406,3.827,1920.288521
3 Feb 2020 17:00:04.000,197.316,3.897,1913.980048
3 Feb 2020 17:00:05.000,197.225,3.967,1907.676553
3 Feb 2020 17:00:06.000,197.133,4.037,1901.378092
3 Feb 2020 17:00:07.000,197.041,4.108,1895.084723
3 Feb 2020 17:00:08.000,196.948,4.178,1888.796504
3 Feb 2020 17:00:09.000,196.855,4.249,1882.513495
3 Feb 2020 17:00:10.000,196.761,4.321,1876.235756
3 Feb 2020 17:00:11.000,196.666,4.392,1869.963348
3 Feb 2020 17:00:12.000,196.571,4.464,1863.696332
3 Feb 2020 17:00:13.000,196.475,4.536,1857.434771
3 Feb 2020 17:00:14.000,196.378,4.608,1851.178727
3 Feb 2020 17:00:15.000,196.281,4.680,1844.928266
3 Feb 2020 17:00:16.000,196.183,4.753,1838.683452
3 Feb 2020 17:00:17.000,196.084,4.826,1832.444350
3 Feb 2020 17:00:18.000,195.984,4.899,1826.211026
3 Feb 2020 17:00:19.000,195.884,4.972,1819.983547
3 Feb 2020 17:00:20.000,195.783,5.046,1813.761982
3 Feb 2020 17:00:21.000,195.681,5.119,1807.546399
3 Feb 2020 17:00:22.000,195.579,5.194,1801.336868
3 Feb 2020 17:00:23.000,195.476,5.268,1795.133459
3 Feb 2020 17:00:24.000,195.372,5.343,1788.936243
3 Feb 2020 17:00:25.000,195.267,5.417,1782.745294
3 Feb 2020 17:00:26.000,195.162,5.493,1776.560684
3 Feb 2020 17:00:27.000,195.056,5.568,1770.382487
3 Feb 2020 17:00:28.000,194.949,5.644,1764.210778
3 Feb 2020 17:00:29.000,194.841,5.720,1758.045634
3 Feb 2020 17:00:30.000,194.732,5.796,1751.887131
3 Feb 2020 17:00:31.000,194.623,5.872,1745.735348
3 Feb 2020 17:00:32.000,194.513,5.949,1739.590362
3 Feb 2020 17:00:33.000,194.402,6.026,1733.452255
3 Feb 2020 17:00:34.000,194.290,6.103,1727.321107
3 Feb 2020 17:00:35.000,194.177,6.181,1721.197000
3 Feb 2020 17:00:36.000,194.063,6.259,1715.080017
3 Feb 2020 17:00:37.000,193.949,6.337,1708.970243
3 Feb 2020 17:00:38.000,193.834,6.415,1702.867762
3 Feb 2020 17:00:39.000,193.717,6.494,1696.772660
3 Feb 2020 17:00:40.000,193.600,6.573,1690.685026
3 Feb 2020 17:00:41.000,193.483,6.652,1684.604948
3 Feb 2020 17:00:42.000,193.364,6.731,1678.532514
3 Feb 2020 17:00:43.000,193.244,6.811,1672.467817
3 Feb 2020 17:00:44.000,193.123,6.891,1666.410948
3 Feb 2020 17:00:45.000,193.002,6.972,1660.362001
3 Feb 2020 17:00:46.000,192.879,7.052,1654.321069
3 Feb 2020 17:00:47.000,192.755,7.133,1648.288249
3 Feb 2020 17:00:48.000,192.631,7.215,1642.263637
3 Feb 2020 17:00:49.000,192.506,7.296,1636.247332
3 Feb 2020 17:00:50.000,192.379,7.378,1630.239433
3 Feb 2020 17:00:51.000,192.252,7.460,1624.240041
3 Feb 2020 17:00:52.000,192.123,7.543,1618.249257
3 Feb 2020 17:00:53.000,191.994,7.626,1612.267186
3 Feb 2020 17:00:54.000,191.863,7.709,1606.293932
3 Feb 2020 17:00:55.000,191.732,7.792,1600.329602
3 Feb 2020 17:00:56.000,191.599,7.876,1594.374302
3 Feb 2020 17:00:57.000,191.466,7.960,1588.428142
3 Feb 2020 17:00:58.000,191.331,8.044,1582.491233
3 Feb 2020 17:00:59.000,191.195,8.129,1576.563686
3 Feb 2020 17:01:00.000,191.058,8.214,1570.645614
3 Feb 2020 17:01:01.000,190.920,8.299,1564.737134
3 Feb 2020 17:01:02.000,190.781,8.385,1558.838360
3 Feb 2020 17:01:03.000,190.641,8.471,1552.949411
3 Feb 2020 17:01:04.000,190.499,8.557,1547.070407
3 Feb 2020 17:01:05.000,190.357,8.644,1541.201468
3 Feb 2020 17:01:06.000,190.213,8.731,1535.342718
3 Feb 2020 17:01:07.000,190.068,8.818,1529.494281
3 Feb 2020 17:01:08.000,189.922,8.906,1523.656283
3 Feb 2020 17:01:09.000,189.775,8.994,1517.828852
3 Feb 2020 17:01:10.000,189.626,9.082,1512.012116
3 Feb 2020 17:01:11.000,189.477,9.170,1506.206208
3 Feb 2020 17:01:12.000,189.326,9.259,1500.411261
3 Feb 2020 17:01:13.000,189.173,9.349,1494.627408
3 Feb 2020 17:01:14.000,189.020,9.438,1488.854788
3 Feb 2020 17:01:15.000,188.865,9.528,1483.093537
3 Feb 2020 17:01:16.000,188.709,9.618,1477.343797
3 Feb 2020 17:01:17.000,188.551,9.709,1471.605708
3 Feb 2020 17:01:18.000,188.393,9.800,1465.879416
3 Feb 2020 17:01:19.000,188.232,9.891,1460.165067
3 Feb 2020 17:01:20.000,188.071,9.983,1454.462808
3 Feb 2020 17:01:21.000,187.908,10.075,1448.772789
3 Feb 2020 17:01:22.000,187.744,10.167,1443.095162
3 Feb 2020 17:01:23.000,187.578,10.260,1437.430081
3 Feb 2020 17:01:24.000,187.411,10.353,1431.777702
3 Feb 2020 17:01:25.000,187.242,10.446,1426.138184
3 Feb 2020 17:01:26.000,187.072,10.540,1420.511686
3 Feb 2020 17:01:27.000,186.901,10.634,1414.898370
3 Feb 2020 17:01:28.000,186.728,10.729,1409.298402
3 Feb 2020 17:01:29.000,186.554,10.823,1403.711949
3 Feb 2020 17:01:30.000,186.378,10.919,1398.139178
3 Feb 2020 17:01:31.000,186.200,11.014,1392.580262
3 Feb 2020 17:01:32.000,186.021,11.110,1387.035375
3 Feb 2020 17:01:33.000,185.840,11.206,1381.504691
3 Feb 2020 17:01:34.000,185.658,11.303,1375.988389
3 Feb 2020 17:01:35.000,185.474,11.400,1370.486650
3 Feb 2020 17:01:36.000,185.289,11.497,1364.999657
3 Feb 2020 17:01:37.000,185.102,11.594,1359.527595
3 Feb 2020 17:01:38.000,184.913,11.692,1354.070653
3 Feb 2020 17:01:39.000,184.723,11.791,1348.629020
3 Feb 2020 17:01:40.000,184.531,11.889,1343.202889
3 Feb 2020 17:01:41.000,184.337,11.988,1337.792456
3 Feb 2020 17:01:42.000,184.141,12.087,1332.397920
3 Feb 2020 17:01:43.000,183.944,12.187,1327.019480
3 Feb 2020 17:01:44.000,183.745,12.287,1321.657340
3 Feb 2020 17:01:45.000,183.544,12.387,1316.311706
3 Feb 2020 17:01:46.000,183.341,12.488,1310.982786
3 Feb 2020 17:01:47.000,183.137,12.589,1305.670793
3 Feb 2020 17:01:48.000,182.931,12.691,1300.375939
3 Feb 2020 17:01:49.000,182.722,12.792,1295.098443
3 Feb 2020 17:01:50.000,182.512,12.894,1289.838523
3 Feb 2020 17:01:51.000,182.300,12.997,1284.596403
3 Feb 2020 17:01:52.000,182.086,13.099,1279.372308
3 Feb 2020 17:01:53.000,181.870,13.202,1274.166465
3 Feb 2020 17:01:54.000,181.653,13.306,1268.979107
3 Feb 2020 17:01:55.000,181.433,13.409,1263.810467
3 Feb 2020 17:01:56.000,181.211,13.513,1258.660783
3 Feb 2020 17:01:57.000,180.987,13.618,1253.530294
3 Feb 2020 17:01:58.000,180.761,13.722,1248.419244
3 Feb 2020 17:01:59.000,180.533,13.827,1243.327880
3 Feb 2020 17:02:00.000,180.303,13.932,1238.256450
3 Feb 2020 17:02:01.000,180.071,14.038,1233.205206
3 Feb 2020 17:02:02.000,179.836,14.144,1228.174405
3 Feb 2020 17:02:03.000,179.600,14.250,1223.164305
3 Feb 2020 17:02:04.000,179.361,14.356,1218.175167
3 Feb 2020 17:02:05.000,179.120,14.463,1213.207257
3 Feb 2020 17:02:06.000,178.877,14.570,1208.260842
3 Feb 2020 17:02:07.000,178.632,14.677,1203.336195
3 Feb 2020 17:02:08.000,178.384,14.785,1198.433589
3 Feb 2020 17:02:09.000,178.134,14.892,1193.553303
3 Feb 2020 17:02:10.000,177.882,15.000,1188.695617
3 Feb 2020 17:02:11.000,177.627,15.109,1183.860817
3 Feb 2020 17:02:12.000,177.370,15.217,1179.049189
3 Feb 2020 17:02:13.000,177.111,15.326,1174.261025
3 Feb 2020 17:02:14.000,176.849,15.435,1169.496619
3 Feb 2020 17:02:15.000,176.585,15.544,1164.756269
3 Feb 2020 17:02:16.000,176.318,15.653,1160.040275
3 Feb 2020 17:02:17.000,176.049,15.763,1155.348942
3 Feb 2020 17:02:18.000,175.777,15.872,1150.682578
3 Feb 2020 17:02:19.000,175.503,15.982,1146.041493
3 Feb 2020 17:02:20.000,175.226,16.092,1141.426002
3 Feb 2020 17:02:21.000,174.947,16.203,1136.836423
3 Feb 2020 17:02:22.000,174.665,16.313,1132.273076
3 Feb 2020 17:02:23.000,174.381,16.424,1127.736285
3 Feb 2020 17:02:24.000,174.094,16.534,1123.226379
3 Feb 2020 17:02:25.000,173.804,16.645,1118.743688
3 Feb 2020 17:02:26.000,173.511,16.756,1114.288546
3 Feb 2020 17:02:27.000,173.216,16.867,1109.861291
3 Feb 2020 17:02:28.000,172.918,16.978,1105.462265
3 Feb 2020 17:02:29.000,172.618,17.089,1101.091809
3 Feb 2020 17:02:30.000,172.314,17.200,1096.750273
3 Feb 2020 17:02:31.000,172.008,17.311,1092.438005
3 Feb 2020 17:02:32.000,171.699,17.422,1088.155360
3 Feb 2020 17:02:33.000,171.387,17.533,1083.902695
3 Feb 2020 17:02:34.000,171.072,17.645,1079.680368
3 Feb 2020 17:02:35.000,170.755,17.756,1075.488744
3 Feb 2020 17:02:36.000,170.434,17.867,1071.328187
3 Feb 2020 17:02:37.000,170.111,17.978,1067.199066
3 Feb 2020 17:02:38.000,169.785,18.089,1063.101754
3 Feb 2020 17:02:39.000,169.456,18.200,1059.036624
3 Feb 2020 17:02:40.000,169.123,18.311,1055.004054
3 Feb 2020 17:02:41.000,168.788,18.421,1051.004424
3 Feb 2020 17:02:42.000,168.450,18.532,1047.038116
3 Feb 2020 17:02:43.000,168.109,18.642,1043.105516
3 Feb 2020 17:02:44.000,167.764,18.752,1039.207012
3 Feb 2020 17:02:45.000,167.417,18.862,1035.342993
3 Feb 2020 17:02:46.000,167.067,18.971,1031.513853
3 Feb 2020 17:02:47.000,166.713,19.081,1027.719986
3 Feb 2020 17:02:48.000,166.357,19.190,1023.961789
3 Feb 2020 17:02:49.000,165.997,19.299,1020.239662
3 Feb 2020 17:02:50.000,165.634,19.407,1016.554005
3 Feb 2020 17:02:51.000,165.268,19.515,1012.905222
3 Feb 2020 17:02:52.000,164.899,19.623,1009.293716
3 Feb 2020 17:02:53.000,164.527,19.730,1005.719894
3 Feb 2020 17:02:54.000,164.152,19.837,1002.184165
3 Feb 2020 17:02:55.000,163.773,19.943,998.686937
3 Feb 2020 17:02:56.000,163.392,20.049,995.228622
3 Feb 2020 17:02:57.000,163.007,20.155,991.809630
3 Feb 2020 17:02:58.000,162.619,20.260,988.430374
3 Feb 2020 17:02:59.000,162.227,20.364,985.091267
3 Feb 2020 17:03:00.000,161.833,20.468,981.792724
3 Feb 2020 17:03:01.000,161.435,20.571,978.535159
3 Feb 2020 17:03:02.000,161.034,20.673,975.318987
3 Feb 2020 17:03:03.000,160.630,20.775,972.144624
3 Feb 2020 17:03:04.000,160.223,20.876,969.012483
3 Feb 2020 17:03:05.000,159.813,20.976,965.922981
3 Feb 2020 17:03:06.000,159.399,21.075,962.876532
3 Feb 2020 17:03:07.000,158.982,21.174,959.873549
3 Feb 2020 17:03:08.000,158.562,21.272,956.914447
3 Feb 2020 17:03:09.000,158.139,21.369,953.999636
3 Feb 2020 17:03:10.000,157.713,21.465,951.129529
3 Feb 2020 17:03:11.000,157.284,21.560,948.304535
3 Feb 2020 17:03:12.000,156.851,21.654,945.525063
3 Feb 2020 17:03:13.000,156.416,21.747,942.791518
3 Feb 2020 17:03:14.000,155.977,21.839,940.104306
3 Feb 2020 17:03:15.000,155.535,21.930,937.463827
3 Feb 2020 17:03:16.000,155.090,22.019,934.870483
3 Feb 2020 17:03:17.000,154.642,22.108,932.324668
3 Feb 2020 17:03:18.000,154.191,22.195,929.826777
3 Feb 2020 17:03:19.000,153.738,22.281,927.377203
3 Feb 2020 17:03:20.000,153.281,22.366,924.976331
3 Feb 2020 17:03:21.000,152.821,22.450,922.624544
3 Feb 2020 17:03:22.000,152.358,22.532,920.322224
3 Feb 2020 17:03:23.000,151.893,22.613,918.069742
3 Feb 2020 17:03:24.000,151.425,22.692,915.867474
3 Feb 2020 17:03:25.000,150.953,22.770,913.715783
3 Feb 2020 17:03:26.000,150.480,22.847,911.615032
3 Feb 2020 17:03:27.000,150.003,22.922,909.565574
3 Feb 2020 17:03:28.000,149.524,22.995,907.567762
3 Feb 2020 17:03:29.000,149.042,23.067,905.621941
3 Feb 2020 17:03:30.000,148.558,23.137,903.728446
3 Feb 2020 17:03:31.000,148.071,23.206,901.887614
3 Feb 2020 17:03:32.000,147.581,23.273,900.099768
3 Feb 2020 17:03:33.000,147.090,23.338,898.365226
3 Feb 2020 17:03:34.000,146.595,23.401,896.684303
3 Feb 2020 17:03:35.000,146.099,23.463,895.057300
3 Feb 2020 17:03:36.000,145.600,23.523,893.484518
3 Feb 2020 17:03:37.000,145.099,23.581,891.966242
3 Feb 2020 17:03:38.000,144.596,23.637,890.502757
3 Feb 2020 17:03:39.000,144.091,23.691,889.094331
3 Feb 2020 17:03:40.000,143.584,23.743,887.741234
3 Feb 2020 17:03:41.000,143.075,23.793,886.443716
3 Feb 2020 17:03:42.000,142.564,23.842,885.202028
3 Feb 2020 17:03:43.000,142.052,23.888,884.016402
3 Feb 2020 17:03:44.000,141.537,23.932,882.887070
3 Feb 2020 17:03:45.000,141.021,23.974,881.814250
3 Feb 2020 17:03:46.000,140.504,24.014,880.798147
3 Feb 2020 17:03:47.000,139.985,24.052,879.838962
3 Feb 2020 17:03:48.000,139.464,24.088,878.936884
3 Feb 2020 17:03:49.000,138.943,24.121,878.092086
3 Feb 2020 17:03:50.000,138.420,24.153,877.304738
3 Feb 2020 17:03:51.000,137.895,24.182,876.574998
3 Feb 2020 17:03:52.000,137.370,24.209,875.903007
3 Feb 2020 17:03:53.000,136.844,24.234,875.288901
3 Feb 2020 17:03:54.000,136.317,24.256,874.732804
3 Feb 2020 17:03:55.000,135.789,24.276,874.234827
3 Feb 2020 17:03:56.000,135.260,24.294,873.795073
3 Feb 2020 17:03:57.000,134.731,24.310,873.413626
3 Feb 2020 17:03:58.000,134.201,24.323,873.090566
3 Feb 2020 17:03:59.000,133.671,24.334,872.825959
3 Feb 2020 17:04:00.000,133.140,24.343,872.619858
3 Feb 2020 17:04:01.000,132.609,24.349,872.472306
3 Feb 2020 17:04:02.000,132.078,24.354,872.383334
3 Feb 2020 17:04:03.000,131.547,24.355,872.352958
3 Feb 2020 17:04:04.000,131.015,24.355,872.381187
3 Feb 2020 17:04:05.000,130.484,24.352,872.468015
3 Feb 2020 17:04:06.000,129.953,24.347,872.613424
3 Feb 2020 17:04:07.000,129.422,24.339,872.817386
3 Feb 2020 17:04:08.000,128.892,24.330,873.079860
3 Feb 2020 17:04:09.000,128.362,24.318,873.400793
3 Feb 2020 17:04:10.000,127.833,24.303,873.780121
3 Feb 2020 17:04:11.000,127.304,24.286,874.217768
3 Feb 2020 17:04:12.000,126.776,24.268,874.713644
3 Feb 2020 17:04:13.000,126.249,24.246,875.267654
3 Feb 2020 17:04:14.000,125.722,24.223,875.879686
3 Feb 2020 17:04:15.000,125.197,24.197,876.549617
3 Feb 2020 17:04:16.000,124.673,24.169,877.277316
3 Feb 2020 17:04:17.000,124.149,24.139,878.062634
3 Feb 2020 17:04:18.000,123.627,24.107,878.905423
3 Feb 2020 17:04:19.000,123.107,24.072,879.805514
3 Feb 2020 17:04:20.000,122.588,24.036,880.762728
3 Feb 2020 17:04:21.000,122.070,23.997,881.776883
3 Feb 2020 17:04:22.000,121.554,23.956,882.847781
3 Feb 2020 17:04:23.000,121.039,23.913,883.975210
3 Feb 2020 17:04:24.000,120.526,23.868,885.158961
3 Feb 2020 17:04:25.000,120.015,23.821,886.398803
3 Feb 2020 17:04:26.000,119.506,23.772,887.694497
3 Feb 2020 17:04:27.000,118.998,23.721,889.045804
3 Feb 2020 17:04:28.000,118.493,23.668,890.452463
3 Feb 2020 17:04:29.000,117.990,23.613,891.914218
3 Feb 2020 17:04:30.000,117.488,23.556,893.430791
3 Feb 2020 17:04:31.000,116.989,23.498,895.001907
3 Feb 2020 17:04:32.000,116.493,23.437,896.627273
3 Feb 2020 17:04:33.000,115.998,23.375,898.306598
3 Feb 2020 17:04:34.000,115.506,23.311,900.039573
3 Feb 2020 17:04:35.000,115.016,23.245,901.825893
3 Feb 2020 17:04:36.000,114.529,23.177,903.665234
3 Feb 2020 17:04:37.000,114.044,23.108,905.557273
3 Feb 2020 17:04:38.000,113.562,23.038,907.501684
3 Feb 2020 17:04:39.000,113.083,22.965,909.498121
3 Feb 2020 17:04:40.000,112.606,22.891,911.546244
3 Feb 2020 17:04:41.000,112.131,22.816,913.645706
3 Feb 2020 17:04:42.000,111.660,22.739,915.796146
3 Feb 2020 17:04:43.000,111.191,22.660,917.997207
3 Feb 2020 17:04:44.000,110.725,22.581,920.248523
3 Feb 2020 17:04:45.000,110.262,22.499,922.549727
3 Feb 2020 17:04:46.000,109.802,22.417,924.900439
3 Feb 2020 17:04:47.000,109.345,22.333,927.300282
3 Feb 2020 17:04:48.000,108.891,22.248,929.748873
3 Feb 2020 17:04:49.000,108.439,22.161,932.245830
3 Feb 2020 17:04:50.000,107.991,22.074,934.790755
3 Feb 2020 17:04:51.000,107.546,21.985,937.383258
3 Feb 2020 17:04:52.000,107.104,21.895,940.022944
3 Feb 2020 17:04:53.000,106.665,21.804,942.709412
3 Feb 2020 17:04:54.000,106.229,21.712,945.442262
3 Feb 2020 17:04:55.000,105.796,21.619,948.221089
3 Feb 2020 17:04:56.000,105.366,21.524,951.045488
3 Feb 2020 17:04:57.000,104.939,21.429,953.915050
3 Feb 2020 17:04:58.000,104.516,21.333,956.829367
3 Feb 2020 17:04:59.000,104.095,21.236,959.788027
3 Feb 2020 17:05:00.000,103.678,21.139,962.790619
3 Feb 2020 17:05:01.000,103.264,21.040,965.836729
3 Feb 2020 17:05:02.000,102.853,20.941,968.925945
3 Feb 2020 17:05:03.000,102.446,20.840,972.057851
3 Feb 2020 17:05:04.000,102.041,20.739,975.232033
3 Feb 2020 17:05:05.000,101.640,20.638,978.448077
3 Feb 2020 17:05:06.000,101.242,20.536,981.705566
3 Feb 2020 17:05:07.000,100.847,20.433,985.004088
3 Feb 2020 17:05:08.000,100.456,20.329,988.343226
3 Feb 2020 17:05:09.000,100.067,20.225,991.722568
3 Feb 2020 17:05:10.000,99.682,20.120,995.141701
3 Feb 2020 17:05:11.000,99.300,20.015,998.600210
3 Feb 2020 17:05:12.000,98.921,19.909,1002.097683
3 Feb 2020 17:05:13.000,98.545,19.803,1005.633715
3 Feb 2020 17:05:14.000,98.173,19.696,1009.207893
3 Feb 2020 17:05:15.000,97.803,19.589,1012.819811
3 Feb 2020 17:05:16.000,97.437,19.482,1016.469061
3 Feb 2020 17:05:17.000,97.074,19.374,1020.155236
3 Feb 2020 17:05:18.000,96.714,19.266,1023.877940
3 Feb 2020 17:05:19.000,96.357,19.158,1027.636767
3 Feb 2020 17:05:20.000,96.004,19.049,1031.431320
3 Feb 2020 17:05:21.000,95.653,18.940,1035.261198
3 Feb 2020 17:05:22.000,95.305,18.831,1039.126012
3 Feb 2020 17:05:23.000,94.961,18.721,1043.025367
3 Feb 2020 17:05:24.000,94.619,18.611,1046.958868
3 Feb 2020 17:05:25.000,94.281,18.501,1050.926136
3 Feb 2020 17:05:26.000,93.945,18.391,1054.926781
3 Feb 2020 17:05:27.000,93.613,18.281,1058.960421
3 Feb 2020 17:05:28.000,93.283,18.171,1063.026672
3 Feb 2020 17:05:29.000,92.957,18.060,1067.125163
3 Feb 2020 17:05:30.000,92.633,17.950,1071.255514
3 Feb 2020 17:05:31.000,92.313,17.839,1075.417359
3 Feb 2020 17:05:32.000,91.995,17.729,1079.610326
3 Feb 2020 17:05:33.000,91.680,17.618,1083.834045
3 Feb 2020 17:05:34.000,91.368,17.507,1088.088162
3 Feb 2020 17:05:35.000,91.059,17.397,1092.372309
3 Feb 2020 17:05:36.000,90.752,17.286,1096.686136
3 Feb 2020 17:05:37.000,90.449,17.175,1101.029286
3 Feb 2020 17:05:38.000,90.148,17.065,1105.401405
3 Feb 2020 17:05:39.000,89.850,16.954,1109.802153
3 Feb 2020 17:05:40.000,89.555,16.844,1114.231179
3 Feb 2020 17:05:41.000,89.262,16.733,1118.688149
3 Feb 2020 17:05:42.000,88.972,16.623,1123.172717
3 Feb 2020 17:05:43.000,88.685,16.513,1127.684558
3 Feb 2020 17:05:44.000,88.400,16.403,1132.223333
3 Feb 2020 17:05:45.000,88.118,16.293,1136.788721
3 Feb 2020 17:05:46.000,87.839,16.183,1141.380390
3 Feb 2020 17:05:47.000,87.562,16.073,1145.998027
3 Feb 2020 17:05:48.000,87.288,15.964,1150.641307
3 Feb 2020 17:05:49.000,87.016,15.854,1155.309919
3 Feb 2020 17:05:50.000,86.747,15.745,1160.003554
3 Feb 2020 17:05:51.000,86.480,15.636,1164.721900
3 Feb 2020 17:05:52.000,86.216,15.527,1169.464657
3 Feb 2020 17:05:53.000,85.954,15.419,1174.231518
3 Feb 2020 17:05:54.000,85.695,15.310,1179.022192
3 Feb 2020 17:05:55.000,85.438,15.202,1183.836378
3 Feb 2020 17:05:56.000,85.183,15.094,1188.673788
3 Feb 2020 17:05:57.000,84.931,14.987,1193.534137
3 Feb 2020 17:05:58.000,84.681,14.879,1198.417135
3 Feb 2020 17:05:59.000,84.433,14.772,1203.322503
3 Feb 2020 17:06:00.000,84.188,14.665,1208.249966
3 Feb 2020 17:06:01.000,83.944,14.559,1213.199244
3 Feb 2020 17:06:02.000,83.704,14.452,1218.170071
3 Feb 2020 17:06:03.000,83.465,14.346,1223.162172
3 Feb 2020 17:06:04.000,83.228,14.240,1228.175286
3 Feb 2020 17:06:05.000,82.994,14.135,1233.209154
3 Feb 2020 17:06:06.000,82.762,14.030,1238.263510
3 Feb 2020 17:06:07.000,82.532,13.925,1243.338102
3 Feb 2020 17:06:08.000,82.304,13.820,1248.432678
3 Feb 2020 17:06:09.000,82.078,13.716,1253.546991
3 Feb 2020 17:06:10.000,81.854,13.612,1258.680789
3 Feb 2020 17:06:11.000,81.632,13.508,1263.833831
3 Feb 2020 17:06:12.000,81.413,13.405,1269.005881
3 Feb 2020 17:06:13.000,81.195,13.301,1274.196695
3 Feb 2020 17:06:14.000,80.979,13.199,1279.406040
3 Feb 2020 17:06:15.000,80.765,13.096,1284.633687
3 Feb 2020 17:06:16.000,80.554,12.994,1289.879411
3 Feb 2020 17:06:17.000,80.344,12.892,1295.142977
3 Feb 2020 17:06:18.000,80.136,12.791,1300.424168
3 Feb 2020 17:06:19.000,79.929,12.690,1305.722764
3 Feb 2020 17:06:20.000,79.725,12.589,1311.038550
3 Feb 2020 17:06:21.000,79.523,12.488,1316.371307
3 Feb 2020 17:06:22.000,79.322,12.388,1321.720824
3 Feb 2020 17:06:23.000,79.123,12.288,1327.086895
3 Feb 2020 17:06:24.000,78.926,12.189,1332.469312
3 Feb 2020 17:06:25.000,78.730,12.090,1337.867876
3 Feb 2020 17:06:26.000,78.537,11.991,1343.282379
3 Feb 2020 17:06:27.000,78.345,11.893,1348.712626
3 Feb 2020 17:06:28.000,78.155,11.795,1354.158421
3 Feb 2020 17:06:29.000,77.966,11.697,1359.619572
3 Feb 2020 17:06:30.000,77.779,11.599,1365.095892
3 Feb 2020 17:06:31.000,77.594,11.502,1370.587185
3 Feb 2020 17:06:32.000,77.411,11.406,1376.093269
3 Feb 2020 17:06:33.000,77.229,11.309,1381.613961
3 Feb 2020 17:06:34.000,77.048,11.213,1387.149081
3 Feb 2020 17:06:35.000,76.870,11.118,1392.698450
3 Feb 2020 17:06:36.000,76.692,11.022,1398.261896
3 Feb 2020 17:06:37.000,76.517,10.927,1403.839237
3 Feb 2020 17:06:38.000,76.343,10.833,1409.430306
3 Feb 2020 17:06:39.000,76.170,10.739,1415.034934
3 Feb 2020 17:06:40.000,75.999,10.645,1420.652954
3 Feb 2020 17:06:41.000,75.829,10.551,1426.284201
3 Feb 2020 17:06:42.000,75.661,10.458,1431.928513
3 Feb 2020 17:06:43.000,75.494,10.365,1437.585729
3 Feb 2020 17:06:44.000,75.329,10.272,1443.255694
3 Feb 2020 17:06:45.000,75.165,10.180,1448.938246
3 Feb 2020 17:06:46.000,75.002,10.088,1454.633234
3 Feb 2020 17:06:47.000,74.841,9.997,1460.340506
3 Feb 2020 17:06:48.000,74.681,9.906,1466.059911
3 Feb 2020 17:06:49.000,74.523,9.815,1471.791302
3 Feb 2020 17:06:50.000,74.366,9.724,1477.534532
3 Feb 2020 17:06:51.000,74.210,9.634,1483.289458
3 Feb 2020 17:06:52.000,74.056,9.544,1489.055937
3 Feb 2020 17:06:53.000,73.903,9.455,1494.833829
3 Feb 2020 17:06:54.000,73.751,9.366,1500.622996
3 Feb 2020 17:06:55.000,73.600,9.277,1506.423304
3 Feb 2020 17:06:56.000,73.451,9.189,1512.234611
3 Feb 2020 17:06:57.000,73.303,9.100,1518.056788
3 Feb 2020 17:06:58.000,73.156,9.013,1523.889703
3 Feb 2020 17:06:59.000,73.010,8.925,1529.733228
3 Feb 2020 17:07:00.000,72.866,8.838,1535.587233
3 Feb 2020 17:07:01.000,72.722,8.751,1541.451594
3 Feb 2020 17:07:02.000,72.580,8.665,1547.326185
3 Feb 2020 17:07:03.000,72.439,8.578,1553.210884
3 Feb 2020 17:07:04.000,72.300,8.493,1559.105569
3 Feb 2020 17:07:05.000,72.161,8.407,1565.010120
3 Feb 2020 17:07:06.000,72.023,8.322,1570.924420
3 Feb 2020 17:07:07.000,71.887,8.237,1576.848353
3 Feb 2020 17:07:08.000,71.752,8.152,1582.781802
3 Feb 2020 17:07:09.000,71.618,8.068,1588.724655
3 Feb 2020 17:07:10.000,71.484,7.984,1594.676800
3 Feb 2020 17:07:11.000,71.352,7.901,1600.638126
3 Feb 2020 17:07:12.000,71.221,7.817,1606.608523
3 Feb 2020 17:07:13.000,71.091,7.734,1612.587885
3 Feb 2020 17:07:14.000,70.962,7.651,1618.576105
3 Feb 2020 17:07:15.000,70.835,7.569,1624.573078
3 Feb 2020 17:07:16.000,70.708,7.487,1630.578701
3 Feb 2020 17:07:17.000,70.582,7.405,1636.592871
3 Feb 2020 17:07:18.000,70.457,7.324,1642.615488
3 Feb 2020 17:07:19.000,70.333,7.242,1648.646452
3 Feb 2020 17:07:20.000,70.210,7.161,1654.685665
3 Feb 2020 17:07:21.000,70.088,7.081,1660.733029
3 Feb 2020 17:07:22.000,69.967,7.001,1666.788450
3 Feb 2020 17:07:23.000,69.847,6.921,1672.851832
3 Feb 2020 17:07:24.000,69.728,6.841,1678.923083
3 Feb 2020 17:07:25.000,69.609,6.761,1685.002110
3 Feb 2020 17:07:26.000,69.492,6.682,1691.088822
3 Feb 2020 17:07:27.000,69.375,6.603,1697.183130
3 Feb 2020 17:07:28.000,69.260,6.525,1703.284945
3 Feb 2020 17:07:29.000,69.145,6.446,1709.394179
3 Feb 2020 17:07:30.000,69.031,6.368,1715.510746
3 Feb 2020 17:07:31.000,68.919,6.291,1721.634562
3 Feb 2020 17:07:32.000,68.806,6.213,1727.765541
3 Feb 2020 17:07:33.000,68.695,6.136,1733.903601
3 Feb 2020 17:07:34.000,68.585,6.059,1740.048659
3 Feb 2020 17:07:35.000,68.475,5.982,1746.200635
3 Feb 2020 17:07:36.000,68.366,5.906,1752.359448
3 Feb 2020 17:07:37.000,68.259,5.830,1758.525020
3 Feb 2020 17:07:38.000,68.151,5.754,1764.697269
3 Feb 2020 17:07:39.000,68.045,5.678,1770.876126
3 Feb 2020 17:07:40.000,67.940,5.603,1777.061509
3 Feb 2020 17:07:41.000,67.835,5.528,1783.253345
3 Feb 2020 17:07:42.000,67.731,5.453,1789.451560
3 Feb 2020 17:07:43.000,67.628,5.378,1795.656079
3 Feb 2020 17:07:44.000,67.525,5.304,1801.866831
3 Feb 2020 17:07:45.000,67.423,5.230,1808.083744
3 Feb 2020 17:07:46.000,67.322,5.156,1814.306747
3 Feb 2020 17:07:47.000,67.222,5.083,1820.535772
3 Feb 2020 17:07:48.000,67.123,5.009,1826.770749
3 Feb 2020 17:07:49.000,67.024,4.936,1833.011610
3 Feb 2020 17:07:50.000,66.926,4.864,1839.258287
3 Feb 2020 17:07:51.000,66.828,4.791,1845.510716
3 Feb 2020 17:07:52.000,66.732,4.719,1851.768826
3 Feb 2020 17:07:53.000,66.636,4.647,1858.032560
3 Feb 2020 17:07:54.000,66.540,4.575,1864.301850
3 Feb 2020 17:07:55.000,66.446,4.503,1870.576633
3 Feb 2020 17:07:56.000,66.352,4.432,1876.856848
3 Feb 2020 17:07:57.000,66.259,4.361,1883.142431
3 Feb 2020 17:07:58.000,66.166,4.290,1889.433323
3 Feb 2020 17:07:59.000,66.074,4.219,1895.729463
3 Feb 2020 17:08:00.000,65.983,4.148,1902.030792
3 Feb 2020 17:08:01.000,65.892,4.078,1908.337251
3 Feb 2020 17:08:02.000,65.802,4.008,1914.648778
3 Feb 2020 17:08:03.000,65.712,3.938,1920.965324
3 Feb 2020 17:08:04.000,65.624,3.869,1927.286827
3 Feb 2020 17:08:05.000,65.535,3.800,1933.613232
3 Feb 2020 17:08:06.000,65.448,3.730,1939.944484
3 Feb 2020 17:08:07.000,65.361,3.662,1946.280528
3 Feb 2020 17:08:08.000,65.274,3.593,1952.621309
3 Feb 2020 17:08:09.000,65.189,3.524,1958.966775
3 Feb 2020 17:08:10.000,65.103,3.456,1965.316873
3 Feb 2020 17:08:11.000,65.019,3.388,1971.671547
3 Feb 2020 17:08:12.000,64.935,3.320,1978.030753
3 Feb 2020 17:08:13.000,64.851,3.253,1984.394435
3 Feb 2020 17:08:14.000,64.768,3.185,1990.762545
3 Feb 2020 17:08:15.000,64.686,3.118,1997.135031
3 Feb 2020 17:08:16.000,64.604,3.051,2003.511845
3 Feb 2020 17:08:17.000,64.523,2.984,2009.892938
3 Feb 2020 17:08:18.000,64.442,2.917,2016.278262
3 Feb 2020 17:08:19.000,64.362,2.851,2022.667767
3 Feb 2020 17:08:20.000,64.282,2.785,2029.061411
3 Feb 2020 17:08:21.000,64.203,2.719,2035.459146
3 Feb 2020 17:08:22.000,64.125,2.653,2041.860924
3 Feb 2020 17:08:23.000,64.047,2.587,2048.266702
3 Feb 2020 17:08:24.000,63.969,2.522,2054.676433
3 Feb 2020 17:08:25.000,63.892,2.457,2061.090074
3 Feb 2020 17:08:26.000,63.815,2.392,2067.507578
3 Feb 2020 17:08:27.000,63.739,2.327,2073.928907
3 Feb 2020 17:08:28.000,63.664,2.262,2080.354015
3 Feb 2020 17:08:29.000,63.589,2.198,2086.782861
3 Feb 2020 17:08:30.000,63.514,2.133,2093.215401
3 Feb 2020 17:08:31.000,63.440,2.069,2099.651595
3 Feb 2020 17:08:32.000,63.367,2.005,2106.091402
3 Feb 2020 17:08:33.000,63.293,1.941,2112.534778
3 Feb 2020 17:08:34.000,63.221,1.878,2118.981688
3 Feb 2020 17:08:35.000,63.148,1.814,2125.432091
3 Feb 2020 17:08:36.000,63.077,1.751,2131.885947
3 Feb 2020 17:08:37.000,63.005,1.688,2138.343218
3 Feb 2020 17:08:38.000,62.935,1.625,2144.803864
3 Feb 2020 17:08:39.000,62.864,1.563,2151.267848
3 Feb 2020 17:08:40.000,62.794,1.500,2157.735128
3 Feb 2020 17:08:41.000,62.725,1.438,2164.205676
3 Feb 2020 17:08:42.000,62.656,1.375,2170.679450
3 Feb 2020 17:08:43.000,62.587,1.313,2177.156413
3 Feb 2020 17:08:44.000,62.519,1.252,2183.636531
3 Feb 2020 17:08:45.000,62.451,1.190,2190.119768
3 Feb 2020 17:08:46.000,62.384,1.128,2196.606084
3 Feb 2020 17:08:47.000,62.317,1.067,2203.095452
3 Feb 2020 17:08:48.000,62.250,1.006,2209.587835
3 Feb 2020 17:08:49.000,62.184,0.945,2216.083197
3 Feb 2020 17:08:50.000,62.118,0.884,2222.581506
3 Feb 2020 17:08:51.000,62.053,0.823,2229.082727
3 Feb 2020 17:08:52.000,61.988,0.762,2235.586825
3 Feb 2020 17:08:53.000,61.924,0.702,2242.093774
3 Feb 2020 17:08:54.000,61.860,0.642,2248.603537
3 Feb 2020 17:08:55.000,61.796,0.582,2255.116084
3 Feb 2020 17:08:56.000,61.733,0.522,2261.631381
3 Feb 2020 17:08:57.000,61.670,0.462,2268.149399
3 Feb 2020 17:08:58.000,61.607,0.402,2274.670102
3 Feb 2020 17:08:59.000,61.545,0.343,2281.193466
3 Feb 2020 17:09:00.000,61.483,0.283,2287.719458
3 Feb 2020 17:09:01.000,61.422,0.224,2294.248048
3 Feb 2020 17:09:02.000,61.360,0.165,2300.779206
3 Feb 2020 17:09:03.000,61.300,0.106,2307.312903
3 Feb 2020 17:09:04.000,61.239,0.047,2313.849105
3 Feb 2020 17:09:05.000,61.179,-0.011,2320.387792
3 Feb 2020 17:09:06.000,61.120,-0.070,2326.928930
3 Feb 2020 17:09:06.934,61.064,-0.124,2333.039375
3 Feb 2020 18:35:13.254,251.652,-0.124,2326.034823
3 Feb 2020 18:35:14.000,251.692,-0.080,2321.102033
3 Feb 2020 18:35:15.000,251.747,-0.020,2314.493294
3 Feb 2020 18:35:16.000,251.802,0.039,2307.886282
3 Feb 2020 18:35:17.000,251.857,0.099,2301.281019
3 Feb 2020 18:35:18.000,251.912,0.159,2294.677525
3 Feb 2020 18:35:19.000,251.968,0.219,2288.075828
3 Feb 2020 18:35:20.000,252.024,0.279,2281.475950
3 Feb 2020 18:35:21.000,252.080,0.339,2274.877913
3 Feb 2020 18:35:22.000,252.137,0.400,2268.281741
3 Feb 2020 18:35:23.000,252.194,0.460,2261.687454
3 Feb 2020 18:35:24.000,252.251,0.521,2255.095084
3 Feb 2020 18:35:25.000,252.309,0.582,2248.504652
3 Feb 2020 18:35:26.000,252.367,0.643,2241.916181
3 Feb 2020 18:35:27.000,252.425,0.705,2235.329698
3 Feb 2020 18:35:28.000,252.484,0.766,2228.745223
3 Feb 2020 18:35:29.000,252.543,0.828,2222.162790
3 Feb 2020 18:35:30.000,252.602,0.890,2215.582419
3 Feb 2020 18:35:31.000,252.662,0.952,2209.004138
3 Feb 2020 18:35:32.000,252.722,1.014,2202.427973
3 Feb 2020 18:35:33.000,252.782,1.076,2195.853947
3 Feb 2020 18:35:34.000,252.843,1.139,2189.282093
3 Feb 2020 18:35:35.000,252.904,1.202,2182.712435
3 Feb 2020 18:35:36.000,252.965,1.264,2176.145000
3 Feb 2020 18:35:37.000,253.027,1.328,2169.579817
3 Feb 2020 18:35:38.000,253.089,1.391,2163.016914
3 Feb 2020 18:35:39.000,253.152,1.454,2156.456315
3 Feb 2020 18:35:40.000,253.214,1.518,2149.898055
3 Feb 2020 18:35:41.000,253.278,1.582,2143.342161
3 Feb 2020 18:35:42.000,253.341,1.646,2136.788661
3 Feb 2020 18:35:43.000,253.405,1.710,2130.237586
3 Feb 2020 18:35:44.000,253.470,1.774,2123.688961
3 Feb 2020 18:35:45.000,253.534,1.839,2117.142824
3 Feb 2020 18:35:46.000,253.600,1.904,2110.599203
3 Feb 2020 18:35:47.000,253.665,1.969,2104.058127
3 Feb 2020 18:35:48.000,253.731,2.034,2097.519629
3 Feb 2020 18:35:49.000,253.798,2.099,2090.983736
3 Feb 2020 18:35:50.000,253.864,2.165,2084.450488
3 Feb 2020 18:35:51.000,253.932,2.231,2077.919913
3 Feb 2020 18:35:52.000,253.999,2.297,2071.392045
3 Feb 2020 18:35:53.000,254.067,2.363,2064.866916
3 Feb 2020 18:35:54.000,254.136,2.429,2058.344559
3 Feb 2020 18:35:55.000,254.204,2.496,2051.825006
3 Feb 2020 18:35:56.000,254.274,2.563,2045.308298
3 Feb 2020 18:35:57.000,254.344,2.630,2038.794465
3 Feb 2020 18:35:58.000,254.414,2.697,2032.283544
3 Feb 2020 18:35:59.000,254.484,2.764,2025.775569
3 Feb 2020 18:36:00.000,254.555,2.832,2019.270576
3 Feb 2020 18:36:01.000,254.627,2.900,2012.768598
3 Feb 2020 18:36:02.000,254.699,2.968,2006.269680
3 Feb 2020 18:36:03.000,254.771,3.037,1999.773854
3 Feb 2020 18:36:04.000,254.844,3.105,1993.281158
3 Feb 2020 18:36:05.000,254.918,3.174,1986.791632
3 Feb 2020 18:36:06.000,254.992,3.243,1980.305312
3 Feb 2020 18:36:07.000,255.066,3.312,1973.822235
3 Feb 2020 18:36:08.000,255.141,3.382,1967.342447
3 Feb 2020 18:36:09.000,255.216,3.452,1960.865984
3 Feb 2020 18:36:10.000,255.292,3.521,1954.392888
3 Feb 2020 18:36:11.000,255.368,3.592,1947.923199
3 Feb 2020 18:36:12.000,255.445,3.662,1941.456958
3 Feb 2020 18:36:13.000,255.522,3.733,1934.994204
3 Feb 2020 18:36:14.000,255.600,3.804,1928.534987
3 Feb 2020 18:36:15.000,255.678,3.875,1922.079345
3 Feb 2020 18:36:16.000,255.757,3.947,1915.627323
3 Feb 2020 18:36:17.000,255.837,4.018,1909.178965
3 Feb 2020 18:36:18.000,255.917,4.090,1902.734314
3 Feb 2020 18:36:19.000,255.997,4.162,1896.293417
3 Feb 2020 18:36:20.000,256.078,4.235,1889.856315
3 Feb 2020 18:36:21.000,256.160,4.308,1883.423062
3 Feb 2020 18:36:22.000,256.242,4.381,1876.993702
3 Feb 2020 18:36:23.000,256.325,4.454,1870.568281
3 Feb 2020 18:36:24.000,256.408,4.527,1864.146847
3 Feb 2020 18:36:25.000,256.492,4.601,1857.729451
3 Feb 2020 18:36:26.000,256.576,4.675,1851.316139
3 Feb 2020 18:36:27.000,256.661,4.750,1844.906960
3 Feb 2020 18:36:28.000,256.747,4.824,1838.501971
3 Feb 2020 18:36:29.000,256.833,4.899,1832.101218
3 Feb 2020 18:36:30.000,256.920,4.974,1825.704756
3 Feb 2020 18:36:31.000,257.008,5.050,1819.312634
3 Feb 2020 18:36:32.000,257.096,5.125,1812.924908
3 Feb 2020 18:36:33.000,257.184,5.202,1806.541631
3 Feb 2020 18:36:34.000,257.274,5.278,1800.162854
3 Feb 2020 18:36:35.000,257.364,5.354,1793.788638
3 Feb 2020 18:36:36.000,257.454,5.431,1787.419038
3 Feb 2020 18:36:37.000,257.546,5.509,1781.054109
3 Feb 2020 18:36:38.000,257.638,5.586,1774.693910
3 Feb 2020 18:36:39.000,257.730,5.664,1768.338497
3 Feb 2020 18:36:40.000,257.823,5.742,1761.987931
3 Feb 2020 18:36:41.000,257.917,5.820,1755.642271
3 Feb 2020 18:36:42.000,258.012,5.899,1749.301575
3 Feb 2020 18:36:43.000,258.107,5.978,1742.965910
3 Feb 2020 18:36:44.000,258.204,6.058,1736.635336
3 Feb 2020 18:36:45.000,258.300,6.137,1730.309915
3 Feb 2020 18:36:46.000,258.398,6.217,1723.989711
3 Feb 2020 18:36:47.000,258.496,6.298,1717.674790
3 Feb 2020 18:36:48.000,258.595,6.378,1711.365216
3 Feb 2020 18:36:49.000,258.695,6.459,1705.061057
3 Feb 2020 18:36:50.000,258.795,6.541,1698.762380
3 Feb 2020 18:36:51.000,258.896,6.622,1692.469253
3 Feb 2020 18:36:52.000,258.998,6.704,1686.181742
3 Feb 2020 18:36:53.000,259.101,6.787,1679.899924
3 Feb 2020 18:36:54.000,259.205,6.869,1673.623867
3 Feb 2020 18:36:55.000,259.309,6.952,1667.353643
3 Feb 2020 18:36:56.000,259.414,7.036,1661.089325
3 Feb 2020 18:36:57.000,259.520,7.119,1654.830988
3 Feb 2020 18:36:58.000,259.627,7.203,1648.578706
3 Feb 2020 18:36:59.000,259.735,7.288,1642.332556
3 Feb 2020 18:37:00.000,259.843,7.373,1636.092615
3 Feb 2020 18:37:01.000,259.953,7.458,1629.858962
3 Feb 2020 18:37:02.000,260.063,7.543,1623.631676
3 Feb 2020 18:37:03.000,260.174,7.629,1617.410834
3 Feb 2020 18:37:04.000,260.286,7.715,1611.196525
3 Feb 2020 18:37:05.000,260.399,7.802,1604.988828
3 Feb 2020 18:37:06.000,260.512,7.889,1598.787828
3 Feb 2020 18:37:07.000,260.627,7.976,1592.593609
3 Feb 2020 18:37:08.000,260.743,8.064,1586.406258
3 Feb 2020 18:37:09.000,260.859,8.152,1580.225862
3 Feb 2020 18:37:10.000,260.977,8.241,1574.052511
3 Feb 2020 18:37:11.000,261.095,8.330,1567.886295
3 Feb 2020 18:37:12.000,261.214,8.419,1561.727305
3 Feb 2020 18:37:13.000,261.335,8.509,1555.575635
3 Feb 2020 18:37:14.000,261.456,8.599,1549.431377
3 Feb 2020 18:37:15.000,261.579,8.690,1543.294628
3 Feb 2020 18:37:16.000,261.702,8.781,1537.165485
3 Feb 2020 18:37:17.000,261.826,8.872,1531.044045
3 Feb 2020 18:37:18.000,261.952,8.964,1524.930409
3 Feb 2020 18:37:19.000,262.078,9.056,1518.824677
3 Feb 2020 18:37:20.000,262.206,9.149,1512.726953
3 Feb 2020 18:37:21.000,262.335,9.242,1506.637339
3 Feb 2020 18:37:22.000,262.464,9.335,1500.555940
3 Feb 2020 18:37:23.000,262.595,9.429,1494.482867
3 Feb 2020 18:37:24.000,262.727,9.523,1488.418228
3 Feb 2020 18:37:25.000,262.860,9.618,1482.362132
3 Feb 2020 18:37:26.000,262.995,9.713,1476.314691
3 Feb 2020 18:37:27.000,263.130,9.809,1470.276018
3 Feb 2020 18:37:28.000,263.267,9.905,1464.246230
3 Feb 2020 18:37:29.000,263.404,10.002,1458.225442
3 Feb 2020 18:37:30.000,263.543,10.099,1452.213775
3 Feb 2020 18:37:31.000,263.684,10.196,1446.211347
3 Feb 2020 18:37:32.000,263.825,10.294,1440.218282
3 Feb 2020 18:37:33.000,263.968,10.393,1434.234704
3 Feb 2020 18:37:34.000,264.112,10.491,1428.260738
3 Feb 2020 18:37:35.000,264.257,10.591,1422.296513
3 Feb 2020 18:37:36.000,264.403,10.691,1416.342157
3 Feb 2020 18:37:37.000,264.551,10.791,1410.397804
3 Feb 2020 18:37:38.000,264.700,10.892,1404.463586
3 Feb 2020 18:37:39.000,264.851,10.993,1398.539639
3 Feb 2020 18:37:40.000,265.003,11.095,1392.626101
3 Feb 2020 18:37:41.000,265.156,11.197,1386.723112
3 Feb 2020 18:37:42.000,265.311,11.300,1380.830817
3 Feb 2020 18:37:43.000,265.467,11.403,1374.949353
3 Feb 2020 18:37:44.000,265.624,11.507,1369.078870
3 Feb 2020 18:37:45.000,265.783,11.611,1363.219517
3 Feb 2020 18:37:46.000,265.943,11.716,1357.371443
3 Feb 2020 18:37:47.000,266.105,11.821,1351.534802
3 Feb 2020 18:37:48.000,266.269,11.927,1345.709750
3 Feb 2020 18:37:49.000,266.434,12.033,1339.896443
3 Feb 2020 18:37:50.000,266.600,12.140,1334.095042
3 Feb 2020 18:37:51.000,266.768,12.247,1328.305710
3 Feb 2020 18:37:52.000,266.938,12.355,1322.528611
3 Feb 2020 18:37:53.000,267.109,12.463,1316.763913
3 Feb 2020 18:37:54.000,267.282,12.572,1311.011786
3 Feb 2020 18:37:55.000,267.456,12.681,1305.272403
3 Feb 2020 18:37:56.000,267.632,12.791,1299.545938
3 Feb 2020 18:37:57.000,267.810,12.902,1293.832570
3 Feb 2020 18:37:58.000,267.990,13.013,1288.132482
3 Feb 2020 18:37:59.000,268.171,13.124,1282.445852
3 Feb 2020 18:38:00.000,268.354,13.236,1276.772869
3 Feb 2020 18:38:01.000,268.539,13.349,1271.113722
3 Feb 2020 18:38:02.000,268.725,13.462,1265.468602
3 Feb 2020 18:38:03.000,268.914,13.576,1259.837705
3 Feb 2020 18:38:04.000,269.104,13.690,1254.221229
3 Feb 2020 18:38:05.000,269.296,13.805,1248.619374
3 Feb 2020 18:38:06.000,269.490,13.920,1243.032344
3 Feb 2020 18:38:07.000,269.686,14.036,1237.460350
3 Feb 2020 18:38:08.000,269.884,14.153,1231.903595
3 Feb 2020 18:38:09.000,270.084,14.270,1226.362295
3 Feb 2020 18:38:10.000,270.286,14.387,1220.836668
3 Feb 2020 18:38:11.000,270.490,14.506,1215.326933
3 Feb 2020 18:38:12.000,270.696,14.624,1209.833314
3 Feb 2020 18:38:13.000,270.904,14.744,1204.356040
3 Feb 2020 18:38:14.000,271.114,14.863,1198.895335
3 Feb 2020 18:38:15.000,271.326,14.984,1193.451436
3 Feb 2020 18:38:16.000,271.541,15.105,1188.024579
3 Feb 2020 18:38:17.000,271.757,15.226,1182.615005
3 Feb 2020 18:38:18.000,271.976,15.348,1177.222963
3 Feb 2020 18:38:19.000,272.197,15.471,1171.848693
3 Feb 2020 18:38:20.000,272.420,15.594,1166.492449
3 Feb 2020 18:38:21.000,272.646,15.718,1161.154488
3 Feb 2020 18:38:22.000,272.874,15.842,1155.835069
3 Feb 2020 18:38:23.000,273.104,15.967,1150.534458
3 Feb 2020 18:38:24.000,273.337,16.092,1145.252914
3 Feb 2020 18:38:25.000,273.572,16.218,1139.990714
3 Feb 2020 18:38:26.000,273.810,16.345,1134.748130
3 Feb 2020 18:38:27.000,274.050,16.472,1129.525447
3 Feb 2020 18:38:28.000,274.293,16.599,1124.322939
3 Feb 2020 18:38:29.000,274.538,16.727,1119.140897
3 Feb 2020 18:38:30.000,274.785,16.856,1113.979614
3 Feb 2020 18:38:31.000,275.036,16.985,1108.839386
3 Feb 2020 18:38:32.000,275.289,17.115,1103.720509
3 Feb 2020 18:38:33.000,275.544,17.245,1098.623288
3 Feb 2020 18:38:34.000,275.803,17.376,1093.548036
3 Feb 2020 18:38:35.000,276.064,17.507,1088.495059
3 Feb 2020 18:38:36.000,276.328,17.639,1083.464678
3 Feb 2020 18:38:37.000,276.595,17.771,1078.457213
3 Feb 2020 18:38:38.000,276.864,17.904,1073.472995
3 Feb 2020 18:38:39.000,277.137,18.037,1068.512348
3 Feb 2020 18:38:40.000,277.412,18.171,1063.575614
3 Feb 2020 18:38:41.000,277.691,18.305,1058.663125
3 Feb 2020 18:38:42.000,277.972,18.440,1053.775229
3 Feb 2020 18:38:43.000,278.256,18.575,1048.912280
3 Feb 2020 18:38:44.000,278.544,18.710,1044.074624
3 Feb 2020 18:38:45.000,278.834,18.846,1039.262623
3 Feb 2020 18:38:46.000,279.128,18.983,1034.476643
3 Feb 2020 18:38:47.000,279.425,19.119,1029.717046
3 Feb 2020 18:38:48.000,279.725,19.256,1024.984211
3 Feb 2020 18:38:49.000,280.029,19.394,1020.278509
3 Feb 2020 18:38:50.000,280.335,19.532,1015.600326
3 Feb 2020 18:38:51.000,280.645,19.670,1010.950052
3 Feb 2020 18:38:52.000,280.959,19.809,1006.328072
3 Feb 2020 18:38:53.000,281.276,19.948,1001.734790
3 Feb 2020 18:38:54.000,281.596,20.087,997.170600
3 Feb 2020 18:38:55.000,281.919,20.227,992.635915
3 Feb 2020 18:38:56.000,282.247,20.367,988.131140
3 Feb 2020 18:38:57.000,282.577,20.507,983.656697
3 Feb 2020 18:38:58.000,282.912,20.647,979.213000
3 Feb 2020 18:38:59.000,283.250,20.788,974.800480
3 Feb 2020 18:39:00.000,283.592,20.928,970.419562
3 Feb 2020 18:39:01.000,283.937,21.069,966.070687
3 Feb 2020 18:39:02.000,284.286,21.211,961.754286
3 Feb 2020 18:39:03.000,284.639,21.352,957.470811
3 Feb 2020 18:39:04.000,284.996,21.493,953.220706
3 Feb 2020 18:39:05.000,285.356,21.635,949.004422
3 Feb 2020 18:39:06.000,285.721,21.776,944.822422
3 Feb 2020 18:39:07.000,286.089,21.918,940.675160
3 Feb 2020 18:39:08.000,286.462,22.059,936.563110
3 Feb 2020 18:39:09.000,286.838,22.201,932.486739
3 Feb 2020 18:39:10.000,287.218,22.342,928.446517
3 Feb 2020 18:39:11.000,287.603,22.483,924.442929
3 Feb 2020 18:39:12.000,287.991,22.625,920.476454
3 Feb 2020 18:39:13.000,288.384,22.766,916.547574
3 Feb 2020 18:39:14.000,288.781,22.907,912.656787
3 Feb 2020 18:39:15.000,289.182,23.047,908.804581
3 Feb 2020 18:39:16.000,289.587,23.188,904.991451
3 Feb 2020 18:39:17.000,289.997,23.328,901.217902
3 Feb 2020 18:39:18.000,290.410,23.468,897.484436
3 Feb 2020 18:39:19.000,290.828,23.607,893.791557
3 Feb 2020 18:39:20.000,291.251,23.746,890.139772
3 Feb 2020 18:39:21.000,291.677,23.885,886.529598
3 Feb 2020 18:39:22.000,292.109,24.023,882.961548
3 Feb 2020 18:39:23.000,292.544,24.160,879.436136
3 Feb 2020 18:39:24.000,292.984,24.297,875.953881
3 Feb 2020 18:39:25.000,293.428,24.434,872.515304
3 Feb 2020 18:39:26.000,293.877,24.569,869.120923
3 Feb 2020 18:39:27.000,294.330,24.704,865.771269
3 Feb 2020 18:39:28.000,294.787,24.839,862.466861
3 Feb 2020 18:39:29.000,295.249,24.972,859.208226
3 Feb 2020 18:39:30.000,295.716,25.104,855.995891
3 Feb 2020 18:39:31.000,296.187,25.236,852.830380
3 Feb 2020 18:39:32.000,296.663,25.366,849.712221
3 Feb 2020 18:39:33.000,297.142,25.496,846.641939
3 Feb 2020 18:39:34.000,297.627,25.624,843.620062
3 Feb 2020 18:39:35.000,298.116,25.752,840.647113
3 Feb 2020 18:39:36.000,298.609,25.878,837.723616
3 Feb 2020 18:39:37.000,299.107,26.003,834.850095
3 Feb 2020 18:39:38.000,299.609,26.126,832.027069
3 Feb 2020 18:39:39.000,300.116,26.248,829.255057
3 Feb 2020 18:39:40.000,300.627,26.369,826.534575
3 Feb 2020 18:39:41.000,301.143,26.488,823.866136
3 Feb 2020 18:39:42.000,301.663,26.606,821.250250
3 Feb 2020 18:39:43.000,302.187,26.722,818.687423
3 Feb 2020 18:39:44.000,302.715,26.837,816.178160
3 Feb 2020 18:39:45.000,303.248,26.949,813.722954
3 Feb 2020 18:39:46.000,303.785,27.060,811.322300
3 Feb 2020 18:39:47.000,304.326,27.169,808.976686
3 Feb 2020 18:39:48.000,304.872,27.276,806.686594
3 Feb 2020 18:39:49.000,305.421,27.381,804.452505
3 Feb 2020 18:39:50.000,305.975,27.484,802.274881
3 Feb 2020 18:39:51.000,306.532,27.585,800.154189
3 Feb 2020 18:39:52.000,307.094,27.684,798.090884
3 Feb 2020 18:39:53.000,307.659,27.781,796.085417
3 Feb 2020 18:39:54.000,308.228,27.875,794.138223
3 Feb 2020 18:39:55.000,308.801,27.967,792.249739
3 Feb 2020 18:39:56.000,309.377,28.056,790.420381
3 Feb 2020 18:39:57.000,309.957,28.143,788.650565
3 Feb 2020 18:39:58.000,310.541,28.228,786.940697
3 Feb 2020 18:39:59.000,311.128,28.310,785.291165
3 Feb 2020 18:40:00.000,311.718,28.389,783.702356
3 Feb 2020 18:40:01.000,312.311,28.465,782.174637
3 Feb 2020 18:40:02.000,312.908,28.539,780.708371
3 Feb 2020 18:40:03.000,313.507,28.610,779.303904
3 Feb 2020 18:40:04.000,314.109,28.678,777.961574
3 Feb 2020 18:40:05.000,314.715,28.743,776.681700
3 Feb 2020 18:40:06.000,315.323,28.805,775.464598
3 Feb 2020 18:40:07.000,315.933,28.865,774.310559
3 Feb 2020 18:40:08.000,316.546,28.921,773.219871
3 Feb 2020 18:40:09.000,317.161,28.974,772.192801
3 Feb 2020 18:40:10.000,317.778,29.024,771.229601
3 Feb 2020 18:40:11.000,318.398,29.071,770.330517
3 Feb 2020 18:40:12.000,319.019,29.114,769.495770
3 Feb 2020 18:40:13.000,319.642,29.155,768.725569
3 Feb 2020 18:40:14.000,320.267,29.192,768.020112
3 Feb 2020 18:40:15.000,320.894,29.225,767.379577
3 Feb 2020 18:40:16.000,321.521,29.256,766.804125
3 Feb 2020 18:40:17.000,322.150,29.283,766.293905
3 Feb 2020 18:40:18.000,322.780,29.306,765.849043
3 Feb 2020 18:40:19.000,323.411,29.327,765.469658
3 Feb 2020 18:40:20.000,324.043,29.343,765.155845
3 Feb 2020 18:40:21.000,324.675,29.357,764.907685
3 Feb 2020 18:40:22.000,325.308,29.367,764.725241
3 Feb 2020 18:40:23.000,325.942,29.373,764.608559
3 Feb 2020 18:40:24.000,326.575,29.376,764.557671
3 Feb 2020 18:40:25.000,327.209,29.376,764.572587
3 Feb 2020 18:40:26.000,327.842,29.372,764.653303
3 Feb 2020 18:40:27.000,328.475,29.365,764.799799
3 Feb 2020 18:40:28.000,329.108,29.354,765.012035
3 Feb 2020 18:40:29.000,329.740,29.340,765.289956
3 Feb 2020 18:40:30.000,330.372,29.322,765.633489
3 Feb 2020 18:40:31.000,331.002,29.301,766.042546
3 Feb 2020 18:40:32.000,331.632,29.277,766.517021
3 Feb 2020 18:40:33.000,332.261,29.249,767.056789
3 Feb 2020 18:40:34.000,332.888,29.218,767.661712
3 Feb 2020 18:40:35.000,333.514,29.184,768.331637
3 Feb 2020 18:40:36.000,334.138,29.146,769.066390
3 Feb 2020 18:40:37.000,334.760,29.105,769.865786
3 Feb 2020 18:40:38.000,335.381,29.061,770.729621
3 Feb 2020 18:40:39.000,336.000,29.013,771.657677
3 Feb 2020 18:40:40.000,336.616,28.963,772.649721
3 Feb 2020 18:40:41.000,337.230,28.909,773.705506
3 Feb 2020 18:40:42.000,337.842,28.852,774.824769
3 Feb 2020 18:40:43.000,338.452,28.792,776.007233
3 Feb 2020 18:40:44.000,339.059,28.730,777.252608
3 Feb 2020 18:40:45.000,339.663,28.664,778.560589
3 Feb 2020 18:40:46.000,340.264,28.595,779.930861
3 Feb 2020 18:40:47.000,340.862,28.524,781.363092
3 Feb 2020 18:40:48.000,341.458,28.450,782.856942
3 Feb 2020 18:40:49.000,342.050,28.372,784.412054
3 Feb 2020 18:40:50.000,342.639,28.293,786.028064
3 Feb 2020 18:40:51.000,343.224,28.210,787.704592
3 Feb 2020 18:40:52.000,343.806,28.126,789.441254
3 Feb 2020 18:40:53.000,344.385,28.038,791.237648
3 Feb 2020 18:40:54.000,344.960,27.948,793.093366
3 Feb 2020 18:40:55.000,345.531,27.856,795.007992
3 Feb 2020 18:40:56.000,346.099,27.761,796.981095
3 Feb 2020 18:40:57.000,346.663,27.665,799.012242
3 Feb 2020 18:40:58.000,347.223,27.566,801.100987
3 Feb 2020 18:40:59.000,347.779,27.464,803.246878
3 Feb 2020 18:41:00.000,348.331,27.361,805.449456
3 Feb 2020 18:41:01.000,348.878,27.256,807.708253
3 Feb 2020 18:41:02.000,349.422,27.148,810.022795
3 Feb 2020 18:41:03.000,349.962,27.039,812.392604
3 Feb 2020 18:41:04.000,350.497,26.928,814.817192
3 Feb 2020 18:41:05.000,351.028,26.815,817.296071
3 Feb 2020 18:41:06.000,351.555,26.701,819.828743
3 Feb 2020 18:41:07.000,352.078,26.585,822.414708
3 Feb 2020 18:41:08.000,352.596,26.467,825.053461
3 Feb 2020 18:41:09.000,353.110,26.348,827.744495
3 Feb 2020 18:41:10.000,353.619,26.227,830.487295
3 Feb 2020 18:41:11.000,354.125,26.105,833.281349
3 Feb 2020 18:41:12.000,354.625,25.981,836.126139
3 Feb 2020 18:41:13.000,355.121,25.856,839.021143
3 Feb 2020 18:41:14.000,355.613,25.730,841.965841
3 Feb 2020 18:41:15.000,356.100,25.603,844.959709
3 Feb 2020 18:41:16.000,356.583,25.475,848.002222
3 Feb 2020 18:41:17.000,357.061,25.345,851.092855
3 Feb 2020 18:41:18.000,357.535,25.215,854.231080
3 Feb 2020 18:41:19.000,358.004,25.083,857.416370
3 Feb 2020 18:41:20.000,358.469,24.951,860.648201
3 Feb 2020 18:41:21.000,358.930,24.818,863.926043
3 Feb 2020 18:41:22.000,359.386,24.684,867.249372
3 Feb 2020 18:41:23.000,359.837,24.549,870.617662
3 Feb 2020 18:41:24.000,0.284,24.414,874.030389
3 Feb 2020 18:41:25.000,0.727,24.278,877.487029
3 Feb 2020 18:41:26.000,1.165,24.141,880.987062
3 Feb 2020 18:41:27.000,1.599,24.004,884.529968
3 Feb 2020 18:41:28.000,2.028,23.866,888.115228
3 Feb 2020 18:41:29.000,2.453,23.728,891.742328
3 Feb 2020 18:41:30.000,2.874,23.589,895.410753
3 Feb 2020 18:41:31.000,3.290,23.450,899.119994
3 Feb 2020 18:41:32.000,3.703,23.310,902.869543
3 Feb 2020 18:41:33.000,4.111,23.170,906.658894
3 Feb 2020 18:41:34.000,4.514,23.030,910.487545
3 Feb 2020 18:41:35.000,4.914,22.890,914.354999
3 Feb 2020 18:41:36.000,5.309,22.749,918.260759
3 Feb 2020 18:41:37.000,5.700,22.609,922.204334
3 Feb 2020 18:41:38.000,6.087,22.468,926.185235
3 Feb 2020 18:41:39.000,6.470,22.327,930.202979
3 Feb 2020 18:41:40.000,6.849,22.186,934.257085
3 Feb 2020 18:41:41.000,7.224,22.045,938.347076
3 Feb 2020 18:41:42.000,7.595,21.904,942.472479
3 Feb 2020 18:41:43.000,7.962,21.763,946.632828
3 Feb 2020 18:41:44.000,8.325,21.622,950.827656
3 Feb 2020 18:41:45.000,8.685,21.481,955.056505
3 Feb 2020 18:41:46.000,9.040,21.340,959.318920
3 Feb 2020 18:41:47.000,9.392,21.199,963.614449
3 Feb 2020 18:41:48.000,9.739,21.058,967.942646
3 Feb 2020 18:41:49.000,10.084,20.918,972.303069
3 Feb 2020 18:41:50.000,10.424,20.777,976.695282
3 Feb 2020 18:41:51.000,10.761,20.637,981.118851
3 Feb 2020 18:41:52.000,11.094,20.497,985.573348
3 Feb 2020 18:41:53.000,11.423,20.358,990.058352
3 Feb 2020 18:41:54.000,11.750,20.219,994.573442
3 Feb 2020 18:41:55.000,12.072,20.079,999.118206
3 Feb 2020 18:41:56.000,12.391,19.941,1003.692234
3 Feb 2020 18:41:57.000,12.707,19.802,1008.295123
3 Feb 2020 18:41:58.000,13.019,19.664,1012.926473
3 Feb 2020 18:41:59.000,13.328,19.526,1017.585890
3 Feb 2020 18:42:00.000,13.634,19.389,1022.272984
3 Feb 2020 18:42:01.000,13.936,19.252,1026.987370
3 Feb 2020 18:42:02.000,14.235,19.115,1031.728669
3 Feb 2020 18:42:03.000,14.531,18.979,1036.496504
3 Feb 2020 18:42:04.000,14.824,18.843,1041.290506
3 Feb 2020 18:42:05.000,15.113,18.708,1046.110307
3 Feb 2020 18:42:06.000,15.400,18.572,1050.955549
3 Feb 2020 18:42:07.000,15.683,18.438,1055.825874
3 Feb 2020 18:42:08.000,15.963,18.304,1060.720929
3 Feb 2020 18:42:09.000,16.241,18.170,1065.640370
3 Feb 2020 18:42:10.000,16.515,18.037,1070.583853
3 Feb 2020 18:42:11.000,16.787,17.904,1075.551040
3 Feb 2020 18:42:12.000,17.056,17.772,1080.541598
3 Feb 2020 18:42:13.000,17.322,17.640,1085.555200
3 Feb 2020 18:42:14.000,17.585,17.509,1090.591519
3 Feb 2020 18:42:15.000,17.845,17.378,1095.650238
3 Feb 2020 18:42:16.000,18.103,17.248,1100.731042
3 Feb 2020 18:42:17.000,18.358,17.118,1105.833617
3 Feb 2020 18:42:18.000,18.610,16.989,1110.957660
3 Feb 2020 18:42:19.000,18.859,16.861,1116.102868
3 Feb 2020 18:42:20.000,19.106,16.732,1121.268942
3 Feb 2020 18:42:21.000,19.351,16.605,1126.455589
3 Feb 2020 18:42:22.000,19.593,16.478,1131.662521
3 Feb 2020 18:42:23.000,19.832,16.351,1136.889452
3 Feb 2020 18:42:24.000,20.069,16.225,1142.136100
3 Feb 2020 18:42:25.000,20.303,16.100,1147.402189
3 Feb 2020 18:42:26.000,20.536,15.975,1152.687445
3 Feb 2020 18:42:27.000,20.765,15.851,1157.991602
3 Feb 2020 18:42:28.000,20.993,15.727,1163.314391
3 Feb 2020 18:42:29.000,21.218,15.604,1168.655552
3 Feb 2020 18:42:30.000,21.440,15.481,1174.014828
3 Feb 2020 18:42:31.000,21.661,15.359,1179.391967
3 Feb 2020 18:42:32.000,21.879,15.237,1184.786716
3 Feb 2020 18:42:33.000,22.095,15.116,1190.198830
3 Feb 2020 18:42:34.000,22.309,14.996,1195.628067
3 Feb 2020 18:42:35.000,22.521,14.876,1201.074188
3 Feb 2020 18:42:36.000,22.730,14.757,1206.536959
3 Feb 2020 18:42:37.000,22.938,14.638,1212.016146
3 Feb 2020 18:42:38.000,23.143,14.519,1217.511520
3 Feb 2020 18:42:39.000,23.347,14.402,1223.022858
3 Feb 2020 18:42:40.000,23.548,14.285,1228.549937
3 Feb 2020 18:42:41.000,23.748,14.168,1234.092540
3 Feb 2020 18:42:42.000,23.945,14.052,1239.650452
3 Feb 2020 18:42:43.000,24.141,13.937,1245.223459
3 Feb 2020 18:42:44.000,24.335,13.822,1250.811354
3 Feb 2020 18:42:45.000,24.526,13.707,1256.413931
3 Feb 2020 18:42:46.000,24.716,13.594,1262.030988
3 Feb 2020 18:42:47.000,24.904,13.480,1267.662325
3 Feb 2020 18:42:48.000,25.091,13.368,1273.307745
3 Feb 2020 18:42:49.000,25.275,13.255,1278.967057
3 Feb 2020 18:42:50.000,25.458,13.144,1284.640069
3 Feb 2020 18:42:51.000,25.639,13.033,1290.326593
3 Feb 2020 18:42:52.000,25.818,12.922,1296.026443
3 Feb 2020 18:42:53.000,25.995,12.812,1301.739439
3 Feb 2020 18:42:54.000,26.171,12.702,1307.465401
3 Feb 2020 18:42:55.000,26.346,12.594,1313.204152
3 Feb 2020 18:42:56.000,26.518,12.485,1318.955519
3 Feb 2020 18:42:57.000,26.689,12.377,1324.719329
3 Feb 2020 18:42:58.000,26.858,12.270,1330.495415
3 Feb 2020 18:42:59.000,27.026,12.163,1336.283609
3 Feb 2020 18:43:00.000,27.193,12.056,1342.083749
3 Feb 2020 18:43:01.000,27.357,11.951,1347.895672
3 Feb 2020 18:43:02.000,27.520,11.845,1353.719220
3 Feb 2020 18:43:03.000,27.682,11.740,1359.554239
3 Feb 2020 18:43:04.000,27.842,11.636,1365.400569
3 Feb 2020 18:43:05.000,28.001,11.532,1371.258062
3 Feb 2020 18:43:06.000,28.159,11.429,1377.126568
3 Feb 2020 18:43:07.000,28.314,11.326,1383.005939
3 Feb 2020 18:43:08.000,28.469,11.224,1388.896030
3 Feb 2020 18:43:09.000,28.622,11.122,1394.796699
3 Feb 2020 18:43:10.000,28.774,11.021,1400.707803
3 Feb 2020 18:43:11.000,28.924,10.920,1406.629205
3 Feb 2020 18:43:12.000,29.073,10.819,1412.560768
3 Feb 2020 18:43:13.000,29.221,10.719,1418.502357
3 Feb 2020 18:43:14.000,29.367,10.620,1424.453839
3 Feb 2020 18:43:15.000,29.513,10.521,1430.415084
3 Feb 2020 18:43:16.000,29.657,10.422,1436.385962
3 Feb 2020 18:43:17.000,29.799,10.324,1442.366347
3 Feb 2020 18:43:18.000,29.941,10.227,1448.356114
3 Feb 2020 18:43:19.000,30.081,10.130,1454.355139
3 Feb 2020 18:43:20.000,30.220,10.033,1460.363301
3 Feb 2020 18:43:21.000,30.357,9.937,1466.380481
3 Feb 2020 18:43:22.000,30.494,9.841,1472.406561
3 Feb 2020 18:43:23.000,30.630,9.746,1478.441423
3 Feb 2020 18:43:24.000,30.764,9.651,1484.484955
3 Feb 2020 18:43:25.000,30.897,9.556,1490.537043
3 Feb 2020 18:43:26.000,31.029,9.462,1496.597575
3 Feb 2020 18:43:27.000,31.160,9.369,1502.666443
3 Feb 2020 18:43:28.000,31.290,9.276,1508.743539
3 Feb 2020 18:43:29.000,31.418,9.183,1514.828755
3 Feb 2020 18:43:30.000,31.546,9.091,1520.921988
3 Feb 2020 18:43:31.000,31.673,8.999,1527.023133
3 Feb 2020 18:43:32.000,31.798,8.907,1533.132089
3 Feb 2020 18:43:33.000,31.923,8.816,1539.248756
3 Feb 2020 18:43:34.000,32.046,8.726,1545.373034
3 Feb 2020 18:43:35.000,32.169,8.635,1551.504826
3 Feb 2020 18:43:36.000,32.290,8.546,1557.644035
3 Feb 2020 18:43:37.000,32.411,8.456,1563.790566
3 Feb 2020 18:43:38.000,32.530,8.367,1569.944327
3 Feb 2020 18:43:39.000,32.649,8.278,1576.105226
3 Feb 2020 18:43:40.000,32.766,8.190,1582.273172
3 Feb 2020 18:43:41.000,32.883,8.102,1588.448074
3 Feb 2020 18:43:42.000,32.999,8.015,1594.629845
3 Feb 2020 18:43:43.000,33.114,7.928,1600.818397
3 Feb 2020 18:43:44.000,33.228,7.841,1607.013644
3 Feb 2020 18:43:45.000,33.341,7.755,1613.215503
3 Feb 2020 18:43:46.000,33.453,7.669,1619.423889
3 Feb 2020 18:43:47.000,33.564,7.583,1625.638720
3 Feb 2020 18:43:48.000,33.675,7.498,1631.859916
3 Feb 2020 18:43:49.000,33.784,7.413,1638.087395
3 Feb 2020 18:43:50.000,33.893,7.329,1644.321079
3 Feb 2020 18:43:51.000,34.001,7.244,1650.560890
3 Feb 2020 18:43:52.000,34.108,7.161,1656.806750
3 Feb 2020 18:43:53.000,34.214,7.077,1663.058586
3 Feb 2020 18:43:54.000,34.319,6.994,1669.316322
3 Feb 2020 18:43:55.000,34.424,6.911,1675.579884
3 Feb 2020 18:43:56.000,34.528,6.829,1681.849200
3 Feb 2020 18:43:57.000,34.631,6.747,1688.124198
3 Feb 2020 18:43:58.000,34.733,6.665,1694.404807
3 Feb 2020 18:43:59.000,34.835,6.584,1700.690957
3 Feb 2020 18:44:00.000,34.935,6.503,1706.982580
3 Feb 2020 18:44:01.000,35.035,6.422,1713.279608
3 Feb 2020 18:44:02.000,35.135,6.342,1719.581974
3 Feb 2020 18:44:03.000,35.233,6.262,1725.889608
3 Feb 2020 18:44:04.000,35.331,6.182,1732.202452
3 Feb 2020 18:44:05.000,35.428,6.103,1738.520437
3 Feb 2020 18:44:06.000,35.525,6.023,1744.843501
3 Feb 2020 18:44:07.000,35.620,5.945,1751.171581
3 Feb 2020 18:44:08.000,35.715,5.866,1757.504615
3 Feb 2020 18:44:09.000,35.809,5.788,1763.842542
3 Feb 2020 18:44:10.000,35.903,5.710,1770.185302
3 Feb 2020 18:44:11.000,35.996,5.633,1776.532836
3 Feb 2020 18:44:12.000,36.088,5.555,1782.885082
3 Feb 2020 18:44:13.000,36.180,5.478,1789.241987
3 Feb 2020 18:44:14.000,36.271,5.402,1795.603492
3 Feb 2020 18:44:15.000,36.361,5.325,1801.969540
3 Feb 2020 18:44:16.000,36.451,5.249,1808.340076
3 Feb 2020 18:44:17.000,36.540,5.173,1814.715045
3 Feb 2020 18:44:18.000,36.629,5.098,1821.094392
3 Feb 2020 18:44:19.000,36.717,5.023,1827.478065
3 Feb 2020 18:44:20.000,36.804,4.948,1833.866007
3 Feb 2020 18:44:21.000,36.890,4.873,1840.258172
3 Feb 2020 18:44:22.000,36.976,4.799,1846.654505
3 Feb 2020 18:44:23.000,37.062,4.725,1853.054955
3 Feb 2020 18:44:24.000,37.147,4.651,1859.459473
3 Feb 2020 18:44:25.000,37.231,4.577,1865.868009
3 Feb 2020 18:44:26.000,37.315,4.504,1872.280513
3 Feb 2020 18:44:27.000,37.398,4.431,1878.696936
3 Feb 2020 18:44:28.000,37.481,4.358,1885.117233
3 Feb 2020 18:44:29.000,37.563,4.286,1891.541356
3 Feb 2020 18:44:30.000,37.644,4.213,1897.969258
3 Feb 2020 18:44:31.000,37.725,4.141,1904.400893
3 Feb 2020 18:44:32.000,37.806,4.070,1910.836215
3 Feb 2020 18:44:33.000,37.885,3.998,1917.275180
3 Feb 2020 18:44:34.000,37.965,3.927,1923.717741
3 Feb 2020 18:44:35.000,38.044,3.856,1930.163858
3 Feb 2020 18:44:36.000,38.122,3.785,1936.613487
3 Feb 2020 18:44:37.000,38.200,3.715,1943.066585
3 Feb 2020 18:44:38.000,38.277,3.645,1949.523108
3 Feb 2020 18:44:39.000,38.354,3.574,1955.983016
3 Feb 2020 18:44:40.000,38.430,3.505,1962.446268
3 Feb 2020 18:44:41.000,38.506,3.435,1968.912820
3 Feb 2020 18:44:42.000,38.581,3.366,1975.382637
3 Feb 2020 18:44:43.000,38.656,3.297,1981.855677
3 Feb 2020 18:44:44.000,38.731,3.228,1988.331901
3 Feb 2020 18:44:45.000,38.805,3.159,1994.811269
3 Feb 2020 18:44:46.000,38.878,3.091,2001.293743
3 Feb 2020 18:44:47.000,38.951,3.023,2007.779284
3 Feb 2020 18:44:48.000,39.024,2.955,2014.267858
3 Feb 2020 18:44:49.000,39.096,2.887,2020.759427
3 Feb 2020 18:44:50.000,39.167,2.820,2027.253953
3 Feb 2020 18:44:51.000,39.238,2.752,2033.751400
3 Feb 2020 18:44:52.000,39.309,2.685,2040.251733
3 Feb 2020 18:44:53.000,39.379,2.619,2046.754915
3 Feb 2020 18:44:54.000,39.449,2.552,2053.260914
3 Feb 2020 18:44:55.000,39.519,2.486,2059.769694
3 Feb 2020 18:44:56.000,39.588,2.419,2066.281221
3 Feb 2020 18:44:57.000,39.656,2.353,2072.795462
3 Feb 2020 18:44:58.000,39.725,2.288,2079.312382
3 Feb 2020 18:44:59.000,39.792,2.222,2085.831947
3 Feb 2020 18:45:00.000,39.860,2.157,2092.354129
3 Feb 2020 18:45:01.000,39.927,2.091,2098.878894
3 Feb 2020 18:45:02.000,39.993,2.026,2105.406208
3 Feb 2020 18:45:03.000,40.060,1.962,2111.936042
3 Feb 2020 18:45:04.000,40.125,1.897,2118.468363
3 Feb 2020 18:45:05.000,40.191,1.833,2125.003139
