vcc_sched/network/input/aer_uvags_wj2xmr_vcc-b_44431.csv

"Time (UTCG)","Azimuth (deg)","Elevation (deg)","Range (km)"
3 Feb 2020 16:59:10.467,194.422,-0.124,2318.578074
3 Feb 2020 16:59:11.000,194.379,-0.094,2315.263496
3 Feb 2020 16:59:12.000,194.299,-0.039,2309.046573
3 Feb 2020 16:59:13.000,194.218,0.018,2302.833862
3 Feb 2020 16:59:14.000,194.136,0.074,2296.625404
3 Feb 2020 16:59:15.000,194.054,0.130,2290.421243
3 Feb 2020 16:59:16.000,193.972,0.186,2284.221420
3 Feb 2020 16:59:17.000,193.889,0.243,2278.025980
3 Feb 2020 16:59:18.000,193.805,0.299,2271.834965
3 Feb 2020 16:59:19.000,193.722,0.356,2265.648420
3 Feb 2020 16:59:20.000,193.637,0.413,2259.466389
3 Feb 2020 16:59:21.000,193.553,0.470,2253.288917
3 Feb 2020 16:59:22.000,193.467,0.527,2247.116049
3 Feb 2020 16:59:23.000,193.382,0.584,2240.947832
3 Feb 2020 16:59:24.000,193.296,0.642,2234.784309
3 Feb 2020 16:59:25.000,193.209,0.699,2228.625531
3 Feb 2020 16:59:26.000,193.122,0.757,2222.471542
3 Feb 2020 16:59:27.000,193.034,0.814,2216.322391
3 Feb 2020 16:59:28.000,192.946,0.872,2210.178126
3 Feb 2020 16:59:29.000,192.857,0.930,2204.038795
3 Feb 2020 16:59:30.000,192.768,0.988,2197.904448
3 Feb 2020 16:59:31.000,192.679,1.046,2191.775133
3 Feb 2020 16:59:32.000,192.588,1.105,2185.650901
3 Feb 2020 16:59:33.000,192.498,1.163,2179.531803
3 Feb 2020 16:59:34.000,192.406,1.222,2173.417888
3 Feb 2020 16:59:35.000,192.315,1.280,2167.309210
3 Feb 2020 16:59:36.000,192.222,1.339,2161.205819
3 Feb 2020 16:59:37.000,192.130,1.398,2155.107769
3 Feb 2020 16:59:38.000,192.036,1.457,2149.015113
3 Feb 2020 16:59:39.000,191.942,1.516,2142.927903
3 Feb 2020 16:59:40.000,191.848,1.576,2136.846195
3 Feb 2020 16:59:41.000,191.753,1.635,2130.770044
3 Feb 2020 16:59:42.000,191.657,1.695,2124.699503
3 Feb 2020 16:59:43.000,191.561,1.754,2118.634630
3 Feb 2020 16:59:44.000,191.465,1.814,2112.575480
3 Feb 2020 16:59:45.000,191.367,1.874,2106.522111
3 Feb 2020 16:59:46.000,191.269,1.934,2100.474581
3 Feb 2020 16:59:47.000,191.171,1.995,2094.432946
3 Feb 2020 16:59:48.000,191.072,2.055,2088.397267
3 Feb 2020 16:59:49.000,190.973,2.115,2082.367602
3 Feb 2020 16:59:50.000,190.872,2.176,2076.344011
3 Feb 2020 16:59:51.000,190.772,2.237,2070.326555
3 Feb 2020 16:59:52.000,190.670,2.298,2064.315296
3 Feb 2020 16:59:53.000,190.568,2.359,2058.310294
3 Feb 2020 16:59:54.000,190.466,2.420,2052.311613
3 Feb 2020 16:59:55.000,190.362,2.481,2046.319315
3 Feb 2020 16:59:56.000,190.258,2.543,2040.333465
3 Feb 2020 16:59:57.000,190.154,2.604,2034.354127
3 Feb 2020 16:59:58.000,190.049,2.666,2028.381365
3 Feb 2020 16:59:59.000,189.943,2.728,2022.415246
3 Feb 2020 17:00:00.000,189.837,2.790,2016.455836
3 Feb 2020 17:00:01.000,189.730,2.852,2010.503202
3 Feb 2020 17:00:02.000,189.622,2.915,2004.557412
3 Feb 2020 17:00:03.000,189.514,2.977,1998.618535
3 Feb 2020 17:00:04.000,189.405,3.040,1992.686640
3 Feb 2020 17:00:05.000,189.295,3.102,1986.761796
3 Feb 2020 17:00:06.000,189.184,3.165,1980.844076
3 Feb 2020 17:00:07.000,189.073,3.228,1974.933549
3 Feb 2020 17:00:08.000,188.962,3.292,1969.030288
3 Feb 2020 17:00:09.000,188.849,3.355,1963.134367
3 Feb 2020 17:00:10.000,188.736,3.418,1957.245859
3 Feb 2020 17:00:11.000,188.622,3.482,1951.364838
3 Feb 2020 17:00:12.000,188.508,3.546,1945.491380
3 Feb 2020 17:00:13.000,188.392,3.610,1939.625561
3 Feb 2020 17:00:14.000,188.276,3.674,1933.767457
3 Feb 2020 17:00:15.000,188.159,3.738,1927.917148
3 Feb 2020 17:00:16.000,188.042,3.802,1922.074710
3 Feb 2020 17:00:17.000,187.924,3.867,1916.240223
3 Feb 2020 17:00:18.000,187.805,3.931,1910.413769
3 Feb 2020 17:00:19.000,187.685,3.996,1904.595426
3 Feb 2020 17:00:20.000,187.564,4.061,1898.785279
3 Feb 2020 17:00:21.000,187.443,4.126,1892.983409
3 Feb 2020 17:00:22.000,187.321,4.192,1887.189899
3 Feb 2020 17:00:23.000,187.198,4.257,1881.404836
3 Feb 2020 17:00:24.000,187.075,4.323,1875.628303
3 Feb 2020 17:00:25.000,186.950,4.388,1869.860387
3 Feb 2020 17:00:26.000,186.825,4.454,1864.101176
3 Feb 2020 17:00:27.000,186.699,4.520,1858.350758
3 Feb 2020 17:00:28.000,186.572,4.586,1852.609222
3 Feb 2020 17:00:29.000,186.444,4.653,1846.876658
3 Feb 2020 17:00:30.000,186.316,4.719,1841.153156
3 Feb 2020 17:00:31.000,186.187,4.786,1835.438810
3 Feb 2020 17:00:32.000,186.056,4.853,1829.733712
3 Feb 2020 17:00:33.000,185.925,4.919,1824.037956
3 Feb 2020 17:00:34.000,185.794,4.987,1818.351636
3 Feb 2020 17:00:35.000,185.661,5.054,1812.674850
3 Feb 2020 17:00:36.000,185.527,5.121,1807.007694
3 Feb 2020 17:00:37.000,185.393,5.189,1801.350266
3 Feb 2020 17:00:38.000,185.257,5.256,1795.702665
3 Feb 2020 17:00:39.000,185.121,5.324,1790.064991
3 Feb 2020 17:00:40.000,184.984,5.392,1784.437346
3 Feb 2020 17:00:41.000,184.846,5.461,1778.819832
3 Feb 2020 17:00:42.000,184.707,5.529,1773.212551
3 Feb 2020 17:00:43.000,184.567,5.597,1767.615610
3 Feb 2020 17:00:44.000,184.426,5.666,1762.029113
3 Feb 2020 17:00:45.000,184.284,5.735,1756.453167
3 Feb 2020 17:00:46.000,184.141,5.804,1750.887880
3 Feb 2020 17:00:47.000,183.998,5.873,1745.333361
3 Feb 2020 17:00:48.000,183.853,5.942,1739.789719
3 Feb 2020 17:00:49.000,183.707,6.011,1734.257068
3 Feb 2020 17:00:50.000,183.561,6.081,1728.735518
3 Feb 2020 17:00:51.000,183.413,6.151,1723.225184
3 Feb 2020 17:00:52.000,183.264,6.221,1717.726181
3 Feb 2020 17:00:53.000,183.115,6.291,1712.238624
3 Feb 2020 17:00:54.000,182.964,6.361,1706.762632
3 Feb 2020 17:00:55.000,182.813,6.431,1701.298322
3 Feb 2020 17:00:56.000,182.660,6.502,1695.845815
3 Feb 2020 17:00:57.000,182.506,6.572,1690.405231
3 Feb 2020 17:00:58.000,182.351,6.643,1684.976694
3 Feb 2020 17:00:59.000,182.196,6.714,1679.560327
3 Feb 2020 17:01:00.000,182.039,6.785,1674.156254
3 Feb 2020 17:01:01.000,181.881,6.856,1668.764603
3 Feb 2020 17:01:02.000,181.722,6.928,1663.385500
3 Feb 2020 17:01:03.000,181.562,6.999,1658.019075
3 Feb 2020 17:01:04.000,181.400,7.071,1652.665459
3 Feb 2020 17:01:05.000,181.238,7.143,1647.324782
3 Feb 2020 17:01:06.000,181.075,7.215,1641.997178
3 Feb 2020 17:01:07.000,180.910,7.287,1636.682781
3 Feb 2020 17:01:08.000,180.744,7.359,1631.381728
3 Feb 2020 17:01:09.000,180.577,7.431,1626.094155
3 Feb 2020 17:01:10.000,180.409,7.504,1620.820201
3 Feb 2020 17:01:11.000,180.240,7.577,1615.560006
3 Feb 2020 17:01:12.000,180.070,7.649,1610.313711
3 Feb 2020 17:01:13.000,179.898,7.722,1605.081461
3 Feb 2020 17:01:14.000,179.725,7.795,1599.863399
3 Feb 2020 17:01:15.000,179.552,7.869,1594.659670
3 Feb 2020 17:01:16.000,179.376,7.942,1589.470424
3 Feb 2020 17:01:17.000,179.200,8.015,1584.295807
3 Feb 2020 17:01:18.000,179.022,8.089,1579.135972
3 Feb 2020 17:01:19.000,178.844,8.163,1573.991070
3 Feb 2020 17:01:20.000,178.663,8.237,1568.861253
3 Feb 2020 17:01:21.000,178.482,8.311,1563.746679
3 Feb 2020 17:01:22.000,178.300,8.385,1558.647502
3 Feb 2020 17:01:23.000,178.116,8.459,1553.563881
3 Feb 2020 17:01:24.000,177.930,8.533,1548.495976
3 Feb 2020 17:01:25.000,177.744,8.608,1543.443948
3 Feb 2020 17:01:26.000,177.556,8.682,1538.407960
3 Feb 2020 17:01:27.000,177.367,8.757,1533.388177
3 Feb 2020 17:01:28.000,177.177,8.832,1528.384764
3 Feb 2020 17:01:29.000,176.985,8.907,1523.397889
3 Feb 2020 17:01:30.000,176.792,8.982,1518.427723
3 Feb 2020 17:01:31.000,176.597,9.057,1513.474434
3 Feb 2020 17:01:32.000,176.401,9.132,1508.538197
3 Feb 2020 17:01:33.000,176.204,9.208,1503.619186
3 Feb 2020 17:01:34.000,176.005,9.283,1498.717575
3 Feb 2020 17:01:35.000,175.805,9.359,1493.833544
3 Feb 2020 17:01:36.000,175.604,9.434,1488.967272
3 Feb 2020 17:01:37.000,175.401,9.510,1484.118938
3 Feb 2020 17:01:38.000,175.197,9.586,1479.288726
3 Feb 2020 17:01:39.000,174.991,9.662,1474.476821
3 Feb 2020 17:01:40.000,174.784,9.738,1469.683407
3 Feb 2020 17:01:41.000,174.575,9.814,1464.908674
3 Feb 2020 17:01:42.000,174.365,9.890,1460.152810
3 Feb 2020 17:01:43.000,174.153,9.966,1455.416006
3 Feb 2020 17:01:44.000,173.940,10.042,1450.698455
3 Feb 2020 17:01:45.000,173.726,10.118,1446.000352
3 Feb 2020 17:01:46.000,173.510,10.195,1441.321893
3 Feb 2020 17:01:47.000,173.292,10.271,1436.663276
3 Feb 2020 17:01:48.000,173.073,10.348,1432.024701
3 Feb 2020 17:01:49.000,172.852,10.424,1427.406369
3 Feb 2020 17:01:50.000,172.630,10.501,1422.808482
3 Feb 2020 17:01:51.000,172.406,10.577,1418.231247
3 Feb 2020 17:01:52.000,172.181,10.654,1413.674869
3 Feb 2020 17:01:53.000,171.954,10.730,1409.139556
3 Feb 2020 17:01:54.000,171.725,10.807,1404.625519
3 Feb 2020 17:01:55.000,171.495,10.884,1400.132969
3 Feb 2020 17:01:56.000,171.263,10.960,1395.662121
3 Feb 2020 17:01:57.000,171.030,11.037,1391.213187
3 Feb 2020 17:01:58.000,170.795,11.114,1386.786385
3 Feb 2020 17:01:59.000,170.558,11.190,1382.381934
3 Feb 2020 17:02:00.000,170.320,11.267,1378.000054
3 Feb 2020 17:02:01.000,170.080,11.344,1373.640966
3 Feb 2020 17:02:02.000,169.838,11.420,1369.304894
3 Feb 2020 17:02:03.000,169.595,11.497,1364.992062
3 Feb 2020 17:02:04.000,169.350,11.573,1360.702698
3 Feb 2020 17:02:05.000,169.103,11.650,1356.437029
3 Feb 2020 17:02:06.000,168.855,11.726,1352.195286
3 Feb 2020 17:02:07.000,168.605,11.803,1347.977699
3 Feb 2020 17:02:08.000,168.353,11.879,1343.784502
3 Feb 2020 17:02:09.000,168.099,11.955,1339.615929
3 Feb 2020 17:02:10.000,167.844,12.031,1335.472217
3 Feb 2020 17:02:11.000,167.587,12.108,1331.353602
3 Feb 2020 17:02:12.000,167.328,12.184,1327.260324
3 Feb 2020 17:02:13.000,167.068,12.259,1323.192623
3 Feb 2020 17:02:14.000,166.805,12.335,1319.150742
3 Feb 2020 17:02:15.000,166.541,12.411,1315.134923
3 Feb 2020 17:02:16.000,166.275,12.486,1311.145412
3 Feb 2020 17:02:17.000,166.008,12.562,1307.182454
3 Feb 2020 17:02:18.000,165.738,12.637,1303.246297
3 Feb 2020 17:02:19.000,165.467,12.712,1299.337190
3 Feb 2020 17:02:20.000,165.194,12.787,1295.455382
3 Feb 2020 17:02:21.000,164.919,12.862,1291.601126
3 Feb 2020 17:02:22.000,164.642,12.937,1287.774673
3 Feb 2020 17:02:23.000,164.364,13.011,1283.976277
3 Feb 2020 17:02:24.000,164.084,13.085,1280.206192
3 Feb 2020 17:02:25.000,163.801,13.159,1276.464677
3 Feb 2020 17:02:26.000,163.518,13.233,1272.751985
3 Feb 2020 17:02:27.000,163.232,13.307,1269.068375
3 Feb 2020 17:02:28.000,162.944,13.380,1265.414107
3 Feb 2020 17:02:29.000,162.654,13.453,1261.789441
3 Feb 2020 17:02:30.000,162.363,13.526,1258.194636
3 Feb 2020 17:02:31.000,162.070,13.599,1254.629954
3 Feb 2020 17:02:32.000,161.775,13.671,1251.095657
3 Feb 2020 17:02:33.000,161.478,13.743,1247.592010
3 Feb 2020 17:02:34.000,161.179,13.815,1244.119274
3 Feb 2020 17:02:35.000,160.878,13.886,1240.677715
3 Feb 2020 17:02:36.000,160.576,13.957,1237.267597
3 Feb 2020 17:02:37.000,160.271,14.028,1233.889184
3 Feb 2020 17:02:38.000,159.965,14.098,1230.542744
3 Feb 2020 17:02:39.000,159.657,14.169,1227.228542
3 Feb 2020 17:02:40.000,159.347,14.238,1223.946844
3 Feb 2020 17:02:41.000,159.035,14.308,1220.697917
3 Feb 2020 17:02:42.000,158.722,14.376,1217.482028
3 Feb 2020 17:02:43.000,158.406,14.445,1214.299443
3 Feb 2020 17:02:44.000,158.089,14.513,1211.150429
3 Feb 2020 17:02:45.000,157.769,14.581,1208.035255
3 Feb 2020 17:02:46.000,157.448,14.648,1204.954185
3 Feb 2020 17:02:47.000,157.125,14.715,1201.907486
3 Feb 2020 17:02:48.000,156.800,14.781,1198.895424
3 Feb 2020 17:02:49.000,156.474,14.847,1195.918265
3 Feb 2020 17:02:50.000,156.145,14.912,1192.976275
3 Feb 2020 17:02:51.000,155.815,14.977,1190.069719
3 Feb 2020 17:02:52.000,155.483,15.041,1187.198860
3 Feb 2020 17:02:53.000,155.149,15.105,1184.363961
3 Feb 2020 17:02:54.000,154.813,15.168,1181.565288
3 Feb 2020 17:02:55.000,154.475,15.231,1178.803100
3 Feb 2020 17:02:56.000,154.136,15.293,1176.077659
3 Feb 2020 17:02:57.000,153.795,15.354,1173.389224
3 Feb 2020 17:02:58.000,153.452,15.415,1170.738055
3 Feb 2020 17:02:59.000,153.108,15.475,1168.124408
3 Feb 2020 17:03:00.000,152.761,15.535,1165.548540
3 Feb 2020 17:03:01.000,152.413,15.594,1163.010706
3 Feb 2020 17:03:02.000,152.063,15.652,1160.511155
3 Feb 2020 17:03:03.000,151.712,15.709,1158.050145
3 Feb 2020 17:03:04.000,151.358,15.766,1155.627921
3 Feb 2020 17:03:05.000,151.004,15.822,1153.244733
3 Feb 2020 17:03:06.000,150.647,15.878,1150.900826
3 Feb 2020 17:03:07.000,150.289,15.933,1148.596442
3 Feb 2020 17:03:08.000,149.929,15.987,1146.331826
3 Feb 2020 17:03:09.000,149.567,16.040,1144.107216
3 Feb 2020 17:03:10.000,149.204,16.092,1141.922849
3 Feb 2020 17:03:11.000,148.840,16.144,1139.778957
3 Feb 2020 17:03:12.000,148.473,16.195,1137.675776
3 Feb 2020 17:03:13.000,148.106,16.245,1135.613534
3 Feb 2020 17:03:14.000,147.736,16.294,1133.592456
3 Feb 2020 17:03:15.000,147.366,16.342,1131.612765
3 Feb 2020 17:03:16.000,146.993,16.390,1129.674684
3 Feb 2020 17:03:17.000,146.620,16.436,1127.778430
3 Feb 2020 17:03:18.000,146.245,16.482,1125.924214
3 Feb 2020 17:03:19.000,145.868,16.527,1124.112251
3 Feb 2020 17:03:20.000,145.490,16.571,1122.342744
3 Feb 2020 17:03:21.000,145.111,16.614,1120.615901
3 Feb 2020 17:03:22.000,144.730,16.656,1118.931919
3 Feb 2020 17:03:23.000,144.348,16.697,1117.290996
3 Feb 2020 17:03:24.000,143.965,16.737,1115.693325
3 Feb 2020 17:03:25.000,143.581,16.776,1114.139092
3 Feb 2020 17:03:26.000,143.195,16.814,1112.628484
3 Feb 2020 17:03:27.000,142.808,16.851,1111.161678
3 Feb 2020 17:03:28.000,142.420,16.887,1109.738854
3 Feb 2020 17:03:29.000,142.031,16.922,1108.360180
3 Feb 2020 17:03:30.000,141.641,16.956,1107.025827
3 Feb 2020 17:03:31.000,141.249,16.989,1105.735953
3 Feb 2020 17:03:32.000,140.857,17.021,1104.490719
3 Feb 2020 17:03:33.000,140.464,17.052,1103.290278
3 Feb 2020 17:03:34.000,140.069,17.082,1102.134777
3 Feb 2020 17:03:35.000,139.674,17.111,1101.024362
3 Feb 2020 17:03:36.000,139.278,17.138,1099.959166
3 Feb 2020 17:03:37.000,138.881,17.165,1098.939327
3 Feb 2020 17:03:38.000,138.483,17.190,1097.964974
3 Feb 2020 17:03:39.000,138.084,17.214,1097.036225
3 Feb 2020 17:03:40.000,137.685,17.237,1096.153201
3 Feb 2020 17:03:41.000,137.284,17.259,1095.316015
3 Feb 2020 17:03:42.000,136.884,17.280,1094.524771
3 Feb 2020 17:03:43.000,136.482,17.300,1093.779570
3 Feb 2020 17:03:44.000,136.080,17.318,1093.080510
3 Feb 2020 17:03:45.000,135.677,17.336,1092.427681
3 Feb 2020 17:03:46.000,135.274,17.352,1091.821165
3 Feb 2020 17:03:47.000,134.870,17.367,1091.261041
3 Feb 2020 17:03:48.000,134.466,17.381,1090.747382
3 Feb 2020 17:03:49.000,134.061,17.393,1090.280255
3 Feb 2020 17:03:50.000,133.656,17.404,1089.859721
3 Feb 2020 17:03:51.000,133.251,17.415,1089.485837
3 Feb 2020 17:03:52.000,132.845,17.424,1089.158648
3 Feb 2020 17:03:53.000,132.439,17.431,1088.878198
3 Feb 2020 17:03:54.000,132.033,17.438,1088.644525
3 Feb 2020 17:03:55.000,131.626,17.443,1088.457660
3 Feb 2020 17:03:56.000,131.220,17.447,1088.317628
3 Feb 2020 17:03:57.000,130.813,17.450,1088.224447
3 Feb 2020 17:03:58.000,130.406,17.452,1088.178130
3 Feb 2020 17:03:59.000,130.000,17.452,1088.178683
3 Feb 2020 17:04:00.000,129.593,17.452,1088.226107
3 Feb 2020 17:04:01.000,129.186,17.450,1088.320397
3 Feb 2020 17:04:02.000,128.780,17.447,1088.461540
3 Feb 2020 17:04:03.000,128.373,17.442,1088.649519
3 Feb 2020 17:04:04.000,127.967,17.437,1088.884310
3 Feb 2020 17:04:05.000,127.561,17.430,1089.165882
3 Feb 2020 17:04:06.000,127.155,17.422,1089.494200
3 Feb 2020 17:04:07.000,126.750,17.412,1089.869221
3 Feb 2020 17:04:08.000,126.345,17.402,1090.290894
3 Feb 2020 17:04:09.000,125.940,17.390,1090.759172
3 Feb 2020 17:04:10.000,125.536,17.378,1091.273990
3 Feb 2020 17:04:11.000,125.132,17.364,1091.835284
3 Feb 2020 17:04:12.000,124.729,17.348,1092.442981
3 Feb 2020 17:04:13.000,124.326,17.332,1093.097003
3 Feb 2020 17:04:14.000,123.924,17.314,1093.797266
3 Feb 2020 17:04:15.000,123.522,17.296,1094.543684
3 Feb 2020 17:04:16.000,123.121,17.276,1095.336161
3 Feb 2020 17:04:17.000,122.721,17.255,1096.174596
3 Feb 2020 17:04:18.000,122.321,17.233,1097.058880
3 Feb 2020 17:04:19.000,121.922,17.209,1097.988908
3 Feb 2020 17:04:20.000,121.524,17.185,1098.964560
3 Feb 2020 17:04:21.000,121.127,17.159,1099.985712
3 Feb 2020 17:04:22.000,120.731,17.133,1101.052241
3 Feb 2020 17:04:23.000,120.336,17.105,1102.164013
3 Feb 2020 17:04:24.000,119.941,17.076,1103.320886
3 Feb 2020 17:04:25.000,119.548,17.046,1104.522724
3 Feb 2020 17:04:26.000,119.155,17.015,1105.769374
3 Feb 2020 17:04:27.000,118.764,16.983,1107.060689
3 Feb 2020 17:04:28.000,118.373,16.950,1108.396509
3 Feb 2020 17:04:29.000,117.984,16.915,1109.776668
3 Feb 2020 17:04:30.000,117.596,16.880,1111.201008
3 Feb 2020 17:04:31.000,117.209,16.844,1112.669351
3 Feb 2020 17:04:32.000,116.823,16.807,1114.181527
3 Feb 2020 17:04:33.000,116.439,16.768,1115.737351
3 Feb 2020 17:04:34.000,116.056,16.729,1117.336646
3 Feb 2020 17:04:35.000,115.674,16.689,1118.979217
3 Feb 2020 17:04:36.000,115.293,16.648,1120.664876
3 Feb 2020 17:04:37.000,114.913,16.606,1122.393430
3 Feb 2020 17:04:38.000,114.535,16.563,1124.164673
3 Feb 2020 17:04:39.000,114.159,16.519,1125.978410
3 Feb 2020 17:04:40.000,113.784,16.474,1127.834425
3 Feb 2020 17:04:41.000,113.410,16.428,1129.732514
3 Feb 2020 17:04:42.000,113.037,16.381,1131.672465
3 Feb 2020 17:04:43.000,112.667,16.334,1133.654055
3 Feb 2020 17:04:44.000,112.297,16.286,1135.677072
3 Feb 2020 17:04:45.000,111.929,16.236,1137.741284
3 Feb 2020 17:04:46.000,111.563,16.186,1139.846470
3 Feb 2020 17:04:47.000,111.198,16.135,1141.992402
3 Feb 2020 17:04:48.000,110.835,16.084,1144.178851
3 Feb 2020 17:04:49.000,110.474,16.031,1146.405576
3 Feb 2020 17:04:50.000,110.114,15.978,1148.672345
3 Feb 2020 17:04:51.000,109.755,15.924,1150.978918
3 Feb 2020 17:04:52.000,109.399,15.869,1153.325058
3 Feb 2020 17:04:53.000,109.044,15.814,1155.710515
3 Feb 2020 17:04:54.000,108.690,15.758,1158.135047
3 Feb 2020 17:04:55.000,108.339,15.701,1160.598407
3 Feb 2020 17:04:56.000,107.989,15.644,1163.100344
3 Feb 2020 17:04:57.000,107.640,15.585,1165.640613
3 Feb 2020 17:04:58.000,107.294,15.526,1168.218953
3 Feb 2020 17:04:59.000,106.949,15.467,1170.835113
3 Feb 2020 17:05:00.000,106.606,15.407,1173.488838
3 Feb 2020 17:05:01.000,106.265,15.346,1176.179872
3 Feb 2020 17:05:02.000,105.926,15.285,1178.907955
3 Feb 2020 17:05:03.000,105.588,15.223,1181.672828
3 Feb 2020 17:05:04.000,105.252,15.160,1184.474231
3 Feb 2020 17:05:05.000,104.918,15.097,1187.311903
3 Feb 2020 17:05:06.000,104.586,15.034,1190.185580
3 Feb 2020 17:05:07.000,104.256,14.970,1193.095004
3 Feb 2020 17:05:08.000,103.927,14.905,1196.039903
3 Feb 2020 17:05:09.000,103.600,14.840,1199.020017
3 Feb 2020 17:05:10.000,103.276,14.774,1202.035080
3 Feb 2020 17:05:11.000,102.952,14.708,1205.084826
3 Feb 2020 17:05:12.000,102.631,14.641,1208.168991
3 Feb 2020 17:05:13.000,102.312,14.574,1211.287305
3 Feb 2020 17:05:14.000,101.994,14.507,1214.439507
3 Feb 2020 17:05:15.000,101.679,14.439,1217.625328
3 Feb 2020 17:05:16.000,101.365,14.371,1220.844502
3 Feb 2020 17:05:17.000,101.053,14.302,1224.096761
3 Feb 2020 17:05:18.000,100.743,14.233,1227.381840
3 Feb 2020 17:05:19.000,100.435,14.164,1230.699472
3 Feb 2020 17:05:20.000,100.129,14.094,1234.049391
3 Feb 2020 17:05:21.000,99.824,14.023,1237.431332
3 Feb 2020 17:05:22.000,99.522,13.953,1240.845028
3 Feb 2020 17:05:23.000,99.221,13.882,1244.290214
3 Feb 2020 17:05:24.000,98.922,13.811,1247.766624
3 Feb 2020 17:05:25.000,98.625,13.739,1251.273999
3 Feb 2020 17:05:26.000,98.330,13.668,1254.812073
3 Feb 2020 17:05:27.000,98.037,13.596,1258.380582
3 Feb 2020 17:05:28.000,97.746,13.523,1261.979266
3 Feb 2020 17:05:29.000,97.456,13.451,1265.607859
3 Feb 2020 17:05:30.000,97.168,13.378,1269.266108
3 Feb 2020 17:05:31.000,96.883,13.305,1272.953749
3 Feb 2020 17:05:32.000,96.599,13.231,1276.670524
3 Feb 2020 17:05:33.000,96.317,13.158,1280.416175
3 Feb 2020 17:05:34.000,96.036,13.084,1284.190443
3 Feb 2020 17:05:35.000,95.758,13.010,1287.993077
3 Feb 2020 17:05:36.000,95.481,12.936,1291.823820
3 Feb 2020 17:05:37.000,95.206,12.862,1295.682416
3 Feb 2020 17:05:38.000,94.933,12.787,1299.568618
3 Feb 2020 17:05:39.000,94.662,12.713,1303.482173
3 Feb 2020 17:05:40.000,94.393,12.638,1307.422829
3 Feb 2020 17:05:41.000,94.125,12.563,1311.390336
3 Feb 2020 17:05:42.000,93.859,12.488,1315.384452
3 Feb 2020 17:05:43.000,93.595,12.413,1319.404929
3 Feb 2020 17:05:44.000,93.333,12.337,1323.451518
3 Feb 2020 17:05:45.000,93.073,12.262,1327.523982
3 Feb 2020 17:05:46.000,92.814,12.186,1331.622077
3 Feb 2020 17:05:47.000,92.557,12.111,1335.745558
3 Feb 2020 17:05:48.000,92.302,12.035,1339.894194
3 Feb 2020 17:05:49.000,92.048,11.959,1344.067741
3 Feb 2020 17:05:50.000,91.797,11.883,1348.265968
3 Feb 2020 17:05:51.000,91.547,11.807,1352.488638
3 Feb 2020 17:05:52.000,91.298,11.731,1356.735515
3 Feb 2020 17:05:53.000,91.052,11.655,1361.006375
3 Feb 2020 17:05:54.000,90.807,11.579,1365.300981
3 Feb 2020 17:05:55.000,90.564,11.503,1369.619110
3 Feb 2020 17:05:56.000,90.322,11.426,1373.960531
3 Feb 2020 17:05:57.000,90.083,11.350,1378.325025
3 Feb 2020 17:05:58.000,89.844,11.274,1382.712366
3 Feb 2020 17:05:59.000,89.608,11.198,1387.122327
3 Feb 2020 17:06:00.000,89.373,11.121,1391.554696
3 Feb 2020 17:06:01.000,89.140,11.045,1396.009248
3 Feb 2020 17:06:02.000,88.908,10.969,1400.485774
3 Feb 2020 17:06:03.000,88.678,10.892,1404.984050
3 Feb 2020 17:06:04.000,88.450,10.816,1409.503871
3 Feb 2020 17:06:05.000,88.223,10.740,1414.045018
3 Feb 2020 17:06:06.000,87.998,10.663,1418.607289
3 Feb 2020 17:06:07.000,87.774,10.587,1423.190468
3 Feb 2020 17:06:08.000,87.552,10.511,1427.794355
3 Feb 2020 17:06:09.000,87.332,10.435,1432.418739
3 Feb 2020 17:06:10.000,87.113,10.359,1437.063421
3 Feb 2020 17:06:11.000,86.895,10.283,1441.728201
3 Feb 2020 17:06:12.000,86.679,10.207,1446.412875
3 Feb 2020 17:06:13.000,86.465,10.131,1451.117250
3 Feb 2020 17:06:14.000,86.252,10.055,1455.841124
3 Feb 2020 17:06:15.000,86.041,9.979,1460.584309
3 Feb 2020 17:06:16.000,85.831,9.903,1465.346605
3 Feb 2020 17:06:17.000,85.623,9.827,1470.127824
3 Feb 2020 17:06:18.000,85.416,9.752,1474.927781
3 Feb 2020 17:06:19.000,85.210,9.676,1479.746282
3 Feb 2020 17:06:20.000,85.006,9.601,1484.583146
3 Feb 2020 17:06:21.000,84.804,9.525,1489.438183
3 Feb 2020 17:06:22.000,84.602,9.450,1494.311213
3 Feb 2020 17:06:23.000,84.403,9.375,1499.202060
3 Feb 2020 17:06:24.000,84.204,9.299,1504.110537
3 Feb 2020 17:06:25.000,84.007,9.224,1509.036469
3 Feb 2020 17:06:26.000,83.812,9.149,1513.979684
3 Feb 2020 17:06:27.000,83.618,9.074,1518.940002
3 Feb 2020 17:06:28.000,83.425,9.000,1523.917256
3 Feb 2020 17:06:29.000,83.233,8.925,1528.911268
3 Feb 2020 17:06:30.000,83.043,8.850,1533.921873
3 Feb 2020 17:06:31.000,82.854,8.776,1538.948906
3 Feb 2020 17:06:32.000,82.667,8.702,1543.992194
3 Feb 2020 17:06:33.000,82.481,8.627,1549.051577
3 Feb 2020 17:06:34.000,82.296,8.553,1554.126891
3 Feb 2020 17:06:35.000,82.112,8.479,1559.217978
3 Feb 2020 17:06:36.000,81.930,8.405,1564.324672
3 Feb 2020 17:06:37.000,81.749,8.332,1569.446818
3 Feb 2020 17:06:38.000,81.569,8.258,1574.584263
3 Feb 2020 17:06:39.000,81.391,8.184,1579.736845
3 Feb 2020 17:06:40.000,81.214,8.111,1584.904414
3 Feb 2020 17:06:41.000,81.038,8.038,1590.086818
3 Feb 2020 17:06:42.000,80.863,7.965,1595.283910
3 Feb 2020 17:06:43.000,80.690,7.892,1600.495534
3 Feb 2020 17:06:44.000,80.517,7.819,1605.721546
3 Feb 2020 17:06:45.000,80.346,7.746,1610.961804
3 Feb 2020 17:06:46.000,80.176,7.673,1616.216156
3 Feb 2020 17:06:47.000,80.007,7.601,1621.484463
3 Feb 2020 17:06:48.000,79.840,7.528,1626.766582
3 Feb 2020 17:06:49.000,79.673,7.456,1632.062375
3 Feb 2020 17:06:50.000,79.508,7.384,1637.371705
3 Feb 2020 17:06:51.000,79.344,7.312,1642.694429
3 Feb 2020 17:06:52.000,79.181,7.241,1648.030414
3 Feb 2020 17:06:53.000,79.019,7.169,1653.379526
3 Feb 2020 17:06:54.000,78.858,7.097,1658.741635
3 Feb 2020 17:06:55.000,78.699,7.026,1664.116602
3 Feb 2020 17:06:56.000,78.540,6.955,1669.504300
3 Feb 2020 17:06:57.000,78.383,6.884,1674.904601
3 Feb 2020 17:06:58.000,78.226,6.813,1680.317377
3 Feb 2020 17:06:59.000,78.071,6.742,1685.742505
3 Feb 2020 17:07:00.000,77.917,6.672,1691.179853
3 Feb 2020 17:07:01.000,77.763,6.601,1696.629301
3 Feb 2020 17:07:02.000,77.611,6.531,1702.090726
3 Feb 2020 17:07:03.000,77.460,6.461,1707.564007
3 Feb 2020 17:07:04.000,77.310,6.391,1713.049028
3 Feb 2020 17:07:05.000,77.161,6.321,1718.545663
3 Feb 2020 17:07:06.000,77.013,6.251,1724.053798
3 Feb 2020 17:07:07.000,76.866,6.181,1729.573317
3 Feb 2020 17:07:08.000,76.720,6.112,1735.104106
3 Feb 2020 17:07:09.000,76.574,6.043,1740.646049
3 Feb 2020 17:07:10.000,76.430,5.974,1746.199036
3 Feb 2020 17:07:11.000,76.287,5.905,1751.762957
3 Feb 2020 17:07:12.000,76.145,5.836,1757.337697
3 Feb 2020 17:07:13.000,76.004,5.767,1762.923148
3 Feb 2020 17:07:14.000,75.863,5.699,1768.519204
3 Feb 2020 17:07:15.000,75.724,5.630,1774.125757
3 Feb 2020 17:07:16.000,75.586,5.562,1779.742702
3 Feb 2020 17:07:17.000,75.448,5.494,1785.369935
3 Feb 2020 17:07:18.000,75.312,5.426,1791.007355
3 Feb 2020 17:07:19.000,75.176,5.358,1796.654853
3 Feb 2020 17:07:20.000,75.041,5.291,1802.312332
3 Feb 2020 17:07:21.000,74.907,5.223,1807.979691
3 Feb 2020 17:07:22.000,74.774,5.156,1813.656831
3 Feb 2020 17:07:23.000,74.642,5.089,1819.343654
3 Feb 2020 17:07:24.000,74.511,5.022,1825.040063
3 Feb 2020 17:07:25.000,74.380,4.955,1830.745962
3 Feb 2020 17:07:26.000,74.251,4.889,1836.461256
3 Feb 2020 17:07:27.000,74.122,4.822,1842.185851
3 Feb 2020 17:07:28.000,73.994,4.756,1847.919657
3 Feb 2020 17:07:29.000,73.867,4.689,1853.662576
3 Feb 2020 17:07:30.000,73.741,4.623,1859.414520
3 Feb 2020 17:07:31.000,73.616,4.557,1865.175398
3 Feb 2020 17:07:32.000,73.491,4.492,1870.945122
3 Feb 2020 17:07:33.000,73.367,4.426,1876.723604
3 Feb 2020 17:07:34.000,73.245,4.361,1882.510755
3 Feb 2020 17:07:35.000,73.122,4.295,1888.306490
3 Feb 2020 17:07:36.000,73.001,4.230,1894.110723
3 Feb 2020 17:07:37.000,72.880,4.165,1899.923370
3 Feb 2020 17:07:38.000,72.761,4.100,1905.744348
3 Feb 2020 17:07:39.000,72.642,4.036,1911.573572
3 Feb 2020 17:07:40.000,72.523,3.971,1917.410961
3 Feb 2020 17:07:41.000,72.406,3.907,1923.256435
3 Feb 2020 17:07:42.000,72.289,3.842,1929.109916
3 Feb 2020 17:07:43.000,72.173,3.778,1934.971319
3 Feb 2020 17:07:44.000,72.058,3.714,1940.840567
3 Feb 2020 17:07:45.000,71.943,3.650,1946.717584
3 Feb 2020 17:07:46.000,71.829,3.587,1952.602292
3 Feb 2020 17:07:47.000,71.716,3.523,1958.494615
3 Feb 2020 17:07:48.000,71.604,3.460,1964.394478
3 Feb 2020 17:07:49.000,71.492,3.396,1970.301807
3 Feb 2020 17:07:50.000,71.381,3.333,1976.216528
3 Feb 2020 17:07:51.000,71.271,3.270,1982.138567
3 Feb 2020 17:07:52.000,71.161,3.208,1988.067852
3 Feb 2020 17:07:53.000,71.052,3.145,1994.004313
3 Feb 2020 17:07:54.000,70.944,3.082,1999.947878
3 Feb 2020 17:07:55.000,70.836,3.020,2005.898476
3 Feb 2020 17:07:56.000,70.729,2.958,2011.856040
3 Feb 2020 17:07:57.000,70.623,2.896,2017.820500
3 Feb 2020 17:07:58.000,70.517,2.834,2023.791789
3 Feb 2020 17:07:59.000,70.412,2.772,2029.769839
3 Feb 2020 17:08:00.000,70.308,2.710,2035.754584
3 Feb 2020 17:08:01.000,70.204,2.649,2041.745958
3 Feb 2020 17:08:02.000,70.101,2.587,2047.743895
3 Feb 2020 17:08:03.000,69.999,2.526,2053.748333
3 Feb 2020 17:08:04.000,69.897,2.465,2059.759206
3 Feb 2020 17:08:05.000,69.796,2.404,2065.776451
3 Feb 2020 17:08:06.000,69.695,2.343,2071.800007
3 Feb 2020 17:08:07.000,69.595,2.282,2077.829811
3 Feb 2020 17:08:08.000,69.496,2.221,2083.865802
3 Feb 2020 17:08:09.000,69.397,2.161,2089.907919
3 Feb 2020 17:08:10.000,69.299,2.101,2095.956103
3 Feb 2020 17:08:11.000,69.202,2.041,2102.010294
3 Feb 2020 17:08:12.000,69.105,1.980,2108.070434
3 Feb 2020 17:08:13.000,69.008,1.921,2114.136463
3 Feb 2020 17:08:14.000,68.913,1.861,2120.208326
3 Feb 2020 17:08:15.000,68.817,1.801,2126.285964
3 Feb 2020 17:08:16.000,68.723,1.741,2132.369321
3 Feb 2020 17:08:17.000,68.628,1.682,2138.458341
3 Feb 2020 17:08:18.000,68.535,1.623,2144.552969
3 Feb 2020 17:08:19.000,68.442,1.564,2150.653151
3 Feb 2020 17:08:20.000,68.349,1.505,2156.758832
3 Feb 2020 17:08:21.000,68.258,1.446,2162.869958
3 Feb 2020 17:08:22.000,68.166,1.387,2168.986477
3 Feb 2020 17:08:23.000,68.075,1.328,2175.108332
3 Feb 2020 17:08:24.000,67.985,1.270,2181.235478
3 Feb 2020 17:08:25.000,67.895,1.211,2187.367860
3 Feb 2020 17:08:26.000,67.806,1.153,2193.505428
3 Feb 2020 17:08:27.000,67.717,1.095,2199.648130
3 Feb 2020 17:08:28.000,67.629,1.037,2205.795916
3 Feb 2020 17:08:29.000,67.541,0.979,2211.948738
3 Feb 2020 17:08:30.000,67.454,0.921,2218.106546
3 Feb 2020 17:08:31.000,67.367,0.864,2224.269291
3 Feb 2020 17:08:32.000,67.281,0.806,2230.436926
3 Feb 2020 17:08:33.000,67.196,0.749,2236.609403
3 Feb 2020 17:08:34.000,67.110,0.691,2242.786674
3 Feb 2020 17:08:35.000,67.026,0.634,2248.968693
3 Feb 2020 17:08:36.000,66.941,0.577,2255.155414
3 Feb 2020 17:08:37.000,66.858,0.520,2261.346791
3 Feb 2020 17:08:38.000,66.774,0.463,2267.542778
3 Feb 2020 17:08:39.000,66.692,0.407,2273.743332
3 Feb 2020 17:08:40.000,66.609,0.350,2279.948406
3 Feb 2020 17:08:41.000,66.527,0.294,2286.157955
3 Feb 2020 17:08:42.000,66.446,0.237,2292.371940
3 Feb 2020 17:08:43.000,66.365,0.181,2298.590317
3 Feb 2020 17:08:44.000,66.284,0.125,2304.813040
3 Feb 2020 17:08:45.000,66.204,0.069,2311.040070
3 Feb 2020 17:08:46.000,66.125,0.013,2317.271362
3 Feb 2020 17:08:47.000,66.046,-0.043,2323.506877
3 Feb 2020 17:08:48.000,65.967,-0.099,2329.746572
3 Feb 2020 17:08:48.460,65.931,-0.124,2332.618463
3 Feb 2020 18:34:53.465,244.714,-0.124,2324.835704
3 Feb 2020 18:34:54.000,244.734,-0.092,2321.203228
3 Feb 2020 18:34:55.000,244.770,-0.031,2314.418564
3 Feb 2020 18:34:56.000,244.807,0.030,2307.634659
3 Feb 2020 18:34:57.000,244.844,0.092,2300.851525
3 Feb 2020 18:34:58.000,244.881,0.153,2294.069175
3 Feb 2020 18:34:59.000,244.919,0.215,2287.287630
3 Feb 2020 18:35:00.000,244.957,0.277,2280.506902
3 Feb 2020 18:35:01.000,244.995,0.339,2273.727002
3 Feb 2020 18:35:02.000,245.033,0.401,2266.947953
3 Feb 2020 18:35:03.000,245.071,0.463,2260.169767
3 Feb 2020 18:35:04.000,245.110,0.526,2253.392459
3 Feb 2020 18:35:05.000,245.149,0.589,2246.616042
3 Feb 2020 18:35:06.000,245.188,0.651,2239.840538
3 Feb 2020 18:35:07.000,245.227,0.715,2233.065961
3 Feb 2020 18:35:08.000,245.266,0.778,2226.292327
3 Feb 2020 18:35:09.000,245.306,0.841,2219.519649
3 Feb 2020 18:35:10.000,245.346,0.905,2212.747950
3 Feb 2020 18:35:11.000,245.386,0.969,2205.977243
3 Feb 2020 18:35:12.000,245.427,1.033,2199.207547
3 Feb 2020 18:35:13.000,245.467,1.097,2192.438873
3 Feb 2020 18:35:14.000,245.508,1.162,2185.671248
3 Feb 2020 18:35:15.000,245.549,1.227,2178.904684
3 Feb 2020 18:35:16.000,245.591,1.291,2172.139201
3 Feb 2020 18:35:17.000,245.632,1.357,2165.374811
3 Feb 2020 18:35:18.000,245.674,1.422,2158.611541
3 Feb 2020 18:35:19.000,245.716,1.487,2151.849405
3 Feb 2020 18:35:20.000,245.759,1.553,2145.088421
3 Feb 2020 18:35:21.000,245.801,1.619,2138.328606
3 Feb 2020 18:35:22.000,245.844,1.685,2131.569985
3 Feb 2020 18:35:23.000,245.887,1.752,2124.812573
3 Feb 2020 18:35:24.000,245.931,1.818,2118.056391
3 Feb 2020 18:35:25.000,245.974,1.885,2111.301454
3 Feb 2020 18:35:26.000,246.018,1.952,2104.547789
3 Feb 2020 18:35:27.000,246.063,2.019,2097.795412
3 Feb 2020 18:35:28.000,246.107,2.087,2091.044345
3 Feb 2020 18:35:29.000,246.152,2.154,2084.294604
3 Feb 2020 18:35:30.000,246.197,2.222,2077.546216
3 Feb 2020 18:35:31.000,246.242,2.291,2070.799200
3 Feb 2020 18:35:32.000,246.288,2.359,2064.053577
3 Feb 2020 18:35:33.000,246.334,2.428,2057.309364
3 Feb 2020 18:35:34.000,246.380,2.497,2050.566591
3 Feb 2020 18:35:35.000,246.427,2.566,2043.825275
3 Feb 2020 18:35:36.000,246.474,2.635,2037.085440
3 Feb 2020 18:35:37.000,246.521,2.705,2030.347104
3 Feb 2020 18:35:38.000,246.568,2.775,2023.610297
3 Feb 2020 18:35:39.000,246.616,2.845,2016.875038
3 Feb 2020 18:35:40.000,246.664,2.915,2010.141352
3 Feb 2020 18:35:41.000,246.712,2.986,2003.409258
3 Feb 2020 18:35:42.000,246.761,3.057,1996.678786
3 Feb 2020 18:35:43.000,246.810,3.128,1989.949959
3 Feb 2020 18:35:44.000,246.859,3.200,1983.222800
3 Feb 2020 18:35:45.000,246.909,3.271,1976.497331
3 Feb 2020 18:35:46.000,246.959,3.343,1969.773583
3 Feb 2020 18:35:47.000,247.009,3.415,1963.051579
3 Feb 2020 18:35:48.000,247.060,3.488,1956.331345
3 Feb 2020 18:35:49.000,247.111,3.561,1949.612903
3 Feb 2020 18:35:50.000,247.162,3.634,1942.896286
3 Feb 2020 18:35:51.000,247.214,3.707,1936.181517
3 Feb 2020 18:35:52.000,247.266,3.781,1929.468625
3 Feb 2020 18:35:53.000,247.318,3.855,1922.757632
3 Feb 2020 18:35:54.000,247.371,3.929,1916.048573
3 Feb 2020 18:35:55.000,247.424,4.004,1909.341474
3 Feb 2020 18:35:56.000,247.478,4.078,1902.636362
3 Feb 2020 18:35:57.000,247.531,4.154,1895.933262
3 Feb 2020 18:35:58.000,247.586,4.229,1889.232212
3 Feb 2020 18:35:59.000,247.640,4.305,1882.533237
3 Feb 2020 18:36:00.000,247.695,4.381,1875.836367
3 Feb 2020 18:36:01.000,247.751,4.457,1869.141629
3 Feb 2020 18:36:02.000,247.807,4.534,1862.449061
3 Feb 2020 18:36:03.000,247.863,4.611,1855.758690
3 Feb 2020 18:36:04.000,247.919,4.688,1849.070548
3 Feb 2020 18:36:05.000,247.976,4.766,1842.384666
3 Feb 2020 18:36:06.000,248.034,4.844,1835.701075
3 Feb 2020 18:36:07.000,248.091,4.922,1829.019814
3 Feb 2020 18:36:08.000,248.150,5.001,1822.340912
3 Feb 2020 18:36:09.000,248.208,5.080,1815.664403
3 Feb 2020 18:36:10.000,248.267,5.159,1808.990319
3 Feb 2020 18:36:11.000,248.327,5.239,1802.318700
3 Feb 2020 18:36:12.000,248.387,5.319,1795.649578
3 Feb 2020 18:36:13.000,248.447,5.399,1788.982989
3 Feb 2020 18:36:14.000,248.508,5.480,1782.318969
3 Feb 2020 18:36:15.000,248.570,5.561,1775.657552
3 Feb 2020 18:36:16.000,248.631,5.642,1768.998780
3 Feb 2020 18:36:17.000,248.694,5.724,1762.342690
3 Feb 2020 18:36:18.000,248.756,5.806,1755.689317
3 Feb 2020 18:36:19.000,248.820,5.889,1749.038699
3 Feb 2020 18:36:20.000,248.883,5.972,1742.390880
3 Feb 2020 18:36:21.000,248.947,6.055,1735.745898
3 Feb 2020 18:36:22.000,249.012,6.139,1729.103792
3 Feb 2020 18:36:23.000,249.077,6.223,1722.464604
3 Feb 2020 18:36:24.000,249.143,6.307,1715.828372
3 Feb 2020 18:36:25.000,249.209,6.392,1709.195145
3 Feb 2020 18:36:26.000,249.276,6.477,1702.564961
3 Feb 2020 18:36:27.000,249.343,6.563,1695.937865
3 Feb 2020 18:36:28.000,249.411,6.649,1689.313896
3 Feb 2020 18:36:29.000,249.479,6.736,1682.693107
3 Feb 2020 18:36:30.000,249.548,6.823,1676.075539
3 Feb 2020 18:36:31.000,249.617,6.910,1669.461238
3 Feb 2020 18:36:32.000,249.687,6.998,1662.850250
3 Feb 2020 18:36:33.000,249.758,7.086,1656.242620
3 Feb 2020 18:36:34.000,249.829,7.175,1649.638403
3 Feb 2020 18:36:35.000,249.901,7.264,1643.037643
3 Feb 2020 18:36:36.000,249.973,7.353,1636.440390
3 Feb 2020 18:36:37.000,250.046,7.443,1629.846695
3 Feb 2020 18:36:38.000,250.119,7.534,1623.256604
3 Feb 2020 18:36:39.000,250.193,7.625,1616.670176
3 Feb 2020 18:36:40.000,250.268,7.716,1610.087461
3 Feb 2020 18:36:41.000,250.343,7.808,1603.508512
3 Feb 2020 18:36:42.000,250.419,7.900,1596.933382
3 Feb 2020 18:36:43.000,250.496,7.993,1590.362124
3 Feb 2020 18:36:44.000,250.573,8.086,1583.794799
3 Feb 2020 18:36:45.000,250.651,8.180,1577.231462
3 Feb 2020 18:36:46.000,250.730,8.274,1570.672169
3 Feb 2020 18:36:47.000,250.809,8.369,1564.116980
3 Feb 2020 18:36:48.000,250.889,8.465,1557.565953
3 Feb 2020 18:36:49.000,250.970,8.560,1551.019145
3 Feb 2020 18:36:50.000,251.051,8.657,1544.476624
3 Feb 2020 18:36:51.000,251.133,8.754,1537.938449
3 Feb 2020 18:36:52.000,251.216,8.851,1531.404684
3 Feb 2020 18:36:53.000,251.299,8.949,1524.875392
3 Feb 2020 18:36:54.000,251.383,9.048,1518.350635
3 Feb 2020 18:36:55.000,251.468,9.147,1511.830487
3 Feb 2020 18:36:56.000,251.554,9.246,1505.315011
3 Feb 2020 18:36:57.000,251.641,9.346,1498.804275
3 Feb 2020 18:36:58.000,251.728,9.447,1492.298350
3 Feb 2020 18:36:59.000,251.816,9.548,1485.797305
3 Feb 2020 18:37:00.000,251.905,9.650,1479.301209
3 Feb 2020 18:37:01.000,251.995,9.753,1472.810142
3 Feb 2020 18:37:02.000,252.085,9.856,1466.324175
3 Feb 2020 18:37:03.000,252.177,9.960,1459.843383
3 Feb 2020 18:37:04.000,252.269,10.064,1453.367843
3 Feb 2020 18:37:05.000,252.362,10.169,1446.897633
3 Feb 2020 18:37:06.000,252.456,10.274,1440.432828
3 Feb 2020 18:37:07.000,252.551,10.380,1433.973516
3 Feb 2020 18:37:08.000,252.647,10.487,1427.519775
3 Feb 2020 18:37:09.000,252.744,10.595,1421.071689
3 Feb 2020 18:37:10.000,252.841,10.703,1414.629342
3 Feb 2020 18:37:11.000,252.940,10.812,1408.192821
3 Feb 2020 18:37:12.000,253.039,10.921,1401.762213
3 Feb 2020 18:37:13.000,253.140,11.031,1395.337604
3 Feb 2020 18:37:14.000,253.241,11.142,1388.919091
3 Feb 2020 18:37:15.000,253.344,11.253,1382.506764
3 Feb 2020 18:37:16.000,253.447,11.365,1376.100715
3 Feb 2020 18:37:17.000,253.552,11.478,1369.701040
3 Feb 2020 18:37:18.000,253.657,11.592,1363.307837
3 Feb 2020 18:37:19.000,253.764,11.706,1356.921204
3 Feb 2020 18:37:20.000,253.871,11.821,1350.541238
3 Feb 2020 18:37:21.000,253.980,11.937,1344.168048
3 Feb 2020 18:37:22.000,254.090,12.054,1337.801735
3 Feb 2020 18:37:23.000,254.201,12.171,1331.442406
3 Feb 2020 18:37:24.000,254.313,12.289,1325.090166
3 Feb 2020 18:37:25.000,254.426,12.408,1318.745128
3 Feb 2020 18:37:26.000,254.541,12.527,1312.407401
3 Feb 2020 18:37:27.000,254.656,12.648,1306.077100
3 Feb 2020 18:37:28.000,254.773,12.769,1299.754341
3 Feb 2020 18:37:29.000,254.891,12.891,1293.439237
3 Feb 2020 18:37:30.000,255.011,13.014,1287.131916
3 Feb 2020 18:37:31.000,255.131,13.138,1280.832496
3 Feb 2020 18:37:32.000,255.253,13.262,1274.541102
3 Feb 2020 18:37:33.000,255.376,13.387,1268.257860
3 Feb 2020 18:37:34.000,255.501,13.514,1261.982899
3 Feb 2020 18:37:35.000,255.627,13.641,1255.716350
3 Feb 2020 18:37:36.000,255.754,13.769,1249.458348
3 Feb 2020 18:37:37.000,255.883,13.898,1243.209028
3 Feb 2020 18:37:38.000,256.013,14.027,1236.968528
3 Feb 2020 18:37:39.000,256.144,14.158,1230.736988
3 Feb 2020 18:37:40.000,256.277,14.290,1224.514557
3 Feb 2020 18:37:41.000,256.412,14.422,1218.301379
3 Feb 2020 18:37:42.000,256.547,14.556,1212.097603
3 Feb 2020 18:37:43.000,256.685,14.690,1205.903381
3 Feb 2020 18:37:44.000,256.824,14.825,1199.718869
3 Feb 2020 18:37:45.000,256.965,14.962,1193.544223
3 Feb 2020 18:37:46.000,257.107,15.099,1187.379606
3 Feb 2020 18:37:47.000,257.251,15.237,1181.225181
3 Feb 2020 18:37:48.000,257.396,15.377,1175.081115
3 Feb 2020 18:37:49.000,257.544,15.517,1168.947579
3 Feb 2020 18:37:50.000,257.693,15.658,1162.824746
3 Feb 2020 18:37:51.000,257.843,15.801,1156.712793
3 Feb 2020 18:37:52.000,257.996,15.944,1150.611900
3 Feb 2020 18:37:53.000,258.150,16.089,1144.522251
3 Feb 2020 18:37:54.000,258.306,16.234,1138.444034
3 Feb 2020 18:37:55.000,258.465,16.381,1132.377439
3 Feb 2020 18:37:56.000,258.625,16.529,1126.322661
3 Feb 2020 18:37:57.000,258.786,16.677,1120.279898
3 Feb 2020 18:37:58.000,258.950,16.827,1114.249354
3 Feb 2020 18:37:59.000,259.116,16.979,1108.231233
3 Feb 2020 18:38:00.000,259.284,17.131,1102.225747
3 Feb 2020 18:38:01.000,259.454,17.284,1096.233109
3 Feb 2020 18:38:02.000,259.627,17.439,1090.253539
3 Feb 2020 18:38:03.000,259.801,17.595,1084.287259
3 Feb 2020 18:38:04.000,259.977,17.752,1078.334497
3 Feb 2020 18:38:05.000,260.156,17.910,1072.395484
3 Feb 2020 18:38:06.000,260.337,18.069,1066.470458
3 Feb 2020 18:38:07.000,260.521,18.230,1060.559658
3 Feb 2020 18:38:08.000,260.706,18.392,1054.663331
3 Feb 2020 18:38:09.000,260.895,18.555,1048.781727
3 Feb 2020 18:38:10.000,261.085,18.719,1042.915103
3 Feb 2020 18:38:11.000,261.278,18.885,1037.063718
3 Feb 2020 18:38:12.000,261.474,19.052,1031.227840
3 Feb 2020 18:38:13.000,261.672,19.220,1025.407739
3 Feb 2020 18:38:14.000,261.873,19.389,1019.603692
3 Feb 2020 18:38:15.000,262.077,19.560,1013.815981
3 Feb 2020 18:38:16.000,262.283,19.732,1008.044894
3 Feb 2020 18:38:17.000,262.492,19.906,1002.290726
3 Feb 2020 18:38:18.000,262.704,20.081,996.553774
3 Feb 2020 18:38:19.000,262.919,20.257,990.834345
3 Feb 2020 18:38:20.000,263.137,20.435,985.132751
3 Feb 2020 18:38:21.000,263.358,20.614,979.449312
3 Feb 2020 18:38:22.000,263.581,20.794,973.784346
3 Feb 2020 18:38:23.000,263.808,20.976,968.138187
3 Feb 2020 18:38:24.000,264.039,21.159,962.511172
3 Feb 2020 18:38:25.000,264.272,21.343,956.903646
3 Feb 2020 18:38:26.000,264.509,21.530,951.315959
3 Feb 2020 18:38:27.000,264.749,21.717,945.748469
3 Feb 2020 18:38:28.000,264.992,21.906,940.201541
3 Feb 2020 18:38:29.000,265.239,22.096,934.675550
3 Feb 2020 18:38:30.000,265.490,22.288,929.170870
3 Feb 2020 18:38:31.000,265.744,22.482,923.687891
3 Feb 2020 18:38:32.000,266.002,22.676,918.227009
3 Feb 2020 18:38:33.000,266.264,22.873,912.788624
3 Feb 2020 18:38:34.000,266.530,23.070,907.373149
3 Feb 2020 18:38:35.000,266.799,23.270,901.981005
3 Feb 2020 18:38:36.000,267.073,23.470,896.612613
3 Feb 2020 18:38:37.000,267.351,23.673,891.268410
3 Feb 2020 18:38:38.000,267.632,23.876,885.948840
3 Feb 2020 18:38:39.000,267.919,24.082,880.654360
3 Feb 2020 18:38:40.000,268.209,24.288,875.385423
3 Feb 2020 18:38:41.000,268.504,24.496,870.142503
3 Feb 2020 18:38:42.000,268.803,24.706,864.926078
3 Feb 2020 18:38:43.000,269.107,24.917,859.736641
3 Feb 2020 18:38:44.000,269.416,25.130,854.574681
3 Feb 2020 18:38:45.000,269.730,25.344,849.440708
3 Feb 2020 18:38:46.000,270.048,25.560,844.335239
3 Feb 2020 18:38:47.000,270.371,25.777,839.258803
3 Feb 2020 18:38:48.000,270.700,25.995,834.211929
3 Feb 2020 18:38:49.000,271.034,26.215,829.195165
3 Feb 2020 18:38:50.000,271.373,26.437,824.209070
3 Feb 2020 18:38:51.000,271.717,26.660,819.254203
3 Feb 2020 18:38:52.000,272.067,26.884,814.331142
3 Feb 2020 18:38:53.000,272.422,27.109,809.440477
3 Feb 2020 18:38:54.000,272.783,27.336,804.582797
3 Feb 2020 18:38:55.000,273.151,27.565,799.758712
3 Feb 2020 18:38:56.000,273.524,27.794,794.968841
3 Feb 2020 18:38:57.000,273.903,28.025,790.213806
3 Feb 2020 18:38:58.000,274.288,28.257,785.494251
3 Feb 2020 18:38:59.000,274.679,28.491,780.810818
3 Feb 2020 18:39:00.000,275.077,28.725,776.164173
3 Feb 2020 18:39:01.000,275.482,28.961,771.554978
3 Feb 2020 18:39:02.000,275.893,29.198,766.983916
3 Feb 2020 18:39:03.000,276.311,29.436,762.451683
3 Feb 2020 18:39:04.000,276.736,29.674,757.958973
3 Feb 2020 18:39:05.000,277.168,29.914,753.506503
3 Feb 2020 18:39:06.000,277.607,30.155,749.094991
3 Feb 2020 18:39:07.000,278.053,30.397,744.725175
3 Feb 2020 18:39:08.000,278.507,30.639,740.397794
3 Feb 2020 18:39:09.000,278.969,30.882,736.113599
3 Feb 2020 18:39:10.000,279.438,31.126,731.873359
3 Feb 2020 18:39:11.000,279.915,31.371,727.677840
3 Feb 2020 18:39:12.000,280.400,31.616,723.527832
3 Feb 2020 18:39:13.000,280.893,31.861,719.424122
3 Feb 2020 18:39:14.000,281.395,32.107,715.367509
3 Feb 2020 18:39:15.000,281.904,32.353,711.358810
3 Feb 2020 18:39:16.000,282.423,32.599,707.398839
3 Feb 2020 18:39:17.000,282.949,32.846,703.488422
3 Feb 2020 18:39:18.000,283.485,33.092,699.628398
3 Feb 2020 18:39:19.000,284.030,33.338,695.819608
3 Feb 2020 18:39:20.000,284.583,33.584,692.062899
3 Feb 2020 18:39:21.000,285.146,33.830,688.359132
3 Feb 2020 18:39:22.000,285.718,34.075,684.709169
3 Feb 2020 18:39:23.000,286.300,34.320,681.113878
3 Feb 2020 18:39:24.000,286.890,34.564,677.574129
3 Feb 2020 18:39:25.000,287.491,34.807,674.090808
3 Feb 2020 18:39:26.000,288.101,35.048,670.664794
3 Feb 2020 18:39:27.000,288.721,35.289,667.296974
3 Feb 2020 18:39:28.000,289.351,35.529,663.988236
3 Feb 2020 18:39:29.000,289.991,35.767,660.739471
3 Feb 2020 18:39:30.000,290.642,36.003,657.551572
3 Feb 2020 18:39:31.000,291.302,36.238,654.425431
3 Feb 2020 18:39:32.000,291.972,36.471,651.361940
3 Feb 2020 18:39:33.000,292.653,36.701,648.361991
3 Feb 2020 18:39:34.000,293.344,36.929,645.426473
3 Feb 2020 18:39:35.000,294.046,37.155,642.556272
3 Feb 2020 18:39:36.000,294.758,37.378,639.752269
3 Feb 2020 18:39:37.000,295.480,37.598,637.015341
3 Feb 2020 18:39:38.000,296.213,37.815,634.346360
3 Feb 2020 18:39:39.000,296.956,38.028,631.746189
3 Feb 2020 18:39:40.000,297.709,38.238,629.215684
3 Feb 2020 18:39:41.000,298.473,38.445,626.755690
3 Feb 2020 18:39:42.000,299.247,38.647,624.367047
3 Feb 2020 18:39:43.000,300.031,38.845,622.050573
3 Feb 2020 18:39:44.000,300.826,39.039,619.807082
3 Feb 2020 18:39:45.000,301.630,39.228,617.637372
3 Feb 2020 18:39:46.000,302.444,39.413,615.542227
3 Feb 2020 18:39:47.000,303.268,39.592,613.522408
3 Feb 2020 18:39:48.000,304.102,39.766,611.578666
3 Feb 2020 18:39:49.000,304.945,39.935,609.711732
3 Feb 2020 18:39:50.000,305.797,40.098,607.922311
3 Feb 2020 18:39:51.000,306.658,40.255,606.211092
3 Feb 2020 18:39:52.000,307.527,40.406,604.578745
3 Feb 2020 18:39:53.000,308.405,40.551,603.025906
3 Feb 2020 18:39:54.000,309.291,40.689,601.553197
3 Feb 2020 18:39:55.000,310.185,40.821,600.161203
3 Feb 2020 18:39:56.000,311.087,40.946,598.850495
3 Feb 2020 18:39:57.000,311.995,41.063,597.621602
3 Feb 2020 18:39:58.000,312.911,41.174,596.475035
3 Feb 2020 18:39:59.000,313.833,41.277,595.411270
3 Feb 2020 18:40:00.000,314.760,41.372,594.430749
3 Feb 2020 18:40:01.000,315.694,41.460,593.533889
3 Feb 2020 18:40:02.000,316.632,41.540,592.721069
3 Feb 2020 18:40:03.000,317.575,41.612,591.992633
3 Feb 2020 18:40:04.000,318.522,41.675,591.348896
3 Feb 2020 18:40:05.000,319.473,41.731,590.790135
3 Feb 2020 18:40:06.000,320.427,41.779,590.316590
3 Feb 2020 18:40:07.000,321.384,41.818,589.928467
3 Feb 2020 18:40:08.000,322.343,41.848,589.625935
3 Feb 2020 18:40:09.000,323.303,41.870,589.409123
3 Feb 2020 18:40:10.000,324.265,41.884,589.278127
3 Feb 2020 18:40:11.000,325.227,41.889,589.233005
3 Feb 2020 18:40:12.000,326.189,41.886,589.273774
3 Feb 2020 18:40:13.000,327.151,41.874,589.400418
3 Feb 2020 18:40:14.000,328.111,41.854,589.612880
3 Feb 2020 18:40:15.000,329.071,41.825,589.911065
3 Feb 2020 18:40:16.000,330.028,41.788,590.294842
3 Feb 2020 18:40:17.000,330.982,41.742,590.764045
3 Feb 2020 18:40:18.000,331.933,41.688,591.318469
3 Feb 2020 18:40:19.000,332.881,41.626,591.957872
3 Feb 2020 18:40:20.000,333.824,41.556,592.681979
3 Feb 2020 18:40:21.000,334.763,41.478,593.490480
3 Feb 2020 18:40:22.000,335.697,41.392,594.383025
3 Feb 2020 18:40:23.000,336.626,41.298,595.359237
3 Feb 2020 18:40:24.000,337.548,41.196,596.418704
3 Feb 2020 18:40:25.000,338.465,41.088,597.560979
3 Feb 2020 18:40:26.000,339.374,40.972,598.785588
3 Feb 2020 18:40:27.000,340.277,40.849,600.092024
3 Feb 2020 18:40:28.000,341.171,40.719,601.479752
3 Feb 2020 18:40:29.000,342.059,40.582,602.948210
3 Feb 2020 18:40:30.000,342.938,40.439,604.496804
3 Feb 2020 18:40:31.000,343.808,40.289,606.124921
3 Feb 2020 18:40:32.000,344.671,40.133,607.831916
3 Feb 2020 18:40:33.000,345.524,39.972,609.617127
3 Feb 2020 18:40:34.000,346.368,39.805,611.479864
3 Feb 2020 18:40:35.000,347.202,39.632,613.419419
3 Feb 2020 18:40:36.000,348.028,39.454,615.435063
3 Feb 2020 18:40:37.000,348.843,39.271,617.526048
3 Feb 2020 18:40:38.000,349.649,39.083,619.691606
3 Feb 2020 18:40:39.000,350.444,38.890,621.930959
3 Feb 2020 18:40:40.000,351.230,38.693,624.243306
3 Feb 2020 18:40:41.000,352.005,38.492,626.627838
3 Feb 2020 18:40:42.000,352.770,38.287,629.083729
3 Feb 2020 18:40:43.000,353.525,38.078,631.610145
3 Feb 2020 18:40:44.000,354.270,37.866,634.206238
3 Feb 2020 18:40:45.000,355.004,37.650,636.871154
3 Feb 2020 18:40:46.000,355.727,37.431,639.604027
3 Feb 2020 18:40:47.000,356.441,37.209,642.403987
3 Feb 2020 18:40:48.000,357.144,36.984,645.270158
3 Feb 2020 18:40:49.000,357.836,36.757,648.201655
3 Feb 2020 18:40:50.000,358.518,36.528,651.197595
3 Feb 2020 18:40:51.000,359.190,36.296,654.257086
3 Feb 2020 18:40:52.000,359.852,36.062,657.379237
3 Feb 2020 18:40:53.000,0.503,35.827,660.563157
3 Feb 2020 18:40:54.000,1.145,35.590,663.807952
3 Feb 2020 18:40:55.000,1.776,35.351,667.112728
3 Feb 2020 18:40:56.000,2.397,35.111,670.476596
3 Feb 2020 18:40:57.000,3.009,34.870,673.898664
3 Feb 2020 18:40:58.000,3.611,34.628,677.378048
3 Feb 2020 18:40:59.000,4.203,34.385,680.913863
3 Feb 2020 18:41:00.000,4.786,34.141,684.505231
3 Feb 2020 18:41:01.000,5.359,33.896,688.151277
3 Feb 2020 18:41:02.000,5.923,33.651,691.851131
3 Feb 2020 18:41:03.000,6.478,33.406,695.603930
3 Feb 2020 18:41:04.000,7.024,33.160,699.408817
3 Feb 2020 18:41:05.000,7.561,32.915,703.264943
3 Feb 2020 18:41:06.000,8.089,32.669,707.171462
3 Feb 2020 18:41:07.000,8.608,32.423,711.127540
3 Feb 2020 18:41:08.000,9.119,32.178,715.132349
3 Feb 2020 18:41:09.000,9.622,31.933,719.185071
3 Feb 2020 18:41:10.000,10.116,31.688,723.284893
3 Feb 2020 18:41:11.000,10.602,31.443,727.431015
3 Feb 2020 18:41:12.000,11.080,31.199,731.622644
3 Feb 2020 18:41:13.000,11.551,30.956,735.858997
3 Feb 2020 18:41:14.000,12.013,30.713,740.139301
3 Feb 2020 18:41:15.000,12.468,30.471,744.462792
3 Feb 2020 18:41:16.000,12.916,30.230,748.828715
3 Feb 2020 18:41:17.000,13.356,29.990,753.236329
3 Feb 2020 18:41:18.000,13.789,29.750,757.684900
3 Feb 2020 18:41:19.000,14.215,29.512,762.173704
3 Feb 2020 18:41:20.000,14.634,29.274,766.702030
3 Feb 2020 18:41:21.000,15.046,29.038,771.269176
3 Feb 2020 18:41:22.000,15.452,28.803,775.874449
3 Feb 2020 18:41:23.000,15.850,28.568,780.517171
3 Feb 2020 18:41:24.000,16.243,28.335,785.196669
3 Feb 2020 18:41:25.000,16.629,28.104,789.912284
3 Feb 2020 18:41:26.000,17.009,27.873,794.663370
3 Feb 2020 18:41:27.000,17.383,27.644,799.449285
3 Feb 2020 18:41:28.000,17.751,27.416,804.269403
3 Feb 2020 18:41:29.000,18.113,27.189,809.123106
3 Feb 2020 18:41:30.000,18.470,26.964,814.009786
3 Feb 2020 18:41:31.000,18.820,26.740,818.928850
3 Feb 2020 18:41:32.000,19.166,26.517,823.879708
3 Feb 2020 18:41:33.000,19.506,26.296,828.861786
3 Feb 2020 18:41:34.000,19.840,26.077,833.874518
3 Feb 2020 18:41:35.000,20.169,25.858,838.917347
3 Feb 2020 18:41:36.000,20.494,25.642,843.989729
3 Feb 2020 18:41:37.000,20.813,25.426,849.091127
3 Feb 2020 18:41:38.000,21.127,25.212,854.221014
3 Feb 2020 18:41:39.000,21.437,25.000,859.378875
3 Feb 2020 18:41:40.000,21.742,24.789,864.564202
3 Feb 2020 18:41:41.000,22.042,24.579,869.776497
3 Feb 2020 18:41:42.000,22.338,24.371,875.015272
3 Feb 2020 18:41:43.000,22.629,24.165,880.280047
3 Feb 2020 18:41:44.000,22.916,23.960,885.570353
3 Feb 2020 18:41:45.000,23.198,23.756,890.885728
3 Feb 2020 18:41:46.000,23.477,23.554,896.225718
3 Feb 2020 18:41:47.000,23.751,23.354,901.589881
3 Feb 2020 18:41:48.000,24.022,23.155,906.977780
3 Feb 2020 18:41:49.000,24.288,22.957,912.388990
3 Feb 2020 18:41:50.000,24.550,22.761,917.823089
3 Feb 2020 18:41:51.000,24.809,22.566,923.279667
3 Feb 2020 18:41:52.000,25.064,22.373,928.758322
3 Feb 2020 18:41:53.000,25.315,22.182,934.258658
3 Feb 2020 18:41:54.000,25.563,21.991,939.780289
3 Feb 2020 18:41:55.000,25.807,21.803,945.322832
3 Feb 2020 18:41:56.000,26.048,21.615,950.885917
3 Feb 2020 18:41:57.000,26.286,21.429,956.469177
3 Feb 2020 18:41:58.000,26.520,21.245,962.072255
3 Feb 2020 18:41:59.000,26.751,21.062,967.694800
3 Feb 2020 18:42:00.000,26.978,20.880,973.336466
3 Feb 2020 18:42:01.000,27.203,20.700,978.996918
3 Feb 2020 18:42:02.000,27.424,20.521,984.675824
3 Feb 2020 18:42:03.000,27.643,20.344,990.372859
3 Feb 2020 18:42:04.000,27.858,20.168,996.087704
3 Feb 2020 18:42:05.000,28.071,19.993,1001.820049
3 Feb 2020 18:42:06.000,28.281,19.819,1007.569587
3 Feb 2020 18:42:07.000,28.488,19.647,1013.336019
3 Feb 2020 18:42:08.000,28.692,19.477,1019.119050
3 Feb 2020 18:42:09.000,28.894,19.307,1024.918394
3 Feb 2020 18:42:10.000,29.092,19.139,1030.733767
3 Feb 2020 18:42:11.000,29.289,18.972,1036.564892
3 Feb 2020 18:42:12.000,29.482,18.807,1042.411498
3 Feb 2020 18:42:13.000,29.674,18.643,1048.273319
3 Feb 2020 18:42:14.000,29.863,18.480,1054.150093
3 Feb 2020 18:42:15.000,30.049,18.318,1060.041566
3 Feb 2020 18:42:16.000,30.233,18.157,1065.947485
3 Feb 2020 18:42:17.000,30.415,17.998,1071.867604
3 Feb 2020 18:42:18.000,30.594,17.840,1077.801683
3 Feb 2020 18:42:19.000,30.771,17.683,1083.749485
3 Feb 2020 18:42:20.000,30.946,17.527,1089.710777
3 Feb 2020 18:42:21.000,31.119,17.373,1095.685333
3 Feb 2020 18:42:22.000,31.290,17.220,1101.672929
3 Feb 2020 18:42:23.000,31.458,17.067,1107.673346
3 Feb 2020 18:42:24.000,31.625,16.916,1113.686370
3 Feb 2020 18:42:25.000,31.789,16.767,1119.711790
3 Feb 2020 18:42:26.000,31.952,16.618,1125.749401
3 Feb 2020 18:42:27.000,32.113,16.470,1131.798999
3 Feb 2020 18:42:28.000,32.271,16.324,1137.860385
3 Feb 2020 18:42:29.000,32.428,16.178,1143.933366
3 Feb 2020 18:42:30.000,32.583,16.034,1150.017750
3 Feb 2020 18:42:31.000,32.736,15.890,1156.113347
3 Feb 2020 18:42:32.000,32.888,15.748,1162.219978
3 Feb 2020 18:42:33.000,33.037,15.607,1168.337460
3 Feb 2020 18:42:34.000,33.185,15.466,1174.465616
3 Feb 2020 18:42:35.000,33.331,15.327,1180.604272
3 Feb 2020 18:42:36.000,33.476,15.189,1186.753258
3 Feb 2020 18:42:37.000,33.619,15.052,1192.912407
3 Feb 2020 18:42:38.000,33.760,14.915,1199.081555
3 Feb 2020 18:42:39.000,33.899,14.780,1205.260540
3 Feb 2020 18:42:40.000,34.038,14.646,1211.449205
3 Feb 2020 18:42:41.000,34.174,14.513,1217.647394
3 Feb 2020 18:42:42.000,34.309,14.380,1223.854955
3 Feb 2020 18:42:43.000,34.443,14.249,1230.071739
3 Feb 2020 18:42:44.000,34.575,14.118,1236.297599
3 Feb 2020 18:42:45.000,34.705,13.988,1242.532391
3 Feb 2020 18:42:46.000,34.835,13.860,1248.775973
3 Feb 2020 18:42:47.000,34.963,13.732,1255.028207
3 Feb 2020 18:42:48.000,35.089,13.605,1261.288955
3 Feb 2020 18:42:49.000,35.214,13.478,1267.558086
3 Feb 2020 18:42:50.000,35.338,13.353,1273.835468
3 Feb 2020 18:42:51.000,35.460,13.229,1280.120971
3 Feb 2020 18:42:52.000,35.582,13.105,1286.414469
3 Feb 2020 18:42:53.000,35.702,12.982,1292.715837
3 Feb 2020 18:42:54.000,35.820,12.860,1299.024953
3 Feb 2020 18:42:55.000,35.938,12.739,1305.341698
3 Feb 2020 18:42:56.000,36.054,12.619,1311.665952
3 Feb 2020 18:42:57.000,36.169,12.499,1317.997601
3 Feb 2020 18:42:58.000,36.283,12.381,1324.336529
3 Feb 2020 18:42:59.000,36.396,12.263,1330.682627
3 Feb 2020 18:43:00.000,36.507,12.145,1337.035785
3 Feb 2020 18:43:01.000,36.618,12.029,1343.395894
3 Feb 2020 18:43:02.000,36.727,11.913,1349.762848
3 Feb 2020 18:43:03.000,36.835,11.798,1356.136544
3 Feb 2020 18:43:04.000,36.943,11.684,1362.516878
3 Feb 2020 18:43:05.000,37.049,11.570,1368.903751
3 Feb 2020 18:43:06.000,37.154,11.458,1375.297061
3 Feb 2020 18:43:07.000,37.258,11.346,1381.696716
3 Feb 2020 18:43:08.000,37.361,11.234,1388.102617
3 Feb 2020 18:43:09.000,37.463,11.123,1394.514671
3 Feb 2020 18:43:10.000,37.564,11.013,1400.932787
3 Feb 2020 18:43:11.000,37.664,10.904,1407.356872
3 Feb 2020 18:43:12.000,37.763,10.795,1413.786838
3 Feb 2020 18:43:13.000,37.862,10.687,1420.222596
3 Feb 2020 18:43:14.000,37.959,10.580,1426.664063
3 Feb 2020 18:43:15.000,38.055,10.473,1433.111152
3 Feb 2020 18:43:16.000,38.151,10.367,1439.563780
3 Feb 2020 18:43:17.000,38.245,10.262,1446.021865
3 Feb 2020 18:43:18.000,38.339,10.157,1452.485327
3 Feb 2020 18:43:19.000,38.432,10.052,1458.954086
3 Feb 2020 18:43:20.000,38.524,9.949,1465.428062
3 Feb 2020 18:43:21.000,38.615,9.846,1471.907182
3 Feb 2020 18:43:22.000,38.706,9.743,1478.391370
3 Feb 2020 18:43:23.000,38.795,9.642,1484.880551
3 Feb 2020 18:43:24.000,38.884,9.540,1491.374651
3 Feb 2020 18:43:25.000,38.972,9.440,1497.873600
3 Feb 2020 18:43:26.000,39.059,9.340,1504.377324
3 Feb 2020 18:43:27.000,39.146,9.240,1510.885758
3 Feb 2020 18:43:28.000,39.231,9.141,1517.398831
3 Feb 2020 18:43:29.000,39.316,9.043,1523.916477
3 Feb 2020 18:43:30.000,39.400,8.945,1530.438628
3 Feb 2020 18:43:31.000,39.484,8.847,1536.965220
3 Feb 2020 18:43:32.000,39.566,8.750,1543.496186
3 Feb 2020 18:43:33.000,39.648,8.654,1550.031467
3 Feb 2020 18:43:34.000,39.730,8.558,1556.570999
3 Feb 2020 18:43:35.000,39.810,8.463,1563.114721
3 Feb 2020 18:43:36.000,39.890,8.368,1569.662573
3 Feb 2020 18:43:37.000,39.969,8.274,1576.214492
3 Feb 2020 18:43:38.000,40.048,8.180,1582.770425
3 Feb 2020 18:43:39.000,40.126,8.087,1589.330312
3 Feb 2020 18:43:40.000,40.203,7.994,1595.894097
3 Feb 2020 18:43:41.000,40.280,7.902,1602.461724
3 Feb 2020 18:43:42.000,40.356,7.810,1609.033134
3 Feb 2020 18:43:43.000,40.431,7.719,1615.608280
3 Feb 2020 18:43:44.000,40.506,7.628,1622.187105
3 Feb 2020 18:43:45.000,40.580,7.538,1628.769557
3 Feb 2020 18:43:46.000,40.654,7.448,1635.355584
3 Feb 2020 18:43:47.000,40.727,7.358,1641.945135
3 Feb 2020 18:43:48.000,40.799,7.269,1648.538157
3 Feb 2020 18:43:49.000,40.871,7.181,1655.134606
3 Feb 2020 18:43:50.000,40.942,7.092,1661.734431
3 Feb 2020 18:43:51.000,41.013,7.005,1668.337584
3 Feb 2020 18:43:52.000,41.083,6.917,1674.944018
3 Feb 2020 18:43:53.000,41.152,6.831,1681.553682
3 Feb 2020 18:43:54.000,41.221,6.744,1688.166538
3 Feb 2020 18:43:55.000,41.290,6.658,1694.782535
3 Feb 2020 18:43:56.000,41.358,6.572,1701.401631
3 Feb 2020 18:43:57.000,41.425,6.487,1708.023779
3 Feb 2020 18:43:58.000,41.492,6.402,1714.648939
3 Feb 2020 18:43:59.000,41.558,6.318,1721.277068
3 Feb 2020 18:44:00.000,41.624,6.234,1727.908122
3 Feb 2020 18:44:01.000,41.690,6.150,1734.542061
3 Feb 2020 18:44:02.000,41.754,6.067,1741.178841
3 Feb 2020 18:44:03.000,41.819,5.984,1747.818426
3 Feb 2020 18:44:04.000,41.883,5.902,1754.460775
3 Feb 2020 18:44:05.000,41.946,5.820,1761.105847
3 Feb 2020 18:44:06.000,42.009,5.738,1767.753605
3 Feb 2020 18:44:07.000,42.072,5.657,1774.404008
3 Feb 2020 18:44:08.000,42.134,5.575,1781.057022
3 Feb 2020 18:44:09.000,42.195,5.495,1787.712609
3 Feb 2020 18:44:10.000,42.257,5.415,1794.370732
3 Feb 2020 18:44:11.000,42.317,5.335,1801.031352
3 Feb 2020 18:44:12.000,42.378,5.255,1807.694439
3 Feb 2020 18:44:13.000,42.437,5.176,1814.359954
3 Feb 2020 18:44:14.000,42.497,5.097,1821.027864
3 Feb 2020 18:44:15.000,42.556,5.018,1827.698134
3 Feb 2020 18:44:16.000,42.614,4.940,1834.370727
3 Feb 2020 18:44:17.000,42.672,4.862,1841.045616
3 Feb 2020 18:44:18.000,42.730,4.785,1847.722765
3 Feb 2020 18:44:19.000,42.788,4.707,1854.402142
3 Feb 2020 18:44:20.000,42.844,4.630,1861.083712
3 Feb 2020 18:44:21.000,42.901,4.554,1867.767449
3 Feb 2020 18:44:22.000,42.957,4.477,1874.453319
3 Feb 2020 18:44:23.000,43.013,4.401,1881.141291
3 Feb 2020 18:44:24.000,43.068,4.326,1887.831335
3 Feb 2020 18:44:25.000,43.123,4.250,1894.523418
3 Feb 2020 18:44:26.000,43.178,4.175,1901.217516
3 Feb 2020 18:44:27.000,43.232,4.101,1907.913597
3 Feb 2020 18:44:28.000,43.286,4.026,1914.611633
3 Feb 2020 18:44:29.000,43.340,3.952,1921.311592
3 Feb 2020 18:44:30.000,43.393,3.878,1928.013451
3 Feb 2020 18:44:31.000,43.446,3.804,1934.717180
3 Feb 2020 18:44:32.000,43.498,3.731,1941.422752
3 Feb 2020 18:44:33.000,43.550,3.658,1948.130137
3 Feb 2020 18:44:34.000,43.602,3.585,1954.839313
3 Feb 2020 18:44:35.000,43.653,3.513,1961.550251
3 Feb 2020 18:44:36.000,43.705,3.441,1968.262926
3 Feb 2020 18:44:37.000,43.755,3.369,1974.977309
3 Feb 2020 18:44:38.000,43.806,3.297,1981.693380
3 Feb 2020 18:44:39.000,43.856,3.226,1988.411111
3 Feb 2020 18:44:40.000,43.906,3.155,1995.130477
3 Feb 2020 18:44:41.000,43.955,3.084,2001.851451
3 Feb 2020 18:44:42.000,44.004,3.013,2008.574015
3 Feb 2020 18:44:43.000,44.053,2.943,2015.298141
3 Feb 2020 18:44:44.000,44.102,2.873,2022.023806
3 Feb 2020 18:44:45.000,44.150,2.803,2028.750987
3 Feb 2020 18:44:46.000,44.198,2.733,2035.479658
3 Feb 2020 18:44:47.000,44.246,2.664,2042.209801
3 Feb 2020 18:44:48.000,44.293,2.595,2048.941391
3 Feb 2020 18:44:49.000,44.340,2.526,2055.674406
3 Feb 2020 18:44:50.000,44.387,2.457,2062.408822
3 Feb 2020 18:44:51.000,44.433,2.389,2069.144622
3 Feb 2020 18:44:52.000,44.479,2.321,2075.881781
3 Feb 2020 18:44:53.000,44.525,2.253,2082.620279
3 Feb 2020 18:44:54.000,44.571,2.185,2089.360091
3 Feb 2020 18:44:55.000,44.616,2.118,2096.101203
3 Feb 2020 18:44:56.000,44.661,2.051,2102.843592
3 Feb 2020 18:44:57.000,44.706,1.984,2109.587236
3 Feb 2020 18:44:58.000,44.751,1.917,2116.332113
3 Feb 2020 18:44:59.000,44.795,1.850,2123.078209
3 Feb 2020 18:45:00.000,44.839,1.784,2129.825501
3 Feb 2020 18:45:01.000,44.883,1.718,2136.573970
3 Feb 2020 18:45:02.000,44.926,1.652,2143.323594
3 Feb 2020 18:45:03.000,44.969,1.586,2150.074360
3 Feb 2020 18:45:04.000,45.012,1.521,2156.826246
3 Feb 2020 18:45:05.000,45.055,1.456,2163.579233
3 Feb 2020 18:45:06.000,45.098,1.391,2170.333301
3 Feb 2020 18:45:07.000,45.140,1.326,2177.088437
3 Feb 2020 18:45:08.000,45.182,1.261,2183.844620
3 Feb 2020 18:45:09.000,45.224,1.197,2190.601832
3 Feb 2020 18:45:10.000,45.265,1.133,2197.360053
3 Feb 2020 18:45:11.000,45.306,1.069,2204.119271
