vcc_sched/network/input/aer_uvags_wj2xmr_vcc-c_44430.csv

"Time (UTCG)","Azimuth (deg)","Elevation (deg)","Range (km)"
1 Dec 2019 18:38:27.889,202.009,-0.124,2313.296031
1 Dec 2019 18:38:28.000,202.002,-0.118,2312.574764
1 Dec 2019 18:38:29.000,201.939,-0.059,2306.064766
1 Dec 2019 18:38:30.000,201.876,-0.001,2299.557363
1 Dec 2019 18:38:31.000,201.812,0.058,2293.052585
1 Dec 2019 18:38:32.000,201.748,0.117,2286.550463
1 Dec 2019 18:38:33.000,201.684,0.176,2280.051028
1 Dec 2019 18:38:34.000,201.619,0.235,2273.554308
1 Dec 2019 18:38:35.000,201.554,0.295,2267.060339
1 Dec 2019 18:38:36.000,201.488,0.354,2260.569150
1 Dec 2019 18:38:37.000,201.422,0.414,2254.080774
1 Dec 2019 18:38:38.000,201.356,0.474,2247.595243
1 Dec 2019 18:38:39.000,201.289,0.534,2241.112589
1 Dec 2019 18:38:40.000,201.222,0.594,2234.632844
1 Dec 2019 18:38:41.000,201.155,0.654,2228.156045
1 Dec 2019 18:38:42.000,201.087,0.715,2221.682224
1 Dec 2019 18:38:43.000,201.019,0.776,2215.211414
1 Dec 2019 18:38:44.000,200.950,0.836,2208.743650
1 Dec 2019 18:38:45.000,200.881,0.897,2202.278967
1 Dec 2019 18:38:46.000,200.811,0.958,2195.817399
1 Dec 2019 18:38:47.000,200.741,1.020,2189.358984
1 Dec 2019 18:38:48.000,200.671,1.081,2182.903757
1 Dec 2019 18:38:49.000,200.600,1.143,2176.451754
1 Dec 2019 18:38:50.000,200.529,1.204,2170.003011
1 Dec 2019 18:38:51.000,200.457,1.266,2163.557566
1 Dec 2019 18:38:52.000,200.385,1.328,2157.115456
1 Dec 2019 18:38:53.000,200.313,1.391,2150.676719
1 Dec 2019 18:38:54.000,200.240,1.453,2144.241393
1 Dec 2019 18:38:55.000,200.166,1.516,2137.809518
1 Dec 2019 18:38:56.000,200.092,1.578,2131.381133
1 Dec 2019 18:38:57.000,200.018,1.641,2124.956276
1 Dec 2019 18:38:58.000,199.943,1.705,2118.534989
1 Dec 2019 18:38:59.000,199.868,1.768,2112.117310
1 Dec 2019 18:39:00.000,199.792,1.831,2105.703281
1 Dec 2019 18:39:01.000,199.716,1.895,2099.292945
1 Dec 2019 18:39:02.000,199.639,1.959,2092.886342
1 Dec 2019 18:39:03.000,199.562,2.023,2086.483516
1 Dec 2019 18:39:04.000,199.484,2.087,2080.084507
1 Dec 2019 18:39:05.000,199.406,2.151,2073.689361
1 Dec 2019 18:39:06.000,199.327,2.216,2067.298120
1 Dec 2019 18:39:07.000,199.248,2.281,2060.910828
1 Dec 2019 18:39:08.000,199.168,2.345,2054.527531
1 Dec 2019 18:39:09.000,199.088,2.411,2048.148274
1 Dec 2019 18:39:10.000,199.007,2.476,2041.773103
1 Dec 2019 18:39:11.000,198.926,2.541,2035.402063
1 Dec 2019 18:39:12.000,198.844,2.607,2029.035201
1 Dec 2019 18:39:13.000,198.762,2.673,2022.672566
1 Dec 2019 18:39:14.000,198.679,2.739,2016.314204
1 Dec 2019 18:39:15.000,198.595,2.805,2009.960163
1 Dec 2019 18:39:16.000,198.511,2.872,2003.610494
1 Dec 2019 18:39:17.000,198.427,2.938,1997.265245
1 Dec 2019 18:39:18.000,198.342,3.005,1990.924467
1 Dec 2019 18:39:19.000,198.256,3.072,1984.588211
1 Dec 2019 18:39:20.000,198.170,3.139,1978.256526
1 Dec 2019 18:39:21.000,198.083,3.207,1971.929467
1 Dec 2019 18:39:22.000,197.995,3.275,1965.607084
1 Dec 2019 18:39:23.000,197.908,3.342,1959.289431
1 Dec 2019 18:39:24.000,197.819,3.411,1952.976561
1 Dec 2019 18:39:25.000,197.730,3.479,1946.668529
1 Dec 2019 18:39:26.000,197.640,3.547,1940.365391
1 Dec 2019 18:39:27.000,197.550,3.616,1934.067201
1 Dec 2019 18:39:28.000,197.459,3.685,1927.774017
1 Dec 2019 18:39:29.000,197.367,3.754,1921.485893
1 Dec 2019 18:39:30.000,197.275,3.823,1915.202890
1 Dec 2019 18:39:31.000,197.182,3.893,1908.925064
1 Dec 2019 18:39:32.000,197.088,3.963,1902.652475
1 Dec 2019 18:39:33.000,196.994,4.033,1896.385182
1 Dec 2019 18:39:34.000,196.899,4.103,1890.123245
1 Dec 2019 18:39:35.000,196.804,4.174,1883.866727
1 Dec 2019 18:39:36.000,196.708,4.244,1877.615690
1 Dec 2019 18:39:37.000,196.611,4.315,1871.370194
1 Dec 2019 18:39:38.000,196.514,4.386,1865.130305
1 Dec 2019 18:39:39.000,196.415,4.458,1858.896086
1 Dec 2019 18:39:40.000,196.317,4.529,1852.667602
1 Dec 2019 18:39:41.000,196.217,4.601,1846.444919
1 Dec 2019 18:39:42.000,196.117,4.673,1840.228103
1 Dec 2019 18:39:43.000,196.016,4.746,1834.017222
1 Dec 2019 18:39:44.000,195.914,4.818,1827.812344
1 Dec 2019 18:39:45.000,195.812,4.891,1821.613537
1 Dec 2019 18:39:46.000,195.708,4.964,1815.420873
1 Dec 2019 18:39:47.000,195.605,5.037,1809.234420
1 Dec 2019 18:39:48.000,195.500,5.111,1803.054252
1 Dec 2019 18:39:49.000,195.395,5.185,1796.880441
1 Dec 2019 18:39:50.000,195.288,5.259,1790.713060
1 Dec 2019 18:39:51.000,195.181,5.333,1784.552183
1 Dec 2019 18:39:52.000,195.074,5.408,1778.397885
1 Dec 2019 18:39:53.000,194.965,5.482,1772.250243
1 Dec 2019 18:39:54.000,194.856,5.557,1766.109334
1 Dec 2019 18:39:55.000,194.746,5.633,1759.975236
1 Dec 2019 18:39:56.000,194.635,5.708,1753.848028
1 Dec 2019 18:39:57.000,194.523,5.784,1747.727790
1 Dec 2019 18:39:58.000,194.411,5.860,1741.614602
1 Dec 2019 18:39:59.000,194.297,5.936,1735.508548
1 Dec 2019 18:40:00.000,194.183,6.013,1729.409710
1 Dec 2019 18:40:01.000,194.068,6.090,1723.318173
1 Dec 2019 18:40:02.000,193.952,6.167,1717.234021
1 Dec 2019 18:40:03.000,193.835,6.244,1711.157341
1 Dec 2019 18:40:04.000,193.718,6.322,1705.088221
1 Dec 2019 18:40:05.000,193.599,6.400,1699.026748
1 Dec 2019 18:40:06.000,193.480,6.478,1692.973013
1 Dec 2019 18:40:07.000,193.359,6.557,1686.927106
1 Dec 2019 18:40:08.000,193.238,6.636,1680.889120
1 Dec 2019 18:40:09.000,193.116,6.715,1674.859147
1 Dec 2019 18:40:10.000,192.992,6.794,1668.837282
1 Dec 2019 18:40:11.000,192.868,6.874,1662.823620
1 Dec 2019 18:40:12.000,192.743,6.954,1656.818259
1 Dec 2019 18:40:13.000,192.617,7.034,1650.821295
1 Dec 2019 18:40:14.000,192.490,7.114,1644.832830
1 Dec 2019 18:40:15.000,192.362,7.195,1638.852962
1 Dec 2019 18:40:16.000,192.233,7.276,1632.881794
1 Dec 2019 18:40:17.000,192.103,7.357,1626.919430
1 Dec 2019 18:40:18.000,191.972,7.439,1620.965973
1 Dec 2019 18:40:19.000,191.840,7.521,1615.021530
1 Dec 2019 18:40:20.000,191.707,7.603,1609.086207
1 Dec 2019 18:40:21.000,191.573,7.686,1603.160114
1 Dec 2019 18:40:22.000,191.438,7.769,1597.243361
1 Dec 2019 18:40:23.000,191.301,7.852,1591.336059
1 Dec 2019 18:40:24.000,191.164,7.935,1585.438321
1 Dec 2019 18:40:25.000,191.026,8.019,1579.550262
1 Dec 2019 18:40:26.000,190.886,8.103,1573.671998
1 Dec 2019 18:40:27.000,190.745,8.187,1567.803645
1 Dec 2019 18:40:28.000,190.604,8.272,1561.945324
1 Dec 2019 18:40:29.000,190.461,8.357,1556.097154
1 Dec 2019 18:40:30.000,190.317,8.442,1550.259258
1 Dec 2019 18:40:31.000,190.171,8.528,1544.431759
1 Dec 2019 18:40:32.000,190.025,8.614,1538.614784
1 Dec 2019 18:40:33.000,189.877,8.700,1532.808458
1 Dec 2019 18:40:34.000,189.728,8.786,1527.012912
1 Dec 2019 18:40:35.000,189.578,8.873,1521.228274
1 Dec 2019 18:40:36.000,189.427,8.960,1515.454677
1 Dec 2019 18:40:37.000,189.274,9.048,1509.692256
1 Dec 2019 18:40:38.000,189.121,9.136,1503.941146
1 Dec 2019 18:40:39.000,188.966,9.224,1498.201484
1 Dec 2019 18:40:40.000,188.809,9.312,1492.473408
1 Dec 2019 18:40:41.000,188.652,9.401,1486.757062
1 Dec 2019 18:40:42.000,188.493,9.490,1481.052586
1 Dec 2019 18:40:43.000,188.332,9.579,1475.360127
1 Dec 2019 18:40:44.000,188.171,9.669,1469.679831
1 Dec 2019 18:40:45.000,188.008,9.759,1464.011846
1 Dec 2019 18:40:46.000,187.843,9.849,1458.356323
1 Dec 2019 18:40:47.000,187.678,9.940,1452.713416
1 Dec 2019 18:40:48.000,187.510,10.031,1447.083277
1 Dec 2019 18:40:49.000,187.342,10.123,1441.466065
1 Dec 2019 18:40:50.000,187.172,10.214,1435.861937
1 Dec 2019 18:40:51.000,187.001,10.306,1430.271055
1 Dec 2019 18:40:52.000,186.828,10.399,1424.693581
1 Dec 2019 18:40:53.000,186.653,10.491,1419.129680
1 Dec 2019 18:40:54.000,186.477,10.584,1413.579521
1 Dec 2019 18:40:55.000,186.300,10.677,1408.043271
1 Dec 2019 18:40:56.000,186.121,10.771,1402.521103
1 Dec 2019 18:40:57.000,185.941,10.865,1397.013191
1 Dec 2019 18:40:58.000,185.759,10.959,1391.519711
1 Dec 2019 18:40:59.000,185.575,11.054,1386.040840
1 Dec 2019 18:41:00.000,185.390,11.149,1380.576761
1 Dec 2019 18:41:01.000,185.203,11.244,1375.127656
1 Dec 2019 18:41:02.000,185.015,11.340,1369.693711
1 Dec 2019 18:41:03.000,184.825,11.436,1364.275114
1 Dec 2019 18:41:04.000,184.633,11.532,1358.872054
1 Dec 2019 18:41:05.000,184.440,11.629,1353.484725
1 Dec 2019 18:41:06.000,184.245,11.725,1348.113323
1 Dec 2019 18:41:07.000,184.048,11.823,1342.758045
1 Dec 2019 18:41:08.000,183.849,11.920,1337.419091
1 Dec 2019 18:41:09.000,183.649,12.018,1332.096664
1 Dec 2019 18:41:10.000,183.447,12.116,1326.790971
1 Dec 2019 18:41:11.000,183.243,12.215,1321.502219
1 Dec 2019 18:41:12.000,183.038,12.313,1316.230618
1 Dec 2019 18:41:13.000,182.830,12.413,1310.976383
1 Dec 2019 18:41:14.000,182.621,12.512,1305.739730
1 Dec 2019 18:41:15.000,182.410,12.612,1300.520878
1 Dec 2019 18:41:16.000,182.197,12.712,1295.320048
1 Dec 2019 18:41:17.000,181.982,12.812,1290.137465
1 Dec 2019 18:41:18.000,181.765,12.913,1284.973357
1 Dec 2019 18:41:19.000,181.546,13.013,1279.827952
1 Dec 2019 18:41:20.000,181.325,13.115,1274.701485
1 Dec 2019 18:41:21.000,181.103,13.216,1269.594191
1 Dec 2019 18:41:22.000,180.878,13.318,1264.506308
1 Dec 2019 18:41:23.000,180.651,13.420,1259.438080
1 Dec 2019 18:41:24.000,180.422,13.522,1254.389749
1 Dec 2019 18:41:25.000,180.192,13.625,1249.361564
1 Dec 2019 18:41:26.000,179.959,13.728,1244.353775
1 Dec 2019 18:41:27.000,179.724,13.831,1239.366635
1 Dec 2019 18:41:28.000,179.486,13.934,1234.400402
1 Dec 2019 18:41:29.000,179.247,14.038,1229.455335
1 Dec 2019 18:41:30.000,179.006,14.142,1224.531697
1 Dec 2019 18:41:31.000,178.762,14.246,1219.629752
1 Dec 2019 18:41:32.000,178.516,14.350,1214.749771
1 Dec 2019 18:41:33.000,178.268,14.455,1209.892025
1 Dec 2019 18:41:34.000,178.018,14.560,1205.056788
1 Dec 2019 18:41:35.000,177.765,14.665,1200.244340
1 Dec 2019 18:41:36.000,177.510,14.770,1195.454961
1 Dec 2019 18:41:37.000,177.253,14.876,1190.688936
1 Dec 2019 18:41:38.000,176.993,14.981,1185.946552
1 Dec 2019 18:41:39.000,176.732,15.087,1181.228100
1 Dec 2019 18:41:40.000,176.467,15.193,1176.533875
1 Dec 2019 18:41:41.000,176.201,15.299,1171.864172
1 Dec 2019 18:41:42.000,175.931,15.406,1167.219293
1 Dec 2019 18:41:43.000,175.660,15.512,1162.599541
1 Dec 2019 18:41:44.000,175.386,15.619,1158.005222
1 Dec 2019 18:41:45.000,175.109,15.726,1153.436646
1 Dec 2019 18:41:46.000,174.830,15.833,1148.894126
1 Dec 2019 18:41:47.000,174.549,15.940,1144.377978
1 Dec 2019 18:41:48.000,174.265,16.047,1139.888521
1 Dec 2019 18:41:49.000,173.978,16.154,1135.426077
1 Dec 2019 18:41:50.000,173.689,16.261,1130.990973
1 Dec 2019 18:41:51.000,173.397,16.369,1126.583536
1 Dec 2019 18:41:52.000,173.103,16.476,1122.204097
1 Dec 2019 18:41:53.000,172.806,16.584,1117.852992
1 Dec 2019 18:41:54.000,172.506,16.691,1113.530559
1 Dec 2019 18:41:55.000,172.203,16.799,1109.237137
1 Dec 2019 18:41:56.000,171.898,16.906,1104.973071
1 Dec 2019 18:41:57.000,171.590,17.014,1100.738707
1 Dec 2019 18:41:58.000,171.280,17.121,1096.534395
1 Dec 2019 18:41:59.000,170.966,17.229,1092.360487
1 Dec 2019 18:42:00.000,170.650,17.336,1088.217338
1 Dec 2019 18:42:01.000,170.331,17.443,1084.105306
1 Dec 2019 18:42:02.000,170.010,17.550,1080.024752
1 Dec 2019 18:42:03.000,169.685,17.658,1075.976039
1 Dec 2019 18:42:04.000,169.357,17.765,1071.959533
1 Dec 2019 18:42:05.000,169.027,17.871,1067.975603
1 Dec 2019 18:42:06.000,168.694,17.978,1064.024619
1 Dec 2019 18:42:07.000,168.358,18.085,1060.106955
1 Dec 2019 18:42:08.000,168.019,18.191,1056.222987
1 Dec 2019 18:42:09.000,167.677,18.297,1052.373093
1 Dec 2019 18:42:10.000,167.332,18.403,1048.557654
1 Dec 2019 18:42:11.000,166.984,18.508,1044.777051
1 Dec 2019 18:42:12.000,166.633,18.614,1041.031668
1 Dec 2019 18:42:13.000,166.279,18.719,1037.321893
1 Dec 2019 18:42:14.000,165.923,18.823,1033.648114
1 Dec 2019 18:42:15.000,165.563,18.928,1030.010719
1 Dec 2019 18:42:16.000,165.200,19.031,1026.410101
1 Dec 2019 18:42:17.000,164.834,19.135,1022.846654
1 Dec 2019 18:42:18.000,164.466,19.238,1019.320770
1 Dec 2019 18:42:19.000,164.094,19.341,1015.832847
1 Dec 2019 18:42:20.000,163.719,19.443,1012.383280
1 Dec 2019 18:42:21.000,163.341,19.545,1008.972468
1 Dec 2019 18:42:22.000,162.960,19.646,1005.600810
1 Dec 2019 18:42:23.000,162.576,19.746,1002.268704
1 Dec 2019 18:42:24.000,162.189,19.846,998.976552
1 Dec 2019 18:42:25.000,161.799,19.946,995.724753
1 Dec 2019 18:42:26.000,161.406,20.045,992.513709
1 Dec 2019 18:42:27.000,161.010,20.143,989.343821
1 Dec 2019 18:42:28.000,160.610,20.240,986.215489
1 Dec 2019 18:42:29.000,160.208,20.337,983.129115
1 Dec 2019 18:42:30.000,159.803,20.433,980.085098
1 Dec 2019 18:42:31.000,159.394,20.528,977.083838
1 Dec 2019 18:42:32.000,158.983,20.622,974.125736
1 Dec 2019 18:42:33.000,158.569,20.716,971.211188
1 Dec 2019 18:42:34.000,158.151,20.808,968.340593
1 Dec 2019 18:42:35.000,157.731,20.900,965.514345
1 Dec 2019 18:42:36.000,157.307,20.991,962.732839
1 Dec 2019 18:42:37.000,156.881,21.081,959.996468
1 Dec 2019 18:42:38.000,156.452,21.170,957.305623
1 Dec 2019 18:42:39.000,156.020,21.257,954.660692
1 Dec 2019 18:42:40.000,155.584,21.344,952.062061
1 Dec 2019 18:42:41.000,155.146,21.430,949.510114
1 Dec 2019 18:42:42.000,154.706,21.514,947.005232
1 Dec 2019 18:42:43.000,154.262,21.597,944.547792
1 Dec 2019 18:42:44.000,153.815,21.680,942.138167
1 Dec 2019 18:42:45.000,153.366,21.761,939.776732
1 Dec 2019 18:42:46.000,152.914,21.840,937.463852
1 Dec 2019 18:42:47.000,152.459,21.918,935.199890
1 Dec 2019 18:42:48.000,152.002,21.995,932.985205
1 Dec 2019 18:42:49.000,151.541,22.071,930.820154
1 Dec 2019 18:42:50.000,151.079,22.145,928.705086
1 Dec 2019 18:42:51.000,150.613,22.218,926.640345
1 Dec 2019 18:42:52.000,150.145,22.290,924.626271
1 Dec 2019 18:42:53.000,149.675,22.359,922.663200
1 Dec 2019 18:42:54.000,149.202,22.428,920.751460
1 Dec 2019 18:42:55.000,148.727,22.495,918.891374
1 Dec 2019 18:42:56.000,148.249,22.560,917.083259
1 Dec 2019 18:42:57.000,147.769,22.623,915.327425
1 Dec 2019 18:42:58.000,147.287,22.685,913.624178
1 Dec 2019 18:42:59.000,146.802,22.746,911.973814
1 Dec 2019 18:43:00.000,146.316,22.804,910.376620
1 Dec 2019 18:43:01.000,145.827,22.861,908.832883
1 Dec 2019 18:43:02.000,145.336,22.916,907.342874
1 Dec 2019 18:43:03.000,144.843,22.969,905.906865
1 Dec 2019 18:43:04.000,144.349,23.021,904.525110
1 Dec 2019 18:43:05.000,143.852,23.070,903.197865
1 Dec 2019 18:43:06.000,143.354,23.118,901.925368
1 Dec 2019 18:43:07.000,142.854,23.164,900.707855
1 Dec 2019 18:43:08.000,142.352,23.208,899.545553
1 Dec 2019 18:43:09.000,141.849,23.249,898.438675
1 Dec 2019 18:43:10.000,141.344,23.289,897.387430
1 Dec 2019 18:43:11.000,140.837,23.327,896.392013
1 Dec 2019 18:43:12.000,140.330,23.363,895.452612
1 Dec 2019 18:43:13.000,139.821,23.397,894.569409
1 Dec 2019 18:43:14.000,139.310,23.429,893.742567
1 Dec 2019 18:43:15.000,138.799,23.459,892.972245
1 Dec 2019 18:43:16.000,138.286,23.487,892.258592
1 Dec 2019 18:43:17.000,137.773,23.512,891.601747
1 Dec 2019 18:43:18.000,137.258,23.536,891.001833
1 Dec 2019 18:43:19.000,136.743,23.557,890.458967
1 Dec 2019 18:43:20.000,136.227,23.576,889.973255
1 Dec 2019 18:43:21.000,135.710,23.593,889.544792
1 Dec 2019 18:43:22.000,135.193,23.608,889.173661
1 Dec 2019 18:43:23.000,134.675,23.621,888.859938
1 Dec 2019 18:43:24.000,134.157,23.632,888.603678
1 Dec 2019 18:43:25.000,133.639,23.640,888.404936
1 Dec 2019 18:43:26.000,133.120,23.646,888.263749
1 Dec 2019 18:43:27.000,132.601,23.650,888.180147
1 Dec 2019 18:43:28.000,132.082,23.652,888.154145
1 Dec 2019 18:43:29.000,131.563,23.652,888.185749
1 Dec 2019 18:43:30.000,131.044,23.649,888.274953
1 Dec 2019 18:43:31.000,130.525,23.644,888.421741
1 Dec 2019 18:43:32.000,130.006,23.637,888.626084
1 Dec 2019 18:43:33.000,129.488,23.628,888.887941
1 Dec 2019 18:43:34.000,128.970,23.617,889.207263
1 Dec 2019 18:43:35.000,128.453,23.604,889.583985
1 Dec 2019 18:43:36.000,127.936,23.588,890.018039
1 Dec 2019 18:43:37.000,127.420,23.570,890.509339
1 Dec 2019 18:43:38.000,126.905,23.550,891.057789
1 Dec 2019 18:43:39.000,126.390,23.528,891.663284
1 Dec 2019 18:43:40.000,125.877,23.504,892.325708
1 Dec 2019 18:43:41.000,125.364,23.478,893.044929
1 Dec 2019 18:43:42.000,124.852,23.449,893.820817
1 Dec 2019 18:43:43.000,124.342,23.419,894.653221
1 Dec 2019 18:43:44.000,123.833,23.386,895.541979
1 Dec 2019 18:43:45.000,123.325,23.352,896.486929
1 Dec 2019 18:43:46.000,122.819,23.315,897.487889
1 Dec 2019 18:43:47.000,122.314,23.277,898.544672
1 Dec 2019 18:43:48.000,121.810,23.236,899.657077
1 Dec 2019 18:43:49.000,121.309,23.194,900.824903
1 Dec 2019 18:43:50.000,120.808,23.149,902.047927
1 Dec 2019 18:43:51.000,120.310,23.103,903.325931
1 Dec 2019 18:43:52.000,119.813,23.055,904.658676
1 Dec 2019 18:43:53.000,119.318,23.005,906.045918
1 Dec 2019 18:43:54.000,118.826,22.953,907.487411
1 Dec 2019 18:43:55.000,118.335,22.899,908.982889
1 Dec 2019 18:43:56.000,117.846,22.844,910.532092
1 Dec 2019 18:43:57.000,117.359,22.787,912.134737
1 Dec 2019 18:43:58.000,116.874,22.728,913.790548
1 Dec 2019 18:43:59.000,116.392,22.667,915.499228
1 Dec 2019 18:44:00.000,115.912,22.605,917.260485
1 Dec 2019 18:44:01.000,115.434,22.541,919.074016
1 Dec 2019 18:44:02.000,114.959,22.475,920.939505
1 Dec 2019 18:44:03.000,114.486,22.408,922.856641
1 Dec 2019 18:44:04.000,114.015,22.340,924.825094
1 Dec 2019 18:44:05.000,113.547,22.270,926.844540
1 Dec 2019 18:44:06.000,113.082,22.198,928.914645
1 Dec 2019 18:44:07.000,112.619,22.125,931.035065
1 Dec 2019 18:44:08.000,112.158,22.051,933.205456
1 Dec 2019 18:44:09.000,111.701,21.975,935.425469
1 Dec 2019 18:44:10.000,111.246,21.898,937.694752
1 Dec 2019 18:44:11.000,110.794,21.819,940.012940
1 Dec 2019 18:44:12.000,110.344,21.740,942.379672
1 Dec 2019 18:44:13.000,109.897,21.659,944.794580
1 Dec 2019 18:44:14.000,109.454,21.577,947.257299
1 Dec 2019 18:44:15.000,109.013,21.493,949.767445
1 Dec 2019 18:44:16.000,108.574,21.409,952.324645
1 Dec 2019 18:44:17.000,108.139,21.323,954.928518
1 Dec 2019 18:44:18.000,107.707,21.237,957.578680
1 Dec 2019 18:44:19.000,107.278,21.149,960.274746
1 Dec 2019 18:44:20.000,106.851,21.060,963.016326
1 Dec 2019 18:44:21.000,106.428,20.971,965.803031
1 Dec 2019 18:44:22.000,106.007,20.880,968.634467
1 Dec 2019 18:44:23.000,105.590,20.788,971.510241
1 Dec 2019 18:44:24.000,105.175,20.696,974.429960
1 Dec 2019 18:44:25.000,104.764,20.603,977.393220
1 Dec 2019 18:44:26.000,104.355,20.509,980.399627
1 Dec 2019 18:44:27.000,103.950,20.414,983.448782
1 Dec 2019 18:44:28.000,103.547,20.318,986.540285
1 Dec 2019 18:44:29.000,103.148,20.222,989.673733
1 Dec 2019 18:44:30.000,102.752,20.125,992.848731
1 Dec 2019 18:44:31.000,102.358,20.027,996.064875
1 Dec 2019 18:44:32.000,101.968,19.928,999.321765
1 Dec 2019 18:44:33.000,101.581,19.829,1002.619000
1 Dec 2019 18:44:34.000,101.197,19.730,1005.956179
1 Dec 2019 18:44:35.000,100.816,19.630,1009.332903
1 Dec 2019 18:44:36.000,100.438,19.529,1012.748772
1 Dec 2019 18:44:37.000,100.063,19.428,1016.203387
1 Dec 2019 18:44:38.000,99.691,19.326,1019.696352
1 Dec 2019 18:44:39.000,99.322,19.224,1023.227266
1 Dec 2019 18:44:40.000,98.957,19.121,1026.795740
1 Dec 2019 18:44:41.000,98.594,19.018,1030.401377
1 Dec 2019 18:44:42.000,98.234,18.915,1034.043784
1 Dec 2019 18:44:43.000,97.877,18.811,1037.722569
1 Dec 2019 18:44:44.000,97.523,18.707,1041.437341
1 Dec 2019 18:44:45.000,97.172,18.602,1045.187717
1 Dec 2019 18:44:46.000,96.825,18.498,1048.973308
1 Dec 2019 18:44:47.000,96.480,18.393,1052.793730
1 Dec 2019 18:44:48.000,96.138,18.288,1056.648597
1 Dec 2019 18:44:49.000,95.799,18.182,1060.537537
1 Dec 2019 18:44:50.000,95.463,18.076,1064.460168
1 Dec 2019 18:44:51.000,95.129,17.971,1068.416111
1 Dec 2019 18:44:52.000,94.799,17.864,1072.405000
1 Dec 2019 18:44:53.000,94.472,17.758,1076.426460
1 Dec 2019 18:44:54.000,94.147,17.652,1080.480121
1 Dec 2019 18:44:55.000,93.825,17.546,1084.565623
1 Dec 2019 18:44:56.000,93.506,17.439,1088.682600
1 Dec 2019 18:44:57.000,93.190,17.332,1092.830687
1 Dec 2019 18:44:58.000,92.877,17.226,1097.009535
1 Dec 2019 18:44:59.000,92.566,17.119,1101.218781
1 Dec 2019 18:45:00.000,92.258,17.012,1105.458081
1 Dec 2019 18:45:01.000,91.953,16.905,1109.727081
1 Dec 2019 18:45:02.000,91.651,16.798,1114.025432
1 Dec 2019 18:45:03.000,91.351,16.692,1118.352797
1 Dec 2019 18:45:04.000,91.054,16.585,1122.708829
1 Dec 2019 18:45:05.000,90.760,16.478,1127.093198
1 Dec 2019 18:45:06.000,90.468,16.371,1131.505563
1 Dec 2019 18:45:07.000,90.179,16.265,1135.945598
1 Dec 2019 18:45:08.000,89.893,16.158,1140.412970
1 Dec 2019 18:45:09.000,89.609,16.052,1144.907359
1 Dec 2019 18:45:10.000,89.327,15.945,1149.428437
1 Dec 2019 18:45:11.000,89.048,15.839,1153.975891
1 Dec 2019 18:45:12.000,88.772,15.733,1158.549400
1 Dec 2019 18:45:13.000,88.498,15.627,1163.148657
1 Dec 2019 18:45:14.000,88.227,15.521,1167.773346
1 Dec 2019 18:45:15.000,87.958,15.415,1172.423168
1 Dec 2019 18:45:16.000,87.691,15.310,1177.097813
1 Dec 2019 18:45:17.000,87.427,15.204,1181.796987
1 Dec 2019 18:45:18.000,87.165,15.099,1186.520387
1 Dec 2019 18:45:19.000,86.906,14.994,1191.267723
1 Dec 2019 18:45:20.000,86.649,14.889,1196.038707
1 Dec 2019 18:45:21.000,86.394,14.784,1200.833047
1 Dec 2019 18:45:22.000,86.142,14.680,1205.650463
1 Dec 2019 18:45:23.000,85.892,14.575,1210.490669
1 Dec 2019 18:45:24.000,85.644,14.471,1215.353390
1 Dec 2019 18:45:25.000,85.398,14.367,1220.238355
1 Dec 2019 18:45:26.000,85.155,14.264,1225.145285
1 Dec 2019 18:45:27.000,84.913,14.160,1230.073918
1 Dec 2019 18:45:28.000,84.674,14.057,1235.023982
1 Dec 2019 18:45:29.000,84.437,13.954,1239.995219
1 Dec 2019 18:45:30.000,84.202,13.852,1244.987372
1 Dec 2019 18:45:31.000,83.970,13.749,1250.000178
1 Dec 2019 18:45:32.000,83.739,13.647,1255.033387
1 Dec 2019 18:45:33.000,83.511,13.545,1260.086753
1 Dec 2019 18:45:34.000,83.284,13.444,1265.160021
1 Dec 2019 18:45:35.000,83.060,13.343,1270.252951
1 Dec 2019 18:45:36.000,82.837,13.242,1275.365300
1 Dec 2019 18:45:37.000,82.617,13.141,1280.496834
1 Dec 2019 18:45:38.000,82.398,13.040,1285.647311
1 Dec 2019 18:45:39.000,82.182,12.940,1290.816500
1 Dec 2019 18:45:40.000,81.967,12.840,1296.004177
1 Dec 2019 18:45:41.000,81.754,12.741,1301.210106
1 Dec 2019 18:45:42.000,81.543,12.641,1306.434067
1 Dec 2019 18:45:43.000,81.334,12.542,1311.675838
1 Dec 2019 18:45:44.000,81.127,12.444,1316.935205
1 Dec 2019 18:45:45.000,80.922,12.345,1322.211944
1 Dec 2019 18:45:46.000,80.718,12.247,1327.505846
1 Dec 2019 18:45:47.000,80.517,12.150,1332.816699
1 Dec 2019 18:45:48.000,80.317,12.052,1338.144300
1 Dec 2019 18:45:49.000,80.119,11.955,1343.488435
1 Dec 2019 18:45:50.000,79.922,11.858,1348.848907
1 Dec 2019 18:45:51.000,79.727,11.762,1354.225513
1 Dec 2019 18:45:52.000,79.534,11.665,1359.618058
1 Dec 2019 18:45:53.000,79.343,11.570,1365.026349
1 Dec 2019 18:45:54.000,79.153,11.474,1370.450187
1 Dec 2019 18:45:55.000,78.965,11.379,1375.889385
1 Dec 2019 18:45:56.000,78.779,11.284,1381.343755
1 Dec 2019 18:45:57.000,78.594,11.189,1386.813112
1 Dec 2019 18:45:58.000,78.411,11.095,1392.297276
1 Dec 2019 18:45:59.000,78.230,11.001,1397.796060
1 Dec 2019 18:46:00.000,78.050,10.907,1403.309289
1 Dec 2019 18:46:01.000,77.871,10.814,1408.836788
1 Dec 2019 18:46:02.000,77.694,10.721,1414.378381
1 Dec 2019 18:46:03.000,77.519,10.628,1419.933899
1 Dec 2019 18:46:04.000,77.345,10.536,1425.503171
1 Dec 2019 18:46:05.000,77.172,10.444,1431.086034
1 Dec 2019 18:46:06.000,77.001,10.352,1436.682317
1 Dec 2019 18:46:07.000,76.832,10.261,1442.291860
1 Dec 2019 18:46:08.000,76.664,10.170,1447.914502
1 Dec 2019 18:46:09.000,76.497,10.079,1453.550085
1 Dec 2019 18:46:10.000,76.332,9.989,1459.198452
1 Dec 2019 18:46:11.000,76.168,9.899,1464.859449
1 Dec 2019 18:46:12.000,76.005,9.809,1470.532924
1 Dec 2019 18:46:13.000,75.844,9.720,1476.218729
1 Dec 2019 18:46:14.000,75.684,9.631,1481.916710
1 Dec 2019 18:46:15.000,75.526,9.542,1487.626722
1 Dec 2019 18:46:16.000,75.369,9.453,1493.348621
1 Dec 2019 18:46:17.000,75.213,9.365,1499.082266
1 Dec 2019 18:46:18.000,75.058,9.277,1504.827513
1 Dec 2019 18:46:19.000,74.905,9.190,1510.584226
1 Dec 2019 18:46:20.000,74.753,9.103,1516.352265
1 Dec 2019 18:46:21.000,74.602,9.016,1522.131497
1 Dec 2019 18:46:22.000,74.452,8.929,1527.921786
1 Dec 2019 18:46:23.000,74.304,8.843,1533.723002
1 Dec 2019 18:46:24.000,74.157,8.757,1539.535013
1 Dec 2019 18:46:25.000,74.011,8.671,1545.357695
1 Dec 2019 18:46:26.000,73.866,8.586,1551.190914
1 Dec 2019 18:46:27.000,73.723,8.501,1557.034549
1 Dec 2019 18:46:28.000,73.580,8.416,1562.888474
1 Dec 2019 18:46:29.000,73.439,8.332,1568.752569
1 Dec 2019 18:46:30.000,73.299,8.248,1574.626713
1 Dec 2019 18:46:31.000,73.160,8.164,1580.510788
1 Dec 2019 18:46:32.000,73.022,8.080,1586.404675
1 Dec 2019 18:46:33.000,72.885,7.997,1592.308258
1 Dec 2019 18:46:34.000,72.750,7.914,1598.221425
1 Dec 2019 18:46:35.000,72.615,7.832,1604.144061
1 Dec 2019 18:46:36.000,72.481,7.749,1610.076055
1 Dec 2019 18:46:37.000,72.349,7.667,1616.017298
1 Dec 2019 18:46:38.000,72.217,7.585,1621.967681
1 Dec 2019 18:46:39.000,72.087,7.504,1627.927096
1 Dec 2019 18:46:40.000,71.958,7.423,1633.895438
1 Dec 2019 18:46:41.000,71.829,7.342,1639.872603
1 Dec 2019 18:46:42.000,71.702,7.261,1645.858486
1 Dec 2019 18:46:43.000,71.576,7.181,1651.852987
1 Dec 2019 18:46:44.000,71.450,7.101,1657.856006
1 Dec 2019 18:46:45.000,71.326,7.021,1663.867442
1 Dec 2019 18:46:46.000,71.202,6.942,1669.887198
1 Dec 2019 18:46:47.000,71.080,6.863,1675.915177
1 Dec 2019 18:46:48.000,70.958,6.784,1681.951284
1 Dec 2019 18:46:49.000,70.837,6.705,1687.995425
1 Dec 2019 18:46:50.000,70.718,6.627,1694.047506
1 Dec 2019 18:46:51.000,70.599,6.549,1700.107436
1 Dec 2019 18:46:52.000,70.481,6.471,1706.175124
1 Dec 2019 18:46:53.000,70.364,6.394,1712.250480
1 Dec 2019 18:46:54.000,70.248,6.317,1718.333416
1 Dec 2019 18:46:55.000,70.132,6.240,1724.423845
1 Dec 2019 18:46:56.000,70.018,6.163,1730.521680
1 Dec 2019 18:46:57.000,69.904,6.086,1736.626836
1 Dec 2019 18:46:58.000,69.792,6.010,1742.739229
1 Dec 2019 18:46:59.000,69.680,5.934,1748.858777
1 Dec 2019 18:47:00.000,69.569,5.859,1754.985396
1 Dec 2019 18:47:01.000,69.459,5.783,1761.119007
1 Dec 2019 18:47:02.000,69.349,5.708,1767.259529
1 Dec 2019 18:47:03.000,69.241,5.633,1773.406883
1 Dec 2019 18:47:04.000,69.133,5.559,1779.560988
1 Dec 2019 18:47:05.000,69.026,5.484,1785.721773
1 Dec 2019 18:47:06.000,68.920,5.410,1791.889160
1 Dec 2019 18:47:07.000,68.814,5.336,1798.063073
1 Dec 2019 18:47:08.000,68.710,5.263,1804.243437
1 Dec 2019 18:47:09.000,68.606,5.189,1810.430180
1 Dec 2019 18:47:10.000,68.503,5.116,1816.623229
1 Dec 2019 18:47:11.000,68.400,5.043,1822.822512
1 Dec 2019 18:47:12.000,68.299,4.970,1829.027959
1 Dec 2019 18:47:13.000,68.198,4.898,1835.239500
1 Dec 2019 18:47:14.000,68.097,4.826,1841.457066
1 Dec 2019 18:47:15.000,67.998,4.754,1847.680590
1 Dec 2019 18:47:16.000,67.899,4.682,1853.910003
1 Dec 2019 18:47:17.000,67.801,4.611,1860.145239
1 Dec 2019 18:47:18.000,67.704,4.539,1866.386233
1 Dec 2019 18:47:19.000,67.607,4.468,1872.632916
1 Dec 2019 18:47:20.000,67.511,4.398,1878.885231
1 Dec 2019 18:47:21.000,67.416,4.327,1885.143112
1 Dec 2019 18:47:22.000,67.321,4.257,1891.406495
1 Dec 2019 18:47:23.000,67.227,4.186,1897.675319
1 Dec 2019 18:47:24.000,67.134,4.117,1903.949523
1 Dec 2019 18:47:25.000,67.041,4.047,1910.229047
1 Dec 2019 18:47:26.000,66.949,3.977,1916.513830
1 Dec 2019 18:47:27.000,66.857,3.908,1922.803814
1 Dec 2019 18:47:28.000,66.767,3.839,1929.098940
1 Dec 2019 18:47:29.000,66.676,3.770,1935.399152
1 Dec 2019 18:47:30.000,66.587,3.702,1941.704388
1 Dec 2019 18:47:31.000,66.498,3.633,1948.014600
1 Dec 2019 18:47:32.000,66.410,3.565,1954.329728
1 Dec 2019 18:47:33.000,66.322,3.497,1960.649717
1 Dec 2019 18:47:34.000,66.235,3.429,1966.974514
1 Dec 2019 18:47:35.000,66.148,3.362,1973.304064
1 Dec 2019 18:47:36.000,66.062,3.294,1979.638315
1 Dec 2019 18:47:37.000,65.977,3.227,1985.977214
1 Dec 2019 18:47:38.000,65.892,3.160,1992.320709
1 Dec 2019 18:47:39.000,65.808,3.094,1998.668746
1 Dec 2019 18:47:40.000,65.724,3.027,2005.021280
1 Dec 2019 18:47:41.000,65.641,2.961,2011.378259
1 Dec 2019 18:47:42.000,65.559,2.895,2017.739633
1 Dec 2019 18:47:43.000,65.477,2.829,2024.105353
1 Dec 2019 18:47:44.000,65.395,2.763,2030.475371
1 Dec 2019 18:47:45.000,65.314,2.697,2036.849639
1 Dec 2019 18:47:46.000,65.234,2.632,2043.228110
1 Dec 2019 18:47:47.000,65.154,2.567,2049.610733
1 Dec 2019 18:47:48.000,65.075,2.502,2055.997469
1 Dec 2019 18:47:49.000,64.996,2.437,2062.388269
1 Dec 2019 18:47:50.000,64.917,2.372,2068.783088
1 Dec 2019 18:47:51.000,64.840,2.308,2075.181881
1 Dec 2019 18:47:52.000,64.762,2.243,2081.584604
1 Dec 2019 18:47:53.000,64.686,2.179,2087.991214
1 Dec 2019 18:47:54.000,64.609,2.115,2094.401667
1 Dec 2019 18:47:55.000,64.533,2.052,2100.815917
1 Dec 2019 18:47:56.000,64.458,1.988,2107.233928
1 Dec 2019 18:47:57.000,64.383,1.925,2113.655656
1 Dec 2019 18:47:58.000,64.309,1.862,2120.081059
1 Dec 2019 18:47:59.000,64.235,1.798,2126.510097
1 Dec 2019 18:48:00.000,64.162,1.736,2132.942728
1 Dec 2019 18:48:01.000,64.089,1.673,2139.378913
1 Dec 2019 18:48:02.000,64.016,1.610,2145.818609
1 Dec 2019 18:48:03.000,63.944,1.548,2152.261784
1 Dec 2019 18:48:04.000,63.873,1.486,2158.708395
1 Dec 2019 18:48:05.000,63.801,1.424,2165.158405
1 Dec 2019 18:48:06.000,63.731,1.362,2171.611775
1 Dec 2019 18:48:07.000,63.660,1.300,2178.068468
1 Dec 2019 18:48:08.000,63.591,1.239,2184.528443
1 Dec 2019 18:48:09.000,63.521,1.177,2190.991671
1 Dec 2019 18:48:10.000,63.452,1.116,2197.458112
1 Dec 2019 18:48:11.000,63.384,1.055,2203.927730
1 Dec 2019 18:48:12.000,63.316,0.994,2210.400489
1 Dec 2019 18:48:13.000,63.248,0.934,2216.876355
1 Dec 2019 18:48:14.000,63.181,0.873,2223.355293
1 Dec 2019 18:48:15.000,63.114,0.813,2229.837265
1 Dec 2019 18:48:16.000,63.047,0.752,2236.322243
1 Dec 2019 18:48:17.000,62.981,0.692,2242.810191
1 Dec 2019 18:48:18.000,62.916,0.632,2249.301075
1 Dec 2019 18:48:19.000,62.851,0.573,2255.794862
1 Dec 2019 18:48:20.000,62.786,0.513,2262.291520
1 Dec 2019 18:48:21.000,62.721,0.453,2268.791013
1 Dec 2019 18:48:22.000,62.657,0.394,2275.293315
1 Dec 2019 18:48:23.000,62.593,0.335,2281.798392
1 Dec 2019 18:48:24.000,62.530,0.276,2288.306213
1 Dec 2019 18:48:25.000,62.467,0.217,2294.816746
1 Dec 2019 18:48:26.000,62.405,0.158,2301.329960
1 Dec 2019 18:48:27.000,62.342,0.099,2307.845823
1 Dec 2019 18:48:28.000,62.281,0.041,2314.364310
1 Dec 2019 18:48:29.000,62.219,-0.017,2320.885389
1 Dec 2019 18:48:30.000,62.158,-0.076,2327.409030
1 Dec 2019 18:48:30.833,62.107,-0.124,2332.847497
1 Dec 2019 20:14:36.927,251.028,-0.124,2321.734292
1 Dec 2019 20:14:37.000,251.032,-0.120,2321.247538
1 Dec 2019 20:14:38.000,251.082,-0.060,2314.582147
1 Dec 2019 20:14:39.000,251.132,0.000,2307.918183
1 Dec 2019 20:14:40.000,251.182,0.060,2301.255667
1 Dec 2019 20:14:41.000,251.233,0.121,2294.594615
1 Dec 2019 20:14:42.000,251.283,0.181,2287.935055
1 Dec 2019 20:14:43.000,251.335,0.242,2281.277003
1 Dec 2019 20:14:44.000,251.386,0.303,2274.620482
1 Dec 2019 20:14:45.000,251.438,0.364,2267.965511
1 Dec 2019 20:14:46.000,251.490,0.425,2261.312109
1 Dec 2019 20:14:47.000,251.542,0.486,2254.660303
1 Dec 2019 20:14:48.000,251.595,0.548,2248.010114
1 Dec 2019 20:14:49.000,251.648,0.609,2241.361562
1 Dec 2019 20:14:50.000,251.701,0.671,2234.714666
1 Dec 2019 20:14:51.000,251.754,0.733,2228.069456
1 Dec 2019 20:14:52.000,251.808,0.795,2221.425952
1 Dec 2019 20:14:53.000,251.862,0.858,2214.784175
1 Dec 2019 20:14:54.000,251.917,0.920,2208.144149
1 Dec 2019 20:14:55.000,251.971,0.983,2201.505894
1 Dec 2019 20:14:56.000,252.026,1.046,2194.869442
1 Dec 2019 20:14:57.000,252.082,1.109,2188.234812
1 Dec 2019 20:14:58.000,252.138,1.173,2181.602028
1 Dec 2019 20:14:59.000,252.194,1.236,2174.971115
1 Dec 2019 20:15:00.000,252.250,1.300,2168.342095
1 Dec 2019 20:15:01.000,252.307,1.364,2161.714999
1 Dec 2019 20:15:02.000,252.364,1.428,2155.089850
1 Dec 2019 20:15:03.000,252.421,1.492,2148.466672
1 Dec 2019 20:15:04.000,252.479,1.556,2141.845488
1 Dec 2019 20:15:05.000,252.537,1.621,2135.226332
1 Dec 2019 20:15:06.000,252.596,1.686,2128.609227
1 Dec 2019 20:15:07.000,252.654,1.751,2121.994198
1 Dec 2019 20:15:08.000,252.714,1.816,2115.381274
1 Dec 2019 20:15:09.000,252.773,1.882,2108.770477
1 Dec 2019 20:15:10.000,252.833,1.947,2102.161844
1 Dec 2019 20:15:11.000,252.893,2.013,2095.555397
1 Dec 2019 20:15:12.000,252.954,2.079,2088.951167
1 Dec 2019 20:15:13.000,253.015,2.146,2082.349180
1 Dec 2019 20:15:14.000,253.076,2.212,2075.749463
1 Dec 2019 20:15:15.000,253.138,2.279,2069.152053
1 Dec 2019 20:15:16.000,253.200,2.346,2062.556974
1 Dec 2019 20:15:17.000,253.263,2.413,2055.964257
1 Dec 2019 20:15:18.000,253.326,2.481,2049.373933
1 Dec 2019 20:15:19.000,253.389,2.548,2042.786029
1 Dec 2019 20:15:20.000,253.453,2.616,2036.200582
1 Dec 2019 20:15:21.000,253.517,2.684,2029.617621
1 Dec 2019 20:15:22.000,253.581,2.752,2023.037178
1 Dec 2019 20:15:23.000,253.646,2.821,2016.459284
1 Dec 2019 20:15:24.000,253.712,2.890,2009.883969
1 Dec 2019 20:15:25.000,253.777,2.959,2003.311273
1 Dec 2019 20:15:26.000,253.844,3.028,1996.741224
1 Dec 2019 20:15:27.000,253.910,3.097,1990.173859
1 Dec 2019 20:15:28.000,253.977,3.167,1983.609209
1 Dec 2019 20:15:29.000,254.045,3.237,1977.047307
1 Dec 2019 20:15:30.000,254.113,3.307,1970.488195
1 Dec 2019 20:15:31.000,254.181,3.377,1963.931903
1 Dec 2019 20:15:32.000,254.250,3.448,1957.378469
1 Dec 2019 20:15:33.000,254.320,3.519,1950.827928
1 Dec 2019 20:15:34.000,254.389,3.590,1944.280318
1 Dec 2019 20:15:35.000,254.460,3.662,1937.735671
1 Dec 2019 20:15:36.000,254.530,3.733,1931.194033
1 Dec 2019 20:15:37.000,254.602,3.805,1924.655437
1 Dec 2019 20:15:38.000,254.673,3.878,1918.119924
1 Dec 2019 20:15:39.000,254.745,3.950,1911.587531
1 Dec 2019 20:15:40.000,254.818,4.023,1905.058295
1 Dec 2019 20:15:41.000,254.891,4.096,1898.532263
1 Dec 2019 20:15:42.000,254.965,4.169,1892.009472
1 Dec 2019 20:15:43.000,255.039,4.243,1885.489962
1 Dec 2019 20:15:44.000,255.114,4.317,1878.973777
1 Dec 2019 20:15:45.000,255.189,4.391,1872.460957
1 Dec 2019 20:15:46.000,255.265,4.465,1865.951542
1 Dec 2019 20:15:47.000,255.341,4.540,1859.445581
1 Dec 2019 20:15:48.000,255.418,4.615,1852.943117
1 Dec 2019 20:15:49.000,255.495,4.690,1846.444192
1 Dec 2019 20:15:50.000,255.573,4.765,1839.948851
1 Dec 2019 20:15:51.000,255.651,4.841,1833.457141
1 Dec 2019 20:15:52.000,255.730,4.917,1826.969103
1 Dec 2019 20:15:53.000,255.810,4.994,1820.484792
1 Dec 2019 20:15:54.000,255.890,5.071,1814.004251
1 Dec 2019 20:15:55.000,255.971,5.148,1807.527528
1 Dec 2019 20:15:56.000,256.052,5.225,1801.054672
1 Dec 2019 20:15:57.000,256.134,5.303,1794.585731
1 Dec 2019 20:15:58.000,256.216,5.381,1788.120753
1 Dec 2019 20:15:59.000,256.299,5.459,1781.659794
1 Dec 2019 20:16:00.000,256.383,5.538,1775.202903
1 Dec 2019 20:16:01.000,256.467,5.616,1768.750132
1 Dec 2019 20:16:02.000,256.552,5.696,1762.301532
1 Dec 2019 20:16:03.000,256.638,5.775,1755.857158
1 Dec 2019 20:16:04.000,256.724,5.855,1749.417062
1 Dec 2019 20:16:05.000,256.811,5.935,1742.981298
1 Dec 2019 20:16:06.000,256.898,6.016,1736.549926
1 Dec 2019 20:16:07.000,256.986,6.097,1730.123000
1 Dec 2019 20:16:08.000,257.075,6.178,1723.700576
1 Dec 2019 20:16:09.000,257.165,6.260,1717.282714
1 Dec 2019 20:16:10.000,257.255,6.342,1710.869470
1 Dec 2019 20:16:11.000,257.346,6.424,1704.460905
1 Dec 2019 20:16:12.000,257.437,6.507,1698.057076
1 Dec 2019 20:16:13.000,257.529,6.590,1691.658050
1 Dec 2019 20:16:14.000,257.622,6.673,1685.263885
1 Dec 2019 20:16:15.000,257.716,6.757,1678.874646
1 Dec 2019 20:16:16.000,257.810,6.841,1672.490395
1 Dec 2019 20:16:17.000,257.905,6.925,1666.111196
1 Dec 2019 20:16:18.000,258.001,7.010,1659.737116
1 Dec 2019 20:16:19.000,258.098,7.096,1653.368218
1 Dec 2019 20:16:20.000,258.195,7.181,1647.004575
1 Dec 2019 20:16:21.000,258.293,7.267,1640.646253
1 Dec 2019 20:16:22.000,258.392,7.354,1634.293320
1 Dec 2019 20:16:23.000,258.492,7.440,1627.945848
1 Dec 2019 20:16:24.000,258.593,7.527,1621.603907
1 Dec 2019 20:16:25.000,258.694,7.615,1615.267570
1 Dec 2019 20:16:26.000,258.796,7.703,1608.936909
1 Dec 2019 20:16:27.000,258.899,7.791,1602.612001
1 Dec 2019 20:16:28.000,259.003,7.880,1596.292916
1 Dec 2019 20:16:29.000,259.108,7.969,1589.979738
1 Dec 2019 20:16:30.000,259.213,8.059,1583.672542
1 Dec 2019 20:16:31.000,259.320,8.149,1577.371406
1 Dec 2019 20:16:32.000,259.427,8.240,1571.076410
1 Dec 2019 20:16:33.000,259.535,8.330,1564.787636
1 Dec 2019 20:16:34.000,259.644,8.422,1558.505166
1 Dec 2019 20:16:35.000,259.754,8.514,1552.229083
1 Dec 2019 20:16:36.000,259.865,8.606,1545.959473
1 Dec 2019 20:16:37.000,259.977,8.698,1539.696422
1 Dec 2019 20:16:38.000,260.090,8.792,1533.440013
1 Dec 2019 20:16:39.000,260.204,8.885,1527.190342
1 Dec 2019 20:16:40.000,260.319,8.979,1520.947497
1 Dec 2019 20:16:41.000,260.434,9.074,1514.711567
1 Dec 2019 20:16:42.000,260.551,9.169,1508.482647
1 Dec 2019 20:16:43.000,260.669,9.264,1502.260830
1 Dec 2019 20:16:44.000,260.787,9.360,1496.046211
1 Dec 2019 20:16:45.000,260.907,9.456,1489.838889
1 Dec 2019 20:16:46.000,261.028,9.553,1483.638962
1 Dec 2019 20:16:47.000,261.150,9.650,1477.446529
1 Dec 2019 20:16:48.000,261.273,9.748,1471.261692
1 Dec 2019 20:16:49.000,261.397,9.846,1465.084555
1 Dec 2019 20:16:50.000,261.522,9.945,1458.915221
1 Dec 2019 20:16:51.000,261.649,10.045,1452.753799
1 Dec 2019 20:16:52.000,261.776,10.144,1446.600391
1 Dec 2019 20:16:53.000,261.905,10.245,1440.455115
1 Dec 2019 20:16:54.000,262.034,10.346,1434.318078
1 Dec 2019 20:16:55.000,262.165,10.447,1428.189394
1 Dec 2019 20:16:56.000,262.297,10.549,1422.069178
1 Dec 2019 20:16:57.000,262.431,10.651,1415.957545
1 Dec 2019 20:16:58.000,262.565,10.754,1409.854616
1 Dec 2019 20:16:59.000,262.701,10.858,1403.760509
1 Dec 2019 20:17:00.000,262.838,10.962,1397.675348
1 Dec 2019 20:17:01.000,262.976,11.066,1391.599256
1 Dec 2019 20:17:02.000,263.116,11.171,1385.532359
1 Dec 2019 20:17:03.000,263.257,11.277,1379.474786
1 Dec 2019 20:17:04.000,263.399,11.383,1373.426667
1 Dec 2019 20:17:05.000,263.542,11.490,1367.388134
1 Dec 2019 20:17:06.000,263.687,11.598,1361.359322
1 Dec 2019 20:17:07.000,263.833,11.706,1355.340366
1 Dec 2019 20:17:08.000,263.981,11.814,1349.331405
1 Dec 2019 20:17:09.000,264.130,11.923,1343.332581
1 Dec 2019 20:17:10.000,264.281,12.033,1337.344036
1 Dec 2019 20:17:11.000,264.433,12.143,1331.365916
1 Dec 2019 20:17:12.000,264.586,12.254,1325.398369
1 Dec 2019 20:17:13.000,264.741,12.366,1319.441544
1 Dec 2019 20:17:14.000,264.898,12.478,1313.495594
1 Dec 2019 20:17:15.000,265.055,12.591,1307.560674
1 Dec 2019 20:17:16.000,265.215,12.704,1301.636942
1 Dec 2019 20:17:17.000,265.376,12.818,1295.724557
1 Dec 2019 20:17:18.000,265.539,12.932,1289.823683
1 Dec 2019 20:17:19.000,265.703,13.048,1283.934484
1 Dec 2019 20:17:20.000,265.869,13.163,1278.057128
1 Dec 2019 20:17:21.000,266.037,13.280,1272.191787
1 Dec 2019 20:17:22.000,266.206,13.397,1266.338634
1 Dec 2019 20:17:23.000,266.377,13.515,1260.497844
1 Dec 2019 20:17:24.000,266.550,13.633,1254.669597
1 Dec 2019 20:17:25.000,266.724,13.752,1248.854076
1 Dec 2019 20:17:26.000,266.901,13.872,1243.051468
1 Dec 2019 20:17:27.000,267.079,13.992,1237.261955
1 Dec 2019 20:17:28.000,267.259,14.113,1231.485732
1 Dec 2019 20:17:29.000,267.441,14.235,1225.722992
1 Dec 2019 20:17:30.000,267.624,14.357,1219.973933
1 Dec 2019 20:17:31.000,267.810,14.481,1214.238756
1 Dec 2019 20:17:32.000,267.998,14.604,1208.517665
1 Dec 2019 20:17:33.000,268.187,14.729,1202.810867
1 Dec 2019 20:17:34.000,268.379,14.854,1197.118573
1 Dec 2019 20:17:35.000,268.572,14.980,1191.440997
1 Dec 2019 20:17:36.000,268.768,15.106,1185.778356
1 Dec 2019 20:17:37.000,268.965,15.233,1180.130877
1 Dec 2019 20:17:38.000,269.165,15.361,1174.498775
1 Dec 2019 20:17:39.000,269.367,15.490,1168.882284
1 Dec 2019 20:17:40.000,269.571,15.619,1163.281635
1 Dec 2019 20:17:41.000,269.778,15.749,1157.697065
1 Dec 2019 20:17:42.000,269.986,15.880,1152.128814
1 Dec 2019 20:17:43.000,270.197,16.011,1146.577126
1 Dec 2019 20:17:44.000,270.410,16.143,1141.042248
1 Dec 2019 20:17:45.000,270.626,16.276,1135.524435
1 Dec 2019 20:17:46.000,270.843,16.410,1130.023938
1 Dec 2019 20:17:47.000,271.064,16.544,1124.541019
1 Dec 2019 20:17:48.000,271.286,16.679,1119.075943
1 Dec 2019 20:17:49.000,271.512,16.815,1113.628979
1 Dec 2019 20:17:50.000,271.739,16.951,1108.200399
1 Dec 2019 20:17:51.000,271.969,17.088,1102.790484
1 Dec 2019 20:17:52.000,272.202,17.226,1097.399510
1 Dec 2019 20:17:53.000,272.438,17.365,1092.027767
1 Dec 2019 20:17:54.000,272.676,17.504,1086.675545
1 Dec 2019 20:17:55.000,272.916,17.644,1081.343143
1 Dec 2019 20:17:56.000,273.160,17.785,1076.030856
1 Dec 2019 20:17:57.000,273.406,17.926,1070.738991
1 Dec 2019 20:17:58.000,273.655,18.068,1065.467859
1 Dec 2019 20:17:59.000,273.907,18.211,1060.217775
1 Dec 2019 20:18:00.000,274.162,18.355,1054.989062
1 Dec 2019 20:18:01.000,274.419,18.499,1049.782039
1 Dec 2019 20:18:02.000,274.680,18.644,1044.597038
1 Dec 2019 20:18:03.000,274.944,18.790,1039.434395
1 Dec 2019 20:18:04.000,275.211,18.936,1034.294454
1 Dec 2019 20:18:05.000,275.480,19.083,1029.177553
1 Dec 2019 20:18:06.000,275.753,19.231,1024.084047
1 Dec 2019 20:18:07.000,276.030,19.379,1019.014296
1 Dec 2019 20:18:08.000,276.309,19.528,1013.968654
1 Dec 2019 20:18:09.000,276.592,19.678,1008.947493
1 Dec 2019 20:18:10.000,276.878,19.828,1003.951188
1 Dec 2019 20:18:11.000,277.167,19.980,998.980110
1 Dec 2019 20:18:12.000,277.460,20.131,994.034648
1 Dec 2019 20:18:13.000,277.756,20.283,989.115194
1 Dec 2019 20:18:14.000,278.056,20.436,984.222135
1 Dec 2019 20:18:15.000,278.360,20.590,979.355878
1 Dec 2019 20:18:16.000,278.666,20.744,974.516831
1 Dec 2019 20:18:17.000,278.977,20.899,969.705401
1 Dec 2019 20:18:18.000,279.291,21.054,964.922013
1 Dec 2019 20:18:19.000,279.610,21.210,960.167083
1 Dec 2019 20:18:20.000,279.931,21.366,955.441046
1 Dec 2019 20:18:21.000,280.257,21.523,950.744340
1 Dec 2019 20:18:22.000,280.587,21.680,946.077401
1 Dec 2019 20:18:23.000,280.920,21.838,941.440683
1 Dec 2019 20:18:24.000,281.258,21.996,936.834633
1 Dec 2019 20:18:25.000,281.600,22.155,932.259717
1 Dec 2019 20:18:26.000,281.945,22.314,927.716394
1 Dec 2019 20:18:27.000,282.295,22.473,923.205142
1 Dec 2019 20:18:28.000,282.649,22.633,918.726431
1 Dec 2019 20:18:29.000,283.008,22.794,914.280750
1 Dec 2019 20:18:30.000,283.371,22.954,909.868583
1 Dec 2019 20:18:31.000,283.738,23.115,905.490430
1 Dec 2019 20:18:32.000,284.109,23.276,901.146785
1 Dec 2019 20:18:33.000,284.485,23.437,896.838161
1 Dec 2019 20:18:34.000,284.865,23.599,892.565062
1 Dec 2019 20:18:35.000,285.250,23.761,888.328012
1 Dec 2019 20:18:36.000,285.640,23.923,884.127531
1 Dec 2019 20:18:37.000,286.034,24.085,879.964143
1 Dec 2019 20:18:38.000,286.433,24.247,875.838389
1 Dec 2019 20:18:39.000,286.837,24.409,871.750800
1 Dec 2019 20:18:40.000,287.246,24.571,867.701926
1 Dec 2019 20:18:41.000,287.659,24.733,863.692313
1 Dec 2019 20:18:42.000,288.077,24.895,859.722511
1 Dec 2019 20:18:43.000,288.500,25.057,855.793085
1 Dec 2019 20:18:44.000,288.929,25.219,851.904593
1 Dec 2019 20:18:45.000,289.362,25.380,848.057601
1 Dec 2019 20:18:46.000,289.800,25.541,844.252685
1 Dec 2019 20:18:47.000,290.243,25.702,840.490418
1 Dec 2019 20:18:48.000,290.692,25.863,836.771378
1 Dec 2019 20:18:49.000,291.146,26.023,833.096146
1 Dec 2019 20:18:50.000,291.605,26.182,829.465314
1 Dec 2019 20:18:51.000,292.069,26.341,825.879466
1 Dec 2019 20:18:52.000,292.538,26.500,822.339197
1 Dec 2019 20:18:53.000,293.013,26.658,818.845100
1 Dec 2019 20:18:54.000,293.493,26.815,815.397770
1 Dec 2019 20:18:55.000,293.978,26.971,811.997811
1 Dec 2019 20:18:56.000,294.469,27.127,808.645821
1 Dec 2019 20:18:57.000,294.965,27.282,805.342403
1 Dec 2019 20:18:58.000,295.467,27.435,802.088160
1 Dec 2019 20:18:59.000,295.974,27.588,798.883697
1 Dec 2019 20:19:00.000,296.487,27.739,795.729617
1 Dec 2019 20:19:01.000,297.005,27.890,792.626525
1 Dec 2019 20:19:02.000,297.528,28.039,789.575026
1 Dec 2019 20:19:03.000,298.057,28.187,786.575722
1 Dec 2019 20:19:04.000,298.591,28.333,783.629217
1 Dec 2019 20:19:05.000,299.131,28.478,780.736110
1 Dec 2019 20:19:06.000,299.676,28.621,777.897000
1 Dec 2019 20:19:07.000,300.227,28.763,775.112483
1 Dec 2019 20:19:08.000,300.783,28.903,772.383153
1 Dec 2019 20:19:09.000,301.344,29.041,769.709598
1 Dec 2019 20:19:10.000,301.911,29.177,767.092405
1 Dec 2019 20:19:11.000,302.483,29.312,764.532154
1 Dec 2019 20:19:12.000,303.060,29.444,762.029425
1 Dec 2019 20:19:13.000,303.643,29.574,759.584783
1 Dec 2019 20:19:14.000,304.231,29.702,757.198796
1 Dec 2019 20:19:15.000,304.824,29.828,754.872022
1 Dec 2019 20:19:16.000,305.422,29.951,752.605011
1 Dec 2019 20:19:17.000,306.025,30.072,750.398311
1 Dec 2019 20:19:18.000,306.633,30.190,748.252452
1 Dec 2019 20:19:19.000,307.246,30.306,746.167963
1 Dec 2019 20:19:20.000,307.863,30.419,744.145361
1 Dec 2019 20:19:21.000,308.486,30.529,742.185157
1 Dec 2019 20:19:22.000,309.113,30.637,740.287843
1 Dec 2019 20:19:23.000,309.744,30.741,738.453910
1 Dec 2019 20:19:24.000,310.380,30.842,736.683828
1 Dec 2019 20:19:25.000,311.020,30.940,734.978063
1 Dec 2019 20:19:26.000,311.665,31.035,733.337066
1 Dec 2019 20:19:27.000,312.313,31.127,731.761270
1 Dec 2019 20:19:28.000,312.966,31.215,730.251103
1 Dec 2019 20:19:29.000,313.622,31.300,728.806969
1 Dec 2019 20:19:30.000,314.282,31.381,727.429267
1 Dec 2019 20:19:31.000,314.946,31.459,726.118372
1 Dec 2019 20:19:32.000,315.613,31.533,724.874651
1 Dec 2019 20:19:33.000,316.283,31.603,723.698450
1 Dec 2019 20:19:34.000,316.957,31.670,722.590096
1 Dec 2019 20:19:35.000,317.633,31.733,721.549907
1 Dec 2019 20:19:36.000,318.312,31.792,720.578174
1 Dec 2019 20:19:37.000,318.993,31.847,719.675180
1 Dec 2019 20:19:38.000,319.678,31.898,718.841182
1 Dec 2019 20:19:39.000,320.364,31.944,718.076420
1 Dec 2019 20:19:40.000,321.052,31.987,717.381114
1 Dec 2019 20:19:41.000,321.742,32.026,716.755470
1 Dec 2019 20:19:42.000,322.434,32.061,716.199669
1 Dec 2019 20:19:43.000,323.128,32.091,715.713873
1 Dec 2019 20:19:44.000,323.823,32.117,715.298226
1 Dec 2019 20:19:45.000,324.518,32.139,714.952846
1 Dec 2019 20:19:46.000,325.215,32.156,714.677840
1 Dec 2019 20:19:47.000,325.912,32.170,714.473287
1 Dec 2019 20:19:48.000,326.610,32.179,714.339246
1 Dec 2019 20:19:49.000,327.309,32.183,714.275757
1 Dec 2019 20:19:50.000,328.007,32.184,714.282837
1 Dec 2019 20:19:51.000,328.705,32.180,714.360485
1 Dec 2019 20:19:52.000,329.403,32.172,714.508676
1 Dec 2019 20:19:53.000,330.100,32.159,714.727365
1 Dec 2019 20:19:54.000,330.797,32.142,715.016487
1 Dec 2019 20:19:55.000,331.493,32.121,715.375956
1 Dec 2019 20:19:56.000,332.187,32.096,715.805665
1 Dec 2019 20:19:57.000,332.881,32.066,716.305484
1 Dec 2019 20:19:58.000,333.573,32.033,716.875267
1 Dec 2019 20:19:59.000,334.263,31.995,717.514845
1 Dec 2019 20:20:00.000,334.951,31.953,718.224031
1 Dec 2019 20:20:01.000,335.637,31.907,719.002619
1 Dec 2019 20:20:02.000,336.321,31.856,719.850378
1 Dec 2019 20:20:03.000,337.002,31.802,720.767066
1 Dec 2019 20:20:04.000,337.681,31.744,721.752416
1 Dec 2019 20:20:05.000,338.357,31.682,722.806148
1 Dec 2019 20:20:06.000,339.030,31.616,723.927958
1 Dec 2019 20:20:07.000,339.700,31.547,725.117532
1 Dec 2019 20:20:08.000,340.367,31.474,726.374532
1 Dec 2019 20:20:09.000,341.030,31.397,727.698606
1 Dec 2019 20:20:10.000,341.690,31.316,729.089390
1 Dec 2019 20:20:11.000,342.346,31.232,730.546496
1 Dec 2019 20:20:12.000,342.998,31.145,732.069530
1 Dec 2019 20:20:13.000,343.647,31.054,733.658075
1 Dec 2019 20:20:14.000,344.291,30.960,735.311707
1 Dec 2019 20:20:15.000,344.931,30.863,737.029983
1 Dec 2019 20:20:16.000,345.566,30.762,738.812451
1 Dec 2019 20:20:17.000,346.198,30.659,740.658644
1 Dec 2019 20:20:18.000,346.824,30.552,742.568083
1 Dec 2019 20:20:19.000,347.446,30.443,744.540280
1 Dec 2019 20:20:20.000,348.064,30.331,746.574734
1 Dec 2019 20:20:21.000,348.676,30.216,748.670933
1 Dec 2019 20:20:22.000,349.284,30.099,750.828359
1 Dec 2019 20:20:23.000,349.886,29.979,753.046481
1 Dec 2019 20:20:24.000,350.484,29.856,755.324762
1 Dec 2019 20:20:25.000,351.077,29.731,757.662656
1 Dec 2019 20:20:26.000,351.664,29.604,760.059608
1 Dec 2019 20:20:27.000,352.246,29.475,762.515059
1 Dec 2019 20:20:28.000,352.823,29.343,765.028442
1 Dec 2019 20:20:29.000,353.395,29.210,767.599184
1 Dec 2019 20:20:30.000,353.961,29.074,770.226707
1 Dec 2019 20:20:31.000,354.522,28.937,772.910428
1 Dec 2019 20:20:32.000,355.078,28.798,775.649761
1 Dec 2019 20:20:33.000,355.628,28.657,778.444113
1 Dec 2019 20:20:34.000,356.173,28.515,781.292891
1 Dec 2019 20:20:35.000,356.712,28.371,784.195498
1 Dec 2019 20:20:36.000,357.246,28.225,787.151335
1 Dec 2019 20:20:37.000,357.775,28.078,790.159799
1 Dec 2019 20:20:38.000,358.298,27.930,793.220287
1 Dec 2019 20:20:39.000,358.815,27.780,796.332197
1 Dec 2019 20:20:40.000,359.327,27.630,799.494922
1 Dec 2019 20:20:41.000,359.834,27.478,802.707858
1 Dec 2019 20:20:42.000,0.335,27.325,805.970401
1 Dec 2019 20:20:43.000,0.831,27.171,809.281945
1 Dec 2019 20:20:44.000,1.322,27.017,812.641887
1 Dec 2019 20:20:45.000,1.807,26.861,816.049625
1 Dec 2019 20:20:46.000,2.287,26.705,819.504558
1 Dec 2019 20:20:47.000,2.761,26.548,823.006086
1 Dec 2019 20:20:48.000,3.230,26.390,826.553614
1 Dec 2019 20:20:49.000,3.694,26.232,830.146546
1 Dec 2019 20:20:50.000,4.153,26.073,833.784290
1 Dec 2019 20:20:51.000,4.606,25.914,837.466259
1 Dec 2019 20:20:52.000,5.054,25.754,841.191865
1 Dec 2019 20:20:53.000,5.497,25.594,844.960528
1 Dec 2019 20:20:54.000,5.935,25.434,848.771668
1 Dec 2019 20:20:55.000,6.368,25.273,852.624711
1 Dec 2019 20:20:56.000,6.796,25.113,856.519086
1 Dec 2019 20:20:57.000,7.219,24.951,860.454226
1 Dec 2019 20:20:58.000,7.637,24.790,864.429571
1 Dec 2019 20:20:59.000,8.050,24.629,868.444562
1 Dec 2019 20:21:00.000,8.458,24.468,872.498647
1 Dec 2019 20:21:01.000,8.862,24.306,876.591278
1 Dec 2019 20:21:02.000,9.260,24.145,880.721913
1 Dec 2019 20:21:03.000,9.655,23.984,884.890014
1 Dec 2019 20:21:04.000,10.044,23.823,889.095047
1 Dec 2019 20:21:05.000,10.429,23.662,893.336488
1 Dec 2019 20:21:06.000,10.809,23.501,897.613813
1 Dec 2019 20:21:07.000,11.185,23.340,901.926507
1 Dec 2019 20:21:08.000,11.556,23.180,906.274059
1 Dec 2019 20:21:09.000,11.923,23.020,910.655964
1 Dec 2019 20:21:10.000,12.285,22.860,915.071723
1 Dec 2019 20:21:11.000,12.643,22.701,919.520842
1 Dec 2019 20:21:12.000,12.997,22.542,924.002835
1 Dec 2019 20:21:13.000,13.347,22.383,928.517219
1 Dec 2019 20:21:14.000,13.693,22.224,933.063518
1 Dec 2019 20:21:15.000,14.034,22.066,937.641262
1 Dec 2019 20:21:16.000,14.372,21.909,942.249987
1 Dec 2019 20:21:17.000,14.705,21.752,946.889233
1 Dec 2019 20:21:18.000,15.035,21.595,951.558550
1 Dec 2019 20:21:19.000,15.360,21.439,956.257492
1 Dec 2019 20:21:20.000,15.682,21.283,960.985615
1 Dec 2019 20:21:21.000,16.000,21.128,965.742488
1 Dec 2019 20:21:22.000,16.314,20.974,970.527679
1 Dec 2019 20:21:23.000,16.625,20.820,975.340768
1 Dec 2019 20:21:24.000,16.932,20.666,980.181336
1 Dec 2019 20:21:25.000,17.235,20.514,985.048971
1 Dec 2019 20:21:26.000,17.535,20.361,989.943271
1 Dec 2019 20:21:27.000,17.831,20.210,994.863832
1 Dec 2019 20:21:28.000,18.124,20.059,999.810263
1 Dec 2019 20:21:29.000,18.413,19.908,1004.782175
1 Dec 2019 20:21:30.000,18.699,19.759,1009.779183
1 Dec 2019 20:21:31.000,18.982,19.610,1014.800913
1 Dec 2019 20:21:32.000,19.261,19.461,1019.846993
1 Dec 2019 20:21:33.000,19.537,19.313,1024.917055
1 Dec 2019 20:21:34.000,19.810,19.166,1030.010740
1 Dec 2019 20:21:35.000,20.080,19.020,1035.127693
1 Dec 2019 20:21:36.000,20.347,18.874,1040.267563
1 Dec 2019 20:21:37.000,20.611,18.729,1045.430006
1 Dec 2019 20:21:38.000,20.871,18.585,1050.614684
1 Dec 2019 20:21:39.000,21.129,18.441,1055.821260
1 Dec 2019 20:21:40.000,21.384,18.298,1061.049408
1 Dec 2019 20:21:41.000,21.636,18.156,1066.298802
1 Dec 2019 20:21:42.000,21.885,18.014,1071.569125
1 Dec 2019 20:21:43.000,22.131,17.873,1076.860061
1 Dec 2019 20:21:44.000,22.375,17.733,1082.171303
1 Dec 2019 20:21:45.000,22.615,17.594,1087.502545
1 Dec 2019 20:21:46.000,22.854,17.455,1092.853489
1 Dec 2019 20:21:47.000,23.089,17.317,1098.223841
1 Dec 2019 20:21:48.000,23.322,17.179,1103.613309
1 Dec 2019 20:21:49.000,23.552,17.043,1109.021607
1 Dec 2019 20:21:50.000,23.780,16.907,1114.448457
1 Dec 2019 20:21:51.000,24.005,16.772,1119.893580
1 Dec 2019 20:21:52.000,24.228,16.637,1125.356706
1 Dec 2019 20:21:53.000,24.448,16.503,1130.837565
1 Dec 2019 20:21:54.000,24.666,16.370,1136.335895
1 Dec 2019 20:21:55.000,24.882,16.238,1141.851436
1 Dec 2019 20:21:56.000,25.095,16.106,1147.383933
1 Dec 2019 20:21:57.000,25.306,15.975,1152.933136
1 Dec 2019 20:21:58.000,25.515,15.845,1158.498798
1 Dec 2019 20:21:59.000,25.721,15.716,1164.080674
1 Dec 2019 20:22:00.000,25.925,15.587,1169.678527
1 Dec 2019 20:22:01.000,26.127,15.459,1175.292120
1 Dec 2019 20:22:02.000,26.327,15.331,1180.921223
1 Dec 2019 20:22:03.000,26.525,15.205,1186.565607
1 Dec 2019 20:22:04.000,26.721,15.079,1192.225049
1 Dec 2019 20:22:05.000,26.915,14.953,1197.899329
1 Dec 2019 20:22:06.000,27.106,14.829,1203.588230
1 Dec 2019 20:22:07.000,27.296,14.705,1209.291537
1 Dec 2019 20:22:08.000,27.484,14.581,1215.009040
1 Dec 2019 20:22:09.000,27.670,14.459,1220.740534
1 Dec 2019 20:22:10.000,27.854,14.337,1226.485815
1 Dec 2019 20:22:11.000,28.036,14.215,1232.244683
1 Dec 2019 20:22:12.000,28.216,14.095,1238.016942
1 Dec 2019 20:22:13.000,28.394,13.975,1243.802397
1 Dec 2019 20:22:14.000,28.571,13.856,1249.600859
1 Dec 2019 20:22:15.000,28.745,13.737,1255.412139
1 Dec 2019 20:22:16.000,28.918,13.619,1261.236055
1 Dec 2019 20:22:17.000,29.090,13.502,1267.072423
1 Dec 2019 20:22:18.000,29.259,13.385,1272.921066
1 Dec 2019 20:22:19.000,29.427,13.269,1278.781810
1 Dec 2019 20:22:20.000,29.593,13.153,1284.654478
1 Dec 2019 20:22:21.000,29.758,13.038,1290.538902
1 Dec 2019 20:22:22.000,29.921,12.924,1296.434915
1 Dec 2019 20:22:23.000,30.082,12.811,1302.342352
1 Dec 2019 20:22:24.000,30.242,12.698,1308.261052
1 Dec 2019 20:22:25.000,30.400,12.585,1314.190853
1 Dec 2019 20:22:26.000,30.557,12.474,1320.131601
1 Dec 2019 20:22:27.000,30.712,12.363,1326.083139
1 Dec 2019 20:22:28.000,30.866,12.252,1332.045317
1 Dec 2019 20:22:29.000,31.018,12.142,1338.017985
1 Dec 2019 20:22:30.000,31.169,12.033,1344.000995
1 Dec 2019 20:22:31.000,31.318,11.924,1349.994203
1 Dec 2019 20:22:32.000,31.466,11.816,1355.997465
1 Dec 2019 20:22:33.000,31.613,11.708,1362.010643
1 Dec 2019 20:22:34.000,31.758,11.601,1368.033597
1 Dec 2019 20:22:35.000,31.902,11.495,1374.066191
1 Dec 2019 20:22:36.000,32.044,11.389,1380.108293
1 Dec 2019 20:22:37.000,32.186,11.283,1386.159769
1 Dec 2019 20:22:38.000,32.326,11.178,1392.220491
1 Dec 2019 20:22:39.000,32.464,11.074,1398.290330
1 Dec 2019 20:22:40.000,32.602,10.971,1404.369161
1 Dec 2019 20:22:41.000,32.738,10.867,1410.456861
1 Dec 2019 20:22:42.000,32.872,10.765,1416.553307
1 Dec 2019 20:22:43.000,33.006,10.663,1422.658380
1 Dec 2019 20:22:44.000,33.139,10.561,1428.771961
1 Dec 2019 20:22:45.000,33.270,10.460,1434.893933
1 Dec 2019 20:22:46.000,33.400,10.359,1441.024184
1 Dec 2019 20:22:47.000,33.529,10.259,1447.162601
1 Dec 2019 20:22:48.000,33.657,10.160,1453.309071
1 Dec 2019 20:22:49.000,33.783,10.061,1459.463486
1 Dec 2019 20:22:50.000,33.909,9.962,1465.625739
1 Dec 2019 20:22:51.000,34.033,9.864,1471.795723
1 Dec 2019 20:22:52.000,34.157,9.767,1477.973334
1 Dec 2019 20:22:53.000,34.279,9.670,1484.158469
1 Dec 2019 20:22:54.000,34.400,9.573,1490.351026
1 Dec 2019 20:22:55.000,34.520,9.477,1496.550907
1 Dec 2019 20:22:56.000,34.640,9.382,1502.758013
1 Dec 2019 20:22:57.000,34.758,9.286,1508.972247
1 Dec 2019 20:22:58.000,34.875,9.192,1515.193513
1 Dec 2019 20:22:59.000,34.991,9.098,1521.421719
1 Dec 2019 20:23:00.000,35.106,9.004,1527.656772
1 Dec 2019 20:23:01.000,35.220,8.910,1533.898577
1 Dec 2019 20:23:02.000,35.334,8.818,1540.147051
1 Dec 2019 20:23:03.000,35.446,8.725,1546.402102
1 Dec 2019 20:23:04.000,35.557,8.633,1552.663643
1 Dec 2019 20:23:05.000,35.668,8.542,1558.931588
1 Dec 2019 20:23:06.000,35.777,8.451,1565.205853
1 Dec 2019 20:23:07.000,35.886,8.360,1571.486354
1 Dec 2019 20:23:08.000,35.994,8.270,1577.773010
1 Dec 2019 20:23:09.000,36.100,8.180,1584.065739
1 Dec 2019 20:23:10.000,36.206,8.091,1590.364462
1 Dec 2019 20:23:11.000,36.312,8.002,1596.669099
1 Dec 2019 20:23:12.000,36.416,7.913,1602.979573
1 Dec 2019 20:23:13.000,36.519,7.825,1609.295809
1 Dec 2019 20:23:14.000,36.622,7.737,1615.617731
1 Dec 2019 20:23:15.000,36.724,7.650,1621.945265
1 Dec 2019 20:23:16.000,36.825,7.563,1628.278338
1 Dec 2019 20:23:17.000,36.925,7.476,1634.616877
1 Dec 2019 20:23:18.000,37.024,7.390,1640.960812
1 Dec 2019 20:23:19.000,37.123,7.305,1647.310072
1 Dec 2019 20:23:20.000,37.221,7.219,1653.664588
1 Dec 2019 20:23:21.000,37.318,7.134,1660.024291
1 Dec 2019 20:23:22.000,37.414,7.050,1666.389117
1 Dec 2019 20:23:23.000,37.510,6.965,1672.758998
1 Dec 2019 20:23:24.000,37.605,6.881,1679.133869
1 Dec 2019 20:23:25.000,37.699,6.798,1685.513665
1 Dec 2019 20:23:26.000,37.793,6.715,1691.898323
1 Dec 2019 20:23:27.000,37.885,6.632,1698.287780
1 Dec 2019 20:23:28.000,37.977,6.550,1704.681975
1 Dec 2019 20:23:29.000,38.069,6.467,1711.080844
1 Dec 2019 20:23:30.000,38.159,6.386,1717.484333
1 Dec 2019 20:23:31.000,38.249,6.304,1723.892379
1 Dec 2019 20:23:32.000,38.339,6.223,1730.304924
1 Dec 2019 20:23:33.000,38.427,6.143,1736.721910
1 Dec 2019 20:23:34.000,38.515,6.062,1743.143281
1 Dec 2019 20:23:35.000,38.603,5.982,1749.568981
1 Dec 2019 20:23:36.000,38.689,5.902,1755.998952
1 Dec 2019 20:23:37.000,38.776,5.823,1762.433144
1 Dec 2019 20:23:38.000,38.861,5.744,1768.871500
1 Dec 2019 20:23:39.000,38.946,5.665,1775.313969
1 Dec 2019 20:23:40.000,39.030,5.587,1781.760497
1 Dec 2019 20:23:41.000,39.114,5.509,1788.211032
1 Dec 2019 20:23:42.000,39.197,5.431,1794.665524
1 Dec 2019 20:23:43.000,39.279,5.354,1801.123920
1 Dec 2019 20:23:44.000,39.361,5.276,1807.586176
1 Dec 2019 20:23:45.000,39.442,5.200,1814.052238
1 Dec 2019 20:23:46.000,39.523,5.123,1820.522060
1 Dec 2019 20:23:47.000,39.603,5.047,1826.995594
1 Dec 2019 20:23:48.000,39.683,4.971,1833.472791
1 Dec 2019 20:23:49.000,39.762,4.895,1839.953604
1 Dec 2019 20:23:50.000,39.840,4.820,1846.437992
1 Dec 2019 20:23:51.000,39.918,4.745,1852.925905
1 Dec 2019 20:23:52.000,39.995,4.670,1859.417301
1 Dec 2019 20:23:53.000,40.072,4.596,1865.912134
1 Dec 2019 20:23:54.000,40.149,4.521,1872.410361
1 Dec 2019 20:23:55.000,40.224,4.447,1878.911937
1 Dec 2019 20:23:56.000,40.300,4.374,1885.416823
1 Dec 2019 20:23:57.000,40.374,4.300,1891.924976
1 Dec 2019 20:23:58.000,40.449,4.227,1898.436353
1 Dec 2019 20:23:59.000,40.522,4.154,1904.950915
1 Dec 2019 20:24:00.000,40.596,4.082,1911.468620
1 Dec 2019 20:24:01.000,40.669,4.010,1917.989427
1 Dec 2019 20:24:02.000,40.741,3.938,1924.513300
1 Dec 2019 20:24:03.000,40.813,3.866,1931.040198
1 Dec 2019 20:24:04.000,40.884,3.794,1937.570084
1 Dec 2019 20:24:05.000,40.955,3.723,1944.102918
1 Dec 2019 20:24:06.000,41.025,3.652,1950.638664
1 Dec 2019 20:24:07.000,41.095,3.581,1957.177282
1 Dec 2019 20:24:08.000,41.165,3.511,1963.718739
1 Dec 2019 20:24:09.000,41.234,3.441,1970.262999
1 Dec 2019 20:24:10.000,41.303,3.371,1976.810024
1 Dec 2019 20:24:11.000,41.371,3.301,1983.359780
1 Dec 2019 20:24:12.000,41.439,3.231,1989.912230
1 Dec 2019 20:24:13.000,41.506,3.162,1996.467343
1 Dec 2019 20:24:14.000,41.573,3.093,2003.025083
1 Dec 2019 20:24:15.000,41.639,3.024,2009.585417
1 Dec 2019 20:24:16.000,41.705,2.956,2016.148312
1 Dec 2019 20:24:17.000,41.771,2.887,2022.713731
1 Dec 2019 20:24:18.000,41.836,2.819,2029.281649
1 Dec 2019 20:24:19.000,41.901,2.751,2035.852029
1 Dec 2019 20:24:20.000,41.965,2.683,2042.424841
1 Dec 2019 20:24:21.000,42.029,2.616,2049.000053
1 Dec 2019 20:24:22.000,42.093,2.549,2055.577634
1 Dec 2019 20:24:23.000,42.156,2.482,2062.157552
1 Dec 2019 20:24:24.000,42.219,2.415,2068.739780
1 Dec 2019 20:24:25.000,42.282,2.348,2075.324287
1 Dec 2019 20:24:26.000,42.344,2.282,2081.911042
1 Dec 2019 20:24:27.000,42.405,2.216,2088.500018
1 Dec 2019 20:24:28.000,42.467,2.150,2095.091182
1 Dec 2019 20:24:29.000,42.528,2.084,2101.684510
1 Dec 2019 20:24:30.000,42.588,2.019,2108.279973
1 Dec 2019 20:24:31.000,42.648,1.953,2114.877542
