vcc_sched/network/input/aer_odugs_wj2xoh_vcc-c_44430.csv

"Time (UTCG)","Azimuth (deg)","Elevation (deg)","Range (km)"
1 Dec 2019 17:07:19.488,127.444,-0.124,2317.735709
1 Dec 2019 17:07:20.000,127.352,-0.121,2317.350535
1 Dec 2019 17:07:21.000,127.170,-0.114,2316.613642
1 Dec 2019 17:07:22.000,126.989,-0.107,2315.897662
1 Dec 2019 17:07:23.000,126.807,-0.100,2315.202619
1 Dec 2019 17:07:24.000,126.626,-0.094,2314.528528
1 Dec 2019 17:07:25.000,126.444,-0.088,2313.875411
1 Dec 2019 17:07:26.000,126.262,-0.082,2313.243287
1 Dec 2019 17:07:27.000,126.080,-0.076,2312.632179
1 Dec 2019 17:07:28.000,125.898,-0.070,2312.042098
1 Dec 2019 17:07:29.000,125.716,-0.065,2311.473064
1 Dec 2019 17:07:30.000,125.534,-0.060,2310.925096
1 Dec 2019 17:07:31.000,125.352,-0.055,2310.398209
1 Dec 2019 17:07:32.000,125.169,-0.050,2309.892422
1 Dec 2019 17:07:33.000,124.987,-0.045,2309.407744
1 Dec 2019 17:07:34.000,124.804,-0.041,2308.944192
1 Dec 2019 17:07:35.000,124.622,-0.036,2308.501782
1 Dec 2019 17:07:36.000,124.439,-0.032,2308.080525
1 Dec 2019 17:07:37.000,124.256,-0.028,2307.680435
1 Dec 2019 17:07:38.000,124.074,-0.025,2307.301525
1 Dec 2019 17:07:39.000,123.891,-0.021,2306.943808
1 Dec 2019 17:07:40.000,123.708,-0.018,2306.607290
1 Dec 2019 17:07:41.000,123.525,-0.015,2306.291984
1 Dec 2019 17:07:42.000,123.342,-0.012,2305.997900
1 Dec 2019 17:07:43.000,123.159,-0.009,2305.725047
1 Dec 2019 17:07:44.000,122.976,-0.006,2305.473433
1 Dec 2019 17:07:45.000,122.792,-0.004,2305.243067
1 Dec 2019 17:07:46.000,122.609,-0.002,2305.033957
1 Dec 2019 17:07:47.000,122.426,0.000,2304.846107
1 Dec 2019 17:07:48.000,122.243,0.002,2304.679526
1 Dec 2019 17:07:49.000,122.060,0.004,2304.534218
1 Dec 2019 17:07:50.000,121.876,0.005,2304.410188
1 Dec 2019 17:07:51.000,121.693,0.007,2304.307441
1 Dec 2019 17:07:52.000,121.510,0.008,2304.225980
1 Dec 2019 17:07:53.000,121.326,0.009,2304.165812
1 Dec 2019 17:07:54.000,121.143,0.009,2304.126932
1 Dec 2019 17:07:55.000,120.960,0.010,2304.109345
1 Dec 2019 17:07:56.000,120.776,0.010,2304.113054
1 Dec 2019 17:07:57.000,120.593,0.010,2304.138058
1 Dec 2019 17:07:58.000,120.410,0.010,2304.184357
1 Dec 2019 17:07:59.000,120.226,0.010,2304.251950
1 Dec 2019 17:08:00.000,120.043,0.009,2304.340834
1 Dec 2019 17:08:01.000,119.860,0.009,2304.451013
1 Dec 2019 17:08:02.000,119.676,0.008,2304.582481
1 Dec 2019 17:08:03.000,119.493,0.007,2304.735234
1 Dec 2019 17:08:04.000,119.310,0.006,2304.909270
1 Dec 2019 17:08:05.000,119.127,0.004,2305.104584
1 Dec 2019 17:08:06.000,118.944,0.003,2305.321171
1 Dec 2019 17:08:07.000,118.761,0.001,2305.559025
1 Dec 2019 17:08:08.000,118.577,-0.001,2305.818141
1 Dec 2019 17:08:09.000,118.394,-0.003,2306.098511
1 Dec 2019 17:08:10.000,118.211,-0.006,2306.400128
1 Dec 2019 17:08:11.000,118.028,-0.008,2306.722984
1 Dec 2019 17:08:12.000,117.846,-0.011,2307.067070
1 Dec 2019 17:08:13.000,117.663,-0.014,2307.432375
1 Dec 2019 17:08:14.000,117.480,-0.017,2307.818894
1 Dec 2019 17:08:15.000,117.297,-0.020,2308.226614
1 Dec 2019 17:08:16.000,117.115,-0.024,2308.655524
1 Dec 2019 17:08:17.000,116.932,-0.028,2309.105612
1 Dec 2019 17:08:18.000,116.750,-0.032,2309.576866
1 Dec 2019 17:08:19.000,116.567,-0.036,2310.069274
1 Dec 2019 17:08:20.000,116.385,-0.040,2310.582818
1 Dec 2019 17:08:21.000,116.202,-0.044,2311.117491
1 Dec 2019 17:08:22.000,116.020,-0.049,2311.673276
1 Dec 2019 17:08:23.000,115.838,-0.054,2312.250156
1 Dec 2019 17:08:24.000,115.656,-0.059,2312.848117
1 Dec 2019 17:08:25.000,115.474,-0.064,2313.467141
1 Dec 2019 17:08:26.000,115.293,-0.069,2314.107209
1 Dec 2019 17:08:27.000,115.111,-0.075,2314.768309
1 Dec 2019 17:08:28.000,114.929,-0.081,2315.450421
1 Dec 2019 17:08:29.000,114.748,-0.087,2316.153525
1 Dec 2019 17:08:30.000,114.566,-0.093,2316.877599
1 Dec 2019 17:08:31.000,114.385,-0.099,2317.622629
1 Dec 2019 17:08:32.000,114.204,-0.106,2318.388593
1 Dec 2019 17:08:33.000,114.023,-0.112,2319.175468
1 Dec 2019 17:08:34.000,113.842,-0.119,2319.983231
1 Dec 2019 17:08:34.692,113.717,-0.124,2320.554198
1 Dec 2019 18:38:23.225,209.320,-0.124,2314.060638
1 Dec 2019 18:38:24.000,209.286,-0.078,2308.841092
1 Dec 2019 18:38:25.000,209.242,-0.017,2302.108483
1 Dec 2019 18:38:26.000,209.198,0.044,2295.377159
1 Dec 2019 18:38:27.000,209.154,0.105,2288.647136
1 Dec 2019 18:38:28.000,209.110,0.166,2281.918438
1 Dec 2019 18:38:29.000,209.065,0.227,2275.191084
1 Dec 2019 18:38:30.000,209.020,0.289,2268.465094
1 Dec 2019 18:38:31.000,208.974,0.351,2261.740485
1 Dec 2019 18:38:32.000,208.929,0.412,2255.017283
1 Dec 2019 18:38:33.000,208.883,0.474,2248.295505
1 Dec 2019 18:38:34.000,208.837,0.537,2241.575174
1 Dec 2019 18:38:35.000,208.790,0.599,2234.856310
1 Dec 2019 18:38:36.000,208.744,0.662,2228.138933
1 Dec 2019 18:38:37.000,208.697,0.724,2221.423069
1 Dec 2019 18:38:38.000,208.649,0.787,2214.708737
1 Dec 2019 18:38:39.000,208.602,0.850,2207.995959
1 Dec 2019 18:38:40.000,208.554,0.914,2201.284757
1 Dec 2019 18:38:41.000,208.505,0.977,2194.575156
1 Dec 2019 18:38:42.000,208.457,1.041,2187.867177
1 Dec 2019 18:38:43.000,208.408,1.105,2181.160844
1 Dec 2019 18:38:44.000,208.359,1.169,2174.456178
1 Dec 2019 18:38:45.000,208.309,1.233,2167.753207
1 Dec 2019 18:38:46.000,208.260,1.297,2161.051952
1 Dec 2019 18:38:47.000,208.209,1.362,2154.352437
1 Dec 2019 18:38:48.000,208.159,1.427,2147.654687
1 Dec 2019 18:38:49.000,208.108,1.492,2140.958727
1 Dec 2019 18:38:50.000,208.057,1.557,2134.264583
1 Dec 2019 18:38:51.000,208.006,1.623,2127.572278
1 Dec 2019 18:38:52.000,207.954,1.688,2120.881838
1 Dec 2019 18:38:53.000,207.902,1.754,2114.193291
1 Dec 2019 18:38:54.000,207.849,1.820,2107.506661
1 Dec 2019 18:38:55.000,207.797,1.887,2100.821976
1 Dec 2019 18:38:56.000,207.743,1.953,2094.139262
1 Dec 2019 18:38:57.000,207.690,2.020,2087.458543
1 Dec 2019 18:38:58.000,207.636,2.087,2080.779852
1 Dec 2019 18:38:59.000,207.582,2.154,2074.103214
1 Dec 2019 18:39:00.000,207.527,2.221,2067.428657
1 Dec 2019 18:39:01.000,207.472,2.289,2060.756207
1 Dec 2019 18:39:02.000,207.417,2.357,2054.085898
1 Dec 2019 18:39:03.000,207.361,2.425,2047.417755
1 Dec 2019 18:39:04.000,207.305,2.493,2040.751809
1 Dec 2019 18:39:05.000,207.249,2.562,2034.088089
1 Dec 2019 18:39:06.000,207.192,2.630,2027.426623
1 Dec 2019 18:39:07.000,207.135,2.699,2020.767446
1 Dec 2019 18:39:08.000,207.077,2.769,2014.110586
1 Dec 2019 18:39:09.000,207.019,2.838,2007.456075
1 Dec 2019 18:39:10.000,206.960,2.908,2000.803943
1 Dec 2019 18:39:11.000,206.902,2.978,1994.154223
1 Dec 2019 18:39:12.000,206.842,3.048,1987.506949
1 Dec 2019 18:39:13.000,206.783,3.118,1980.862151
1 Dec 2019 18:39:14.000,206.722,3.189,1974.219864
1 Dec 2019 18:39:15.000,206.662,3.260,1967.580118
1 Dec 2019 18:39:16.000,206.601,3.331,1960.942952
1 Dec 2019 18:39:17.000,206.540,3.403,1954.308398
1 Dec 2019 18:39:18.000,206.478,3.475,1947.676490
1 Dec 2019 18:39:19.000,206.415,3.547,1941.047263
1 Dec 2019 18:39:20.000,206.353,3.619,1934.420754
1 Dec 2019 18:39:21.000,206.290,3.691,1927.797000
1 Dec 2019 18:39:22.000,206.226,3.764,1921.176036
1 Dec 2019 18:39:23.000,206.162,3.837,1914.557899
1 Dec 2019 18:39:24.000,206.097,3.911,1907.942625
1 Dec 2019 18:39:25.000,206.032,3.984,1901.330255
1 Dec 2019 18:39:26.000,205.967,4.058,1894.720826
1 Dec 2019 18:39:27.000,205.901,4.132,1888.114378
1 Dec 2019 18:39:28.000,205.834,4.207,1881.510949
1 Dec 2019 18:39:29.000,205.767,4.282,1874.910577
1 Dec 2019 18:39:30.000,205.700,4.357,1868.313308
1 Dec 2019 18:39:31.000,205.632,4.432,1861.719179
1 Dec 2019 18:39:32.000,205.563,4.508,1855.128232
1 Dec 2019 18:39:33.000,205.494,4.584,1848.540510
1 Dec 2019 18:39:34.000,205.425,4.660,1841.956054
1 Dec 2019 18:39:35.000,205.355,4.736,1835.374910
1 Dec 2019 18:39:36.000,205.284,4.813,1828.797119
1 Dec 2019 18:39:37.000,205.213,4.890,1822.222727
1 Dec 2019 18:39:38.000,205.141,4.968,1815.651778
1 Dec 2019 18:39:39.000,205.069,5.046,1809.084317
1 Dec 2019 18:39:40.000,204.996,5.124,1802.520392
1 Dec 2019 18:39:41.000,204.923,5.202,1795.960049
1 Dec 2019 18:39:42.000,204.849,5.281,1789.403336
1 Dec 2019 18:39:43.000,204.775,5.360,1782.850299
1 Dec 2019 18:39:44.000,204.700,5.439,1776.300988
1 Dec 2019 18:39:45.000,204.624,5.519,1769.755451
1 Dec 2019 18:39:46.000,204.548,5.599,1763.213741
1 Dec 2019 18:39:47.000,204.471,5.680,1756.675907
1 Dec 2019 18:39:48.000,204.393,5.760,1750.142000
1 Dec 2019 18:39:49.000,204.315,5.841,1743.612072
1 Dec 2019 18:39:50.000,204.237,5.923,1737.086176
1 Dec 2019 18:39:51.000,204.157,6.005,1730.564367
1 Dec 2019 18:39:52.000,204.077,6.087,1724.046698
1 Dec 2019 18:39:53.000,203.997,6.169,1717.533224
1 Dec 2019 18:39:54.000,203.915,6.252,1711.024002
1 Dec 2019 18:39:55.000,203.834,6.336,1704.519087
1 Dec 2019 18:39:56.000,203.751,6.419,1698.018537
1 Dec 2019 18:39:57.000,203.668,6.503,1691.522411
1 Dec 2019 18:39:58.000,203.584,6.588,1685.030768
1 Dec 2019 18:39:59.000,203.499,6.672,1678.543667
1 Dec 2019 18:40:00.000,203.414,6.758,1672.061170
1 Dec 2019 18:40:01.000,203.328,6.843,1665.583338
1 Dec 2019 18:40:02.000,203.241,6.929,1659.110232
1 Dec 2019 18:40:03.000,203.154,7.015,1652.641918
1 Dec 2019 18:40:04.000,203.065,7.102,1646.178460
1 Dec 2019 18:40:05.000,202.976,7.189,1639.719922
1 Dec 2019 18:40:06.000,202.887,7.277,1633.266371
1 Dec 2019 18:40:07.000,202.796,7.365,1626.817875
1 Dec 2019 18:40:08.000,202.705,7.453,1620.374499
1 Dec 2019 18:40:09.000,202.613,7.542,1613.936316
1 Dec 2019 18:40:10.000,202.520,7.631,1607.503396
1 Dec 2019 18:40:11.000,202.426,7.721,1601.075808
1 Dec 2019 18:40:12.000,202.332,7.811,1594.653625
1 Dec 2019 18:40:13.000,202.237,7.901,1588.236922
1 Dec 2019 18:40:14.000,202.141,7.992,1581.825772
1 Dec 2019 18:40:15.000,202.044,8.083,1575.420249
1 Dec 2019 18:40:16.000,201.946,8.175,1569.020434
1 Dec 2019 18:40:17.000,201.847,8.268,1562.626402
1 Dec 2019 18:40:18.000,201.748,8.360,1556.238233
1 Dec 2019 18:40:19.000,201.648,8.454,1549.856007
1 Dec 2019 18:40:20.000,201.546,8.547,1543.479805
1 Dec 2019 18:40:21.000,201.444,8.641,1537.109711
1 Dec 2019 18:40:22.000,201.341,8.736,1530.745808
1 Dec 2019 18:40:23.000,201.237,8.831,1524.388181
1 Dec 2019 18:40:24.000,201.132,8.927,1518.036918
1 Dec 2019 18:40:25.000,201.026,9.023,1511.692107
1 Dec 2019 18:40:26.000,200.919,9.119,1505.353836
1 Dec 2019 18:40:27.000,200.811,9.216,1499.022196
1 Dec 2019 18:40:28.000,200.702,9.314,1492.697280
1 Dec 2019 18:40:29.000,200.593,9.412,1486.379181
1 Dec 2019 18:40:30.000,200.482,9.510,1480.067994
1 Dec 2019 18:40:31.000,200.370,9.609,1473.763815
1 Dec 2019 18:40:32.000,200.257,9.709,1467.466742
1 Dec 2019 18:40:33.000,200.143,9.809,1461.176876
1 Dec 2019 18:40:34.000,200.028,9.910,1454.894317
1 Dec 2019 18:40:35.000,199.912,10.011,1448.619168
1 Dec 2019 18:40:36.000,199.794,10.113,1442.351534
1 Dec 2019 18:40:37.000,199.676,10.215,1436.091520
1 Dec 2019 18:40:38.000,199.556,10.318,1429.839235
1 Dec 2019 18:40:39.000,199.436,10.421,1423.594787
1 Dec 2019 18:40:40.000,199.314,10.525,1417.358288
1 Dec 2019 18:40:41.000,199.191,10.630,1411.129851
1 Dec 2019 18:40:42.000,199.067,10.735,1404.909591
1 Dec 2019 18:40:43.000,198.941,10.841,1398.697623
1 Dec 2019 18:40:44.000,198.815,10.947,1392.494068
1 Dec 2019 18:40:45.000,198.687,11.054,1386.299046
1 Dec 2019 18:40:46.000,198.558,11.161,1380.112679
1 Dec 2019 18:40:47.000,198.427,11.269,1373.935092
1 Dec 2019 18:40:48.000,198.296,11.378,1367.766410
1 Dec 2019 18:40:49.000,198.163,11.487,1361.606764
1 Dec 2019 18:40:50.000,198.028,11.597,1355.456282
1 Dec 2019 18:40:51.000,197.893,11.707,1349.315099
1 Dec 2019 18:40:52.000,197.756,11.819,1343.183349
1 Dec 2019 18:40:53.000,197.617,11.930,1337.061170
1 Dec 2019 18:40:54.000,197.477,12.043,1330.948701
1 Dec 2019 18:40:55.000,197.336,12.156,1324.846084
1 Dec 2019 18:40:56.000,197.193,12.269,1318.753464
1 Dec 2019 18:40:57.000,197.049,12.384,1312.670986
1 Dec 2019 18:40:58.000,196.904,12.499,1306.598800
1 Dec 2019 18:40:59.000,196.756,12.614,1300.537058
1 Dec 2019 18:41:00.000,196.608,12.731,1294.485914
1 Dec 2019 18:41:01.000,196.457,12.848,1288.445524
1 Dec 2019 18:41:02.000,196.306,12.965,1282.416048
1 Dec 2019 18:41:03.000,196.152,13.084,1276.397648
1 Dec 2019 18:41:04.000,195.997,13.203,1270.390489
1 Dec 2019 18:41:05.000,195.840,13.323,1264.394738
1 Dec 2019 18:41:06.000,195.682,13.443,1258.410566
1 Dec 2019 18:41:07.000,195.522,13.564,1252.438146
1 Dec 2019 18:41:08.000,195.360,13.686,1246.477654
1 Dec 2019 18:41:09.000,195.197,13.809,1240.529270
1 Dec 2019 18:41:10.000,195.031,13.932,1234.593175
1 Dec 2019 18:41:11.000,194.864,14.056,1228.669556
1 Dec 2019 18:41:12.000,194.695,14.181,1222.758600
1 Dec 2019 18:41:13.000,194.524,14.307,1216.860500
1 Dec 2019 18:41:14.000,194.352,14.433,1210.975451
1 Dec 2019 18:41:15.000,194.177,14.560,1205.103651
1 Dec 2019 18:41:16.000,194.001,14.688,1199.245301
1 Dec 2019 18:41:17.000,193.822,14.816,1193.400608
1 Dec 2019 18:41:18.000,193.642,14.946,1187.569780
1 Dec 2019 18:41:19.000,193.459,15.076,1181.753029
1 Dec 2019 18:41:20.000,193.275,15.207,1175.950572
1 Dec 2019 18:41:21.000,193.088,15.338,1170.162628
1 Dec 2019 18:41:22.000,192.900,15.471,1164.389420
1 Dec 2019 18:41:23.000,192.709,15.604,1158.631177
1 Dec 2019 18:41:24.000,192.516,15.738,1152.888129
1 Dec 2019 18:41:25.000,192.321,15.873,1147.160512
1 Dec 2019 18:41:26.000,192.123,16.009,1141.448565
1 Dec 2019 18:41:27.000,191.923,16.145,1135.752531
1 Dec 2019 18:41:28.000,191.721,16.283,1130.072657
1 Dec 2019 18:41:29.000,191.517,16.421,1124.409197
1 Dec 2019 18:41:30.000,191.310,16.560,1118.762406
1 Dec 2019 18:41:31.000,191.101,16.699,1113.132545
1 Dec 2019 18:41:32.000,190.889,16.840,1107.519879
1 Dec 2019 18:41:33.000,190.675,16.981,1101.924677
1 Dec 2019 18:41:34.000,190.458,17.123,1096.347214
1 Dec 2019 18:41:35.000,190.239,17.267,1090.787769
1 Dec 2019 18:41:36.000,190.017,17.410,1085.246625
1 Dec 2019 18:41:37.000,189.793,17.555,1079.724071
1 Dec 2019 18:41:38.000,189.565,17.701,1074.220401
1 Dec 2019 18:41:39.000,189.335,17.847,1068.735913
1 Dec 2019 18:41:40.000,189.103,17.994,1063.270910
1 Dec 2019 18:41:41.000,188.867,18.142,1057.825703
1 Dec 2019 18:41:42.000,188.629,18.291,1052.400603
1 Dec 2019 18:41:43.000,188.387,18.441,1046.995931
1 Dec 2019 18:41:44.000,188.143,18.592,1041.612011
1 Dec 2019 18:41:45.000,187.896,18.743,1036.249174
1 Dec 2019 18:41:46.000,187.645,18.896,1030.907755
1 Dec 2019 18:41:47.000,187.392,19.049,1025.588094
1 Dec 2019 18:41:48.000,187.136,19.203,1020.290540
1 Dec 2019 18:41:49.000,186.876,19.357,1015.015445
1 Dec 2019 18:41:50.000,186.613,19.513,1009.763167
1 Dec 2019 18:41:51.000,186.347,19.669,1004.534071
1 Dec 2019 18:41:52.000,186.077,19.827,999.328526
1 Dec 2019 18:41:53.000,185.804,19.985,994.146910
1 Dec 2019 18:41:54.000,185.528,20.144,988.989605
1 Dec 2019 18:41:55.000,185.248,20.303,983.856999
1 Dec 2019 18:41:56.000,184.964,20.464,978.749488
1 Dec 2019 18:41:57.000,184.677,20.625,973.667472
1 Dec 2019 18:41:58.000,184.387,20.787,968.611360
1 Dec 2019 18:41:59.000,184.092,20.950,963.581565
1 Dec 2019 18:42:00.000,183.794,21.114,958.578507
1 Dec 2019 18:42:01.000,183.492,21.278,953.602615
1 Dec 2019 18:42:02.000,183.187,21.443,948.654321
1 Dec 2019 18:42:03.000,182.877,21.609,943.734065
1 Dec 2019 18:42:04.000,182.563,21.775,938.842295
1 Dec 2019 18:42:05.000,182.245,21.942,933.979464
1 Dec 2019 18:42:06.000,181.924,22.110,929.146033
1 Dec 2019 18:42:07.000,181.598,22.279,924.342468
1 Dec 2019 18:42:08.000,181.267,22.448,919.569244
1 Dec 2019 18:42:09.000,180.933,22.618,914.826842
1 Dec 2019 18:42:10.000,180.594,22.788,910.115749
1 Dec 2019 18:42:11.000,180.251,22.959,905.436459
1 Dec 2019 18:42:12.000,179.903,23.131,900.789475
1 Dec 2019 18:42:13.000,179.551,23.303,896.175304
1 Dec 2019 18:42:14.000,179.194,23.476,891.594462
1 Dec 2019 18:42:15.000,178.833,23.649,887.047471
1 Dec 2019 18:42:16.000,178.467,23.822,882.534859
1 Dec 2019 18:42:17.000,178.096,23.996,878.057163
1 Dec 2019 18:42:18.000,177.720,24.171,873.614924
1 Dec 2019 18:42:19.000,177.339,24.346,869.208692
1 Dec 2019 18:42:20.000,176.954,24.521,864.839023
1 Dec 2019 18:42:21.000,176.563,24.696,860.506479
1 Dec 2019 18:42:22.000,176.167,24.872,856.211629
1 Dec 2019 18:42:23.000,175.766,25.048,851.955048
1 Dec 2019 18:42:24.000,175.360,25.224,847.737318
1 Dec 2019 18:42:25.000,174.949,25.400,843.559028
1 Dec 2019 18:42:26.000,174.533,25.577,839.420771
1 Dec 2019 18:42:27.000,174.111,25.753,835.323148
1 Dec 2019 18:42:28.000,173.683,25.929,831.266764
1 Dec 2019 18:42:29.000,173.250,26.106,827.252231
1 Dec 2019 18:42:30.000,172.812,26.282,823.280167
1 Dec 2019 18:42:31.000,172.368,26.458,819.351194
1 Dec 2019 18:42:32.000,171.918,26.634,815.465939
1 Dec 2019 18:42:33.000,171.463,26.810,811.625037
1 Dec 2019 18:42:34.000,171.001,26.985,807.829123
1 Dec 2019 18:42:35.000,170.534,27.160,804.078840
1 Dec 2019 18:42:36.000,170.062,27.335,800.374834
1 Dec 2019 18:42:37.000,169.583,27.509,796.717755
1 Dec 2019 18:42:38.000,169.098,27.683,793.108257
1 Dec 2019 18:42:39.000,168.608,27.856,789.546996
1 Dec 2019 18:42:40.000,168.111,28.028,786.034634
1 Dec 2019 18:42:41.000,167.608,28.199,782.571833
1 Dec 2019 18:42:42.000,167.099,28.370,779.159258
1 Dec 2019 18:42:43.000,166.584,28.539,775.797575
1 Dec 2019 18:42:44.000,166.063,28.708,772.487455
1 Dec 2019 18:42:45.000,165.536,28.875,769.229566
1 Dec 2019 18:42:46.000,165.003,29.041,766.024579
1 Dec 2019 18:42:47.000,164.463,29.206,762.873164
1 Dec 2019 18:42:48.000,163.917,29.370,759.775994
1 Dec 2019 18:42:49.000,163.365,29.532,756.733736
1 Dec 2019 18:42:50.000,162.807,29.693,753.747062
1 Dec 2019 18:42:51.000,162.242,29.852,750.816636
1 Dec 2019 18:42:52.000,161.672,30.009,747.943124
1 Dec 2019 18:42:53.000,161.095,30.165,745.127189
1 Dec 2019 18:42:54.000,160.512,30.318,742.369489
1 Dec 2019 18:42:55.000,159.922,30.470,739.670679
1 Dec 2019 18:42:56.000,159.327,30.619,737.031409
1 Dec 2019 18:42:57.000,158.726,30.766,734.452325
1 Dec 2019 18:42:58.000,158.118,30.911,731.934066
1 Dec 2019 18:42:59.000,157.505,31.054,729.477264
1 Dec 2019 18:43:00.000,156.885,31.194,727.082547
1 Dec 2019 18:43:01.000,156.260,31.331,724.750534
1 Dec 2019 18:43:02.000,155.629,31.465,722.481833
1 Dec 2019 18:43:03.000,154.992,31.597,720.277046
1 Dec 2019 18:43:04.000,154.349,31.726,718.136766
1 Dec 2019 18:43:05.000,153.701,31.852,716.061572
1 Dec 2019 18:43:06.000,153.047,31.974,714.052036
1 Dec 2019 18:43:07.000,152.388,32.094,712.108715
1 Dec 2019 18:43:08.000,151.724,32.210,710.232156
1 Dec 2019 18:43:09.000,151.054,32.322,708.422891
1 Dec 2019 18:43:10.000,150.380,32.431,706.681441
1 Dec 2019 18:43:11.000,149.700,32.537,705.008310
1 Dec 2019 18:43:12.000,149.016,32.638,703.403986
1 Dec 2019 18:43:13.000,148.327,32.736,701.868946
1 Dec 2019 18:43:14.000,147.634,32.830,700.403645
1 Dec 2019 18:43:15.000,146.937,32.920,699.008526
1 Dec 2019 18:43:16.000,146.235,33.006,697.684009
1 Dec 2019 18:43:17.000,145.529,33.087,696.430502
1 Dec 2019 18:43:18.000,144.820,33.165,695.248388
1 Dec 2019 18:43:19.000,144.107,33.238,694.138033
1 Dec 2019 18:43:20.000,143.391,33.306,693.099788
1 Dec 2019 18:43:21.000,142.671,33.370,692.133973
1 Dec 2019 18:43:22.000,141.949,33.430,691.240897
1 Dec 2019 18:43:23.000,141.224,33.485,690.420843
1 Dec 2019 18:43:24.000,140.496,33.535,689.674071
1 Dec 2019 18:43:25.000,139.766,33.580,689.000821
1 Dec 2019 18:43:26.000,139.034,33.621,688.401310
1 Dec 2019 18:43:27.000,138.300,33.657,687.875735
1 Dec 2019 18:43:28.000,137.564,33.688,687.424261
1 Dec 2019 18:43:29.000,136.827,33.714,687.047036
1 Dec 2019 18:43:30.000,136.089,33.736,686.744186
1 Dec 2019 18:43:31.000,135.350,33.752,686.515807
1 Dec 2019 18:43:32.000,134.610,33.763,686.361976
1 Dec 2019 18:43:33.000,133.870,33.770,686.282742
1 Dec 2019 18:43:34.000,133.130,33.771,686.278132
1 Dec 2019 18:43:35.000,132.390,33.768,686.348147
1 Dec 2019 18:43:36.000,131.650,33.759,686.492765
1 Dec 2019 18:43:37.000,130.911,33.746,686.711939
1 Dec 2019 18:43:38.000,130.172,33.727,687.005597
1 Dec 2019 18:43:39.000,129.435,33.704,687.373645
1 Dec 2019 18:43:40.000,128.699,33.676,687.815961
1 Dec 2019 18:43:41.000,127.964,33.643,688.332402
1 Dec 2019 18:43:42.000,127.231,33.605,688.922800
1 Dec 2019 18:43:43.000,126.501,33.562,689.586969
1 Dec 2019 18:43:44.000,125.772,33.515,690.324691
1 Dec 2019 18:43:45.000,125.046,33.462,691.135733
1 Dec 2019 18:43:46.000,124.323,33.406,692.019831
1 Dec 2019 18:43:47.000,123.603,33.344,692.976712
1 Dec 2019 18:43:48.000,122.886,33.279,694.006069
1 Dec 2019 18:43:49.000,122.172,33.208,695.107579
1 Dec 2019 18:43:50.000,121.461,33.134,696.280902
1 Dec 2019 18:43:51.000,120.755,33.055,697.525672
1 Dec 2019 18:43:52.000,120.052,32.972,698.841504
1 Dec 2019 18:43:53.000,119.353,32.884,700.228001
1 Dec 2019 18:43:54.000,118.659,32.793,701.684737
1 Dec 2019 18:43:55.000,117.969,32.698,703.211279
1 Dec 2019 18:43:56.000,117.283,32.598,704.807167
1 Dec 2019 18:43:57.000,116.602,32.496,706.471935
1 Dec 2019 18:43:58.000,115.927,32.389,708.205090
1 Dec 2019 18:43:59.000,115.256,32.279,710.006134
1 Dec 2019 18:44:00.000,114.590,32.165,711.874545
1 Dec 2019 18:44:01.000,113.929,32.048,713.809795
1 Dec 2019 18:44:02.000,113.274,31.928,715.811341
1 Dec 2019 18:44:03.000,112.624,31.804,717.878623
1 Dec 2019 18:44:04.000,111.980,31.678,720.011073
1 Dec 2019 18:44:05.000,111.342,31.548,722.208116
1 Dec 2019 18:44:06.000,110.709,31.416,724.469155
1 Dec 2019 18:44:07.000,110.082,31.280,726.793594
1 Dec 2019 18:44:08.000,109.461,31.142,729.180823
1 Dec 2019 18:44:09.000,108.846,31.002,731.630226
1 Dec 2019 18:44:10.000,108.237,30.859,734.141181
1 Dec 2019 18:44:11.000,107.633,30.714,736.713048
1 Dec 2019 18:44:12.000,107.036,30.566,739.345193
1 Dec 2019 18:44:13.000,106.445,30.417,742.036972
1 Dec 2019 18:44:14.000,105.861,30.265,744.787734
1 Dec 2019 18:44:15.000,105.282,30.111,747.596825
1 Dec 2019 18:44:16.000,104.710,29.956,750.463588
1 Dec 2019 18:44:17.000,104.143,29.798,753.387360
1 Dec 2019 18:44:18.000,103.584,29.639,756.367478
1 Dec 2019 18:44:19.000,103.030,29.479,759.403274
1 Dec 2019 18:44:20.000,102.482,29.317,762.494081
1 Dec 2019 18:44:21.000,101.941,29.154,765.639227
1 Dec 2019 18:44:22.000,101.406,28.989,768.838044
1 Dec 2019 18:44:23.000,100.877,28.823,772.089860
1 Dec 2019 18:44:24.000,100.354,28.656,775.394004
1 Dec 2019 18:44:25.000,99.838,28.488,778.749808
1 Dec 2019 18:44:26.000,99.327,28.319,782.156601
1 Dec 2019 18:44:27.000,98.823,28.149,785.613717
1 Dec 2019 18:44:28.000,98.325,27.978,789.120488
1 Dec 2019 18:44:29.000,97.832,27.806,792.676256
1 Dec 2019 18:44:30.000,97.346,27.634,796.280358
1 Dec 2019 18:44:31.000,96.866,27.461,799.932137
1 Dec 2019 18:44:32.000,96.391,27.288,803.630938
1 Dec 2019 18:44:33.000,95.923,27.114,807.376108
1 Dec 2019 18:44:34.000,95.460,26.940,811.167007
1 Dec 2019 18:44:35.000,95.003,26.765,815.002988
1 Dec 2019 18:44:36.000,94.552,26.590,818.883415
1 Dec 2019 18:44:37.000,94.107,26.415,822.807650
1 Dec 2019 18:44:38.000,93.667,26.240,826.775071
1 Dec 2019 18:44:39.000,93.232,26.064,830.785052
1 Dec 2019 18:44:40.000,92.804,25.889,834.836973
1 Dec 2019 18:44:41.000,92.380,25.713,838.930226
1 Dec 2019 18:44:42.000,91.962,25.538,843.064202
1 Dec 2019 18:44:43.000,91.550,25.363,847.238297
1 Dec 2019 18:44:44.000,91.142,25.187,851.451923
1 Dec 2019 18:44:45.000,90.740,25.012,855.704484
1 Dec 2019 18:44:46.000,90.343,24.837,859.995404
1 Dec 2019 18:44:47.000,89.951,24.663,864.324104
1 Dec 2019 18:44:48.000,89.565,24.488,868.690010
1 Dec 2019 18:44:49.000,89.183,24.314,873.092567
1 Dec 2019 18:44:50.000,88.806,24.141,877.531210
1 Dec 2019 18:44:51.000,88.434,23.967,882.005396
1 Dec 2019 18:44:52.000,88.067,23.795,886.514576
1 Dec 2019 18:44:53.000,87.704,23.622,891.058219
1 Dec 2019 18:44:54.000,87.346,23.450,895.635789
1 Dec 2019 18:44:55.000,86.993,23.279,900.246770
1 Dec 2019 18:44:56.000,86.644,23.108,904.890639
1 Dec 2019 18:44:57.000,86.300,22.937,909.566891
1 Dec 2019 18:44:58.000,85.960,22.768,914.275026
1 Dec 2019 18:44:59.000,85.625,22.598,919.014542
1 Dec 2019 18:45:00.000,85.293,22.430,923.784957
1 Dec 2019 18:45:01.000,84.966,22.262,928.585783
1 Dec 2019 18:45:02.000,84.644,22.094,933.416552
1 Dec 2019 18:45:03.000,84.325,21.928,938.276789
1 Dec 2019 18:45:04.000,84.010,21.762,943.166036
1 Dec 2019 18:45:05.000,83.700,21.597,948.083842
1 Dec 2019 18:45:06.000,83.393,21.432,953.029753
1 Dec 2019 18:45:07.000,83.091,21.268,958.003330
1 Dec 2019 18:45:08.000,82.792,21.105,963.004142
1 Dec 2019 18:45:09.000,82.497,20.943,968.031756
1 Dec 2019 18:45:10.000,82.205,20.781,973.085753
1 Dec 2019 18:45:11.000,81.917,20.620,978.165721
1 Dec 2019 18:45:12.000,81.633,20.460,983.271246
1 Dec 2019 18:45:13.000,81.353,20.301,988.401928
1 Dec 2019 18:45:14.000,81.076,20.142,993.557376
1 Dec 2019 18:45:15.000,80.802,19.985,998.737193
1 Dec 2019 18:45:16.000,80.532,19.828,1003.940999
1 Dec 2019 18:45:17.000,80.265,19.672,1009.168417
1 Dec 2019 18:45:18.000,80.002,19.517,1014.419080
1 Dec 2019 18:45:19.000,79.741,19.362,1019.692615
1 Dec 2019 18:45:20.000,79.484,19.209,1024.988666
1 Dec 2019 18:45:21.000,79.230,19.056,1030.306881
1 Dec 2019 18:45:22.000,78.979,18.904,1035.646914
1 Dec 2019 18:45:23.000,78.732,18.753,1041.008418
1 Dec 2019 18:45:24.000,78.487,18.602,1046.391059
1 Dec 2019 18:45:25.000,78.245,18.453,1051.794506
1 Dec 2019 18:45:26.000,78.006,18.304,1057.218434
1 Dec 2019 18:45:27.000,77.770,18.157,1062.662526
1 Dec 2019 18:45:28.000,77.537,18.010,1068.126462
1 Dec 2019 18:45:29.000,77.307,17.863,1073.609935
1 Dec 2019 18:45:30.000,77.079,17.718,1079.112640
1 Dec 2019 18:45:31.000,76.854,17.574,1084.634279
1 Dec 2019 18:45:32.000,76.632,17.430,1090.174557
1 Dec 2019 18:45:33.000,76.412,17.287,1095.733189
1 Dec 2019 18:45:34.000,76.195,17.145,1101.309884
1 Dec 2019 18:45:35.000,75.981,17.004,1106.904365
1 Dec 2019 18:45:36.000,75.769,16.864,1112.516357
1 Dec 2019 18:45:37.000,75.559,16.724,1118.145590
1 Dec 2019 18:45:38.000,75.352,16.586,1123.791799
1 Dec 2019 18:45:39.000,75.148,16.448,1129.454722
1 Dec 2019 18:45:40.000,74.945,16.311,1135.134103
1 Dec 2019 18:45:41.000,74.745,16.174,1140.829692
1 Dec 2019 18:45:42.000,74.548,16.039,1146.541234
1 Dec 2019 18:45:43.000,74.352,15.904,1152.268489
1 Dec 2019 18:45:44.000,74.159,15.770,1158.011218
1 Dec 2019 18:45:45.000,73.968,15.637,1163.769183
1 Dec 2019 18:45:46.000,73.779,15.505,1169.542154
1 Dec 2019 18:45:47.000,73.592,15.373,1175.329903
1 Dec 2019 18:45:48.000,73.408,15.243,1181.132205
1 Dec 2019 18:45:49.000,73.225,15.113,1186.948840
1 Dec 2019 18:45:50.000,73.045,14.984,1192.779593
1 Dec 2019 18:45:51.000,72.866,14.855,1198.624249
1 Dec 2019 18:45:52.000,72.690,14.728,1204.482599
1 Dec 2019 18:45:53.000,72.515,14.601,1210.354439
1 Dec 2019 18:45:54.000,72.342,14.474,1216.239565
1 Dec 2019 18:45:55.000,72.171,14.349,1222.137779
1 Dec 2019 18:45:56.000,72.003,14.224,1228.048885
1 Dec 2019 18:45:57.000,71.835,14.100,1233.972692
1 Dec 2019 18:45:58.000,71.670,13.977,1239.909013
1 Dec 2019 18:45:59.000,71.507,13.855,1245.857656
1 Dec 2019 18:46:00.000,71.345,13.733,1251.818441
1 Dec 2019 18:46:01.000,71.185,13.612,1257.791189
1 Dec 2019 18:46:02.000,71.026,13.492,1263.775724
1 Dec 2019 18:46:03.000,70.870,13.372,1269.771871
1 Dec 2019 18:46:04.000,70.715,13.253,1275.779460
1 Dec 2019 18:46:05.000,70.561,13.135,1281.798323
1 Dec 2019 18:46:06.000,70.410,13.017,1287.828295
1 Dec 2019 18:46:07.000,70.259,12.900,1293.869213
1 Dec 2019 18:46:08.000,70.111,12.784,1299.920918
1 Dec 2019 18:46:09.000,69.964,12.668,1305.983249
1 Dec 2019 18:46:10.000,69.818,12.554,1312.056059
1 Dec 2019 18:46:11.000,69.674,12.439,1318.139192
1 Dec 2019 18:46:12.000,69.532,12.326,1324.232498
1 Dec 2019 18:46:13.000,69.390,12.213,1330.335831
1 Dec 2019 18:46:14.000,69.251,12.101,1336.449047
1 Dec 2019 18:46:15.000,69.113,11.989,1342.572003
1 Dec 2019 18:46:16.000,68.976,11.878,1348.704559
1 Dec 2019 18:46:17.000,68.840,11.768,1354.846577
1 Dec 2019 18:46:18.000,68.706,11.658,1360.997923
1 Dec 2019 18:46:19.000,68.573,11.549,1367.158463
1 Dec 2019 18:46:20.000,68.442,11.440,1373.328066
1 Dec 2019 18:46:21.000,68.312,11.332,1379.506604
1 Dec 2019 18:46:22.000,68.183,11.225,1385.693949
1 Dec 2019 18:46:23.000,68.055,11.118,1391.889977
1 Dec 2019 18:46:24.000,67.929,11.012,1398.094565
1 Dec 2019 18:46:25.000,67.804,10.906,1404.307592
1 Dec 2019 18:46:26.000,67.680,10.801,1410.528940
1 Dec 2019 18:46:27.000,67.557,10.697,1416.758491
1 Dec 2019 18:46:28.000,67.435,10.593,1422.996127
1 Dec 2019 18:46:29.000,67.315,10.489,1429.241742
1 Dec 2019 18:46:30.000,67.196,10.387,1435.495221
1 Dec 2019 18:46:31.000,67.078,10.284,1441.756454
1 Dec 2019 18:46:32.000,66.961,10.183,1448.025333
1 Dec 2019 18:46:33.000,66.845,10.082,1454.301752
1 Dec 2019 18:46:34.000,66.730,9.981,1460.585606
1 Dec 2019 18:46:35.000,66.617,9.881,1466.876792
1 Dec 2019 18:46:36.000,66.504,9.781,1473.175209
1 Dec 2019 18:46:37.000,66.393,9.682,1479.480758
1 Dec 2019 18:46:38.000,66.282,9.584,1485.793339
1 Dec 2019 18:46:39.000,66.173,9.486,1492.112853
1 Dec 2019 18:46:40.000,66.064,9.388,1498.439212
1 Dec 2019 18:46:41.000,65.957,9.291,1504.772318
1 Dec 2019 18:46:42.000,65.850,9.195,1511.112079
1 Dec 2019 18:46:43.000,65.745,9.099,1517.458404
1 Dec 2019 18:46:44.000,65.640,9.003,1523.811204
1 Dec 2019 18:46:45.000,65.536,8.908,1530.170390
1 Dec 2019 18:46:46.000,65.434,8.814,1536.535876
1 Dec 2019 18:46:47.000,65.332,8.720,1542.907577
1 Dec 2019 18:46:48.000,65.231,8.626,1549.285403
1 Dec 2019 18:46:49.000,65.131,8.533,1555.669281
1 Dec 2019 18:46:50.000,65.032,8.440,1562.059124
1 Dec 2019 18:46:51.000,64.934,8.348,1568.454852
1 Dec 2019 18:46:52.000,64.837,8.256,1574.856386
1 Dec 2019 18:46:53.000,64.740,8.165,1581.263647
1 Dec 2019 18:46:54.000,64.645,8.074,1587.676559
1 Dec 2019 18:46:55.000,64.550,7.984,1594.095043
1 Dec 2019 18:46:56.000,64.456,7.894,1600.519031
1 Dec 2019 18:46:57.000,64.363,7.804,1606.948446
1 Dec 2019 18:46:58.000,64.271,7.715,1613.383215
1 Dec 2019 18:46:59.000,64.179,7.626,1619.823267
1 Dec 2019 18:47:00.000,64.088,7.538,1626.268531
1 Dec 2019 18:47:01.000,63.998,7.450,1632.718939
1 Dec 2019 18:47:02.000,63.909,7.362,1639.174419
1 Dec 2019 18:47:03.000,63.821,7.275,1645.634910
1 Dec 2019 18:47:04.000,63.733,7.189,1652.100341
1 Dec 2019 18:47:05.000,63.646,7.102,1658.570649
1 Dec 2019 18:47:06.000,63.560,7.016,1665.045768
1 Dec 2019 18:47:07.000,63.475,6.931,1671.525635
1 Dec 2019 18:47:08.000,63.390,6.846,1678.010184
1 Dec 2019 18:47:09.000,63.306,6.761,1684.499360
1 Dec 2019 18:47:10.000,63.222,6.677,1690.993098
1 Dec 2019 18:47:11.000,63.140,6.593,1697.491338
1 Dec 2019 18:47:12.000,63.058,6.509,1703.994022
1 Dec 2019 18:47:13.000,62.977,6.426,1710.501091
1 Dec 2019 18:47:14.000,62.896,6.343,1717.012484
1 Dec 2019 18:47:15.000,62.816,6.261,1723.528151
1 Dec 2019 18:47:16.000,62.737,6.178,1730.048032
1 Dec 2019 18:47:17.000,62.658,6.097,1736.572073
1 Dec 2019 18:47:18.000,62.580,6.015,1743.100220
1 Dec 2019 18:47:19.000,62.502,5.934,1749.632418
1 Dec 2019 18:47:20.000,62.426,5.853,1756.168611
1 Dec 2019 18:47:21.000,62.349,5.773,1762.708754
1 Dec 2019 18:47:22.000,62.274,5.693,1769.252792
1 Dec 2019 18:47:23.000,62.199,5.613,1775.800674
1 Dec 2019 18:47:24.000,62.124,5.534,1782.352349
1 Dec 2019 18:47:25.000,62.051,5.455,1788.907767
1 Dec 2019 18:47:26.000,61.977,5.376,1795.466883
1 Dec 2019 18:47:27.000,61.905,5.298,1802.029647
1 Dec 2019 18:47:28.000,61.833,5.220,1808.596011
1 Dec 2019 18:47:29.000,61.761,5.142,1815.165929
1 Dec 2019 18:47:30.000,61.690,5.064,1821.739354
1 Dec 2019 18:47:31.000,61.620,4.987,1828.316237
1 Dec 2019 18:47:32.000,61.550,4.910,1834.896540
1 Dec 2019 18:47:33.000,61.481,4.834,1841.480216
1 Dec 2019 18:47:34.000,61.412,4.758,1848.067220
1 Dec 2019 18:47:35.000,61.344,4.682,1854.657509
1 Dec 2019 18:47:36.000,61.276,4.606,1861.251037
1 Dec 2019 18:47:37.000,61.209,4.531,1867.847769
1 Dec 2019 18:47:38.000,61.142,4.456,1874.447660
1 Dec 2019 18:47:39.000,61.076,4.381,1881.050668
1 Dec 2019 18:47:40.000,61.010,4.307,1887.656754
1 Dec 2019 18:47:41.000,60.945,4.232,1894.265873
1 Dec 2019 18:47:42.000,60.880,4.159,1900.877994
1 Dec 2019 18:47:43.000,60.816,4.085,1907.493073
1 Dec 2019 18:47:44.000,60.752,4.012,1914.111072
1 Dec 2019 18:47:45.000,60.689,3.939,1920.731954
1 Dec 2019 18:47:46.000,60.626,3.866,1927.355677
1 Dec 2019 18:47:47.000,60.563,3.793,1933.982211
1 Dec 2019 18:47:48.000,60.501,3.721,1940.611516
1 Dec 2019 18:47:49.000,60.440,3.649,1947.243556
1 Dec 2019 18:47:50.000,60.379,3.577,1953.878292
1 Dec 2019 18:47:51.000,60.318,3.506,1960.515695
1 Dec 2019 18:47:52.000,60.258,3.435,1967.155728
1 Dec 2019 18:47:53.000,60.198,3.364,1973.798355
1 Dec 2019 18:47:54.000,60.139,3.293,1980.443543
1 Dec 2019 18:47:55.000,60.080,3.223,1987.091255
1 Dec 2019 18:47:56.000,60.022,3.152,1993.741464
1 Dec 2019 18:47:57.000,59.964,3.082,2000.394134
1 Dec 2019 18:47:58.000,59.906,3.013,2007.049234
1 Dec 2019 18:47:59.000,59.849,2.943,2013.706731
1 Dec 2019 18:48:00.000,59.792,2.874,2020.366590
1 Dec 2019 18:48:01.000,59.736,2.805,2027.028787
1 Dec 2019 18:48:02.000,59.680,2.736,2033.693287
1 Dec 2019 18:48:03.000,59.624,2.668,2040.360060
1 Dec 2019 18:48:04.000,59.569,2.599,2047.029073
1 Dec 2019 18:48:05.000,59.514,2.531,2053.700302
1 Dec 2019 18:48:06.000,59.460,2.464,2060.373715
1 Dec 2019 18:48:07.000,59.406,2.396,2067.049283
1 Dec 2019 18:48:08.000,59.352,2.329,2073.726974
1 Dec 2019 18:48:09.000,59.299,2.261,2080.406766
1 Dec 2019 18:48:10.000,59.246,2.194,2087.088627
1 Dec 2019 18:48:11.000,59.193,2.128,2093.772531
1 Dec 2019 18:48:12.000,59.141,2.061,2100.458449
1 Dec 2019 18:48:13.000,59.089,1.995,2107.146351
1 Dec 2019 18:48:14.000,59.037,1.929,2113.836217
1 Dec 2019 18:48:15.000,58.986,1.863,2120.528018
1 Dec 2019 18:48:16.000,58.935,1.797,2127.221726
1 Dec 2019 18:48:17.000,58.885,1.732,2133.917313
1 Dec 2019 18:48:18.000,58.835,1.667,2140.614760
1 Dec 2019 18:48:19.000,58.785,1.602,2147.314039
1 Dec 2019 18:48:20.000,58.736,1.537,2154.015124
1 Dec 2019 18:48:21.000,58.686,1.472,2160.717987
1 Dec 2019 18:48:22.000,58.638,1.408,2167.422610
1 Dec 2019 18:48:23.000,58.589,1.344,2174.128966
1 Dec 2019 18:48:24.000,58.541,1.279,2180.837032
1 Dec 2019 18:48:25.000,58.493,1.216,2187.546782
1 Dec 2019 18:48:26.000,58.445,1.152,2194.258192
1 Dec 2019 18:48:27.000,58.398,1.088,2200.971243
1 Dec 2019 18:48:28.000,58.351,1.025,2207.685910
1 Dec 2019 18:48:29.000,58.305,0.962,2214.402170
1 Dec 2019 18:48:30.000,58.258,0.899,2221.119999
1 Dec 2019 18:48:31.000,58.212,0.836,2227.839378
1 Dec 2019 18:48:32.000,58.167,0.774,2234.560285
1 Dec 2019 18:48:33.000,58.121,0.712,2241.282697
1 Dec 2019 18:48:34.000,58.076,0.649,2248.006589
1 Dec 2019 18:48:35.000,58.031,0.587,2254.731947
1 Dec 2019 18:48:36.000,57.987,0.526,2261.458746
1 Dec 2019 18:48:37.000,57.942,0.464,2268.186966
1 Dec 2019 18:48:38.000,57.898,0.402,2274.916582
1 Dec 2019 18:48:39.000,57.855,0.341,2281.647581
1 Dec 2019 18:48:40.000,57.811,0.280,2288.379940
1 Dec 2019 18:48:41.000,57.768,0.219,2295.113639
1 Dec 2019 18:48:42.000,57.725,0.158,2301.848654
1 Dec 2019 18:48:43.000,57.682,0.098,2308.584973
1 Dec 2019 18:48:44.000,57.640,0.037,2315.322572
1 Dec 2019 18:48:45.000,57.598,-0.023,2322.061434
1 Dec 2019 18:48:46.000,57.556,-0.083,2328.801535
1 Dec 2019 18:48:46.681,57.528,-0.124,2333.389561
1 Dec 2019 20:15:00.207,258.038,-0.124,2323.151162
1 Dec 2019 20:15:01.000,258.091,-0.078,2318.043070
1 Dec 2019 20:15:02.000,258.159,-0.020,2311.604447
1 Dec 2019 20:15:03.000,258.226,0.038,2305.168489
1 Dec 2019 20:15:04.000,258.294,0.096,2298.735226
1 Dec 2019 20:15:05.000,258.363,0.154,2292.304689
1 Dec 2019 20:15:06.000,258.432,0.213,2285.876907
1 Dec 2019 20:15:07.000,258.501,0.271,2279.451907
1 Dec 2019 20:15:08.000,258.570,0.330,2273.029727
1 Dec 2019 20:15:09.000,258.640,0.389,2266.610396
1 Dec 2019 20:15:10.000,258.711,0.448,2260.193945
1 Dec 2019 20:15:11.000,258.781,0.507,2253.780405
1 Dec 2019 20:15:12.000,258.853,0.567,2247.369809
1 Dec 2019 20:15:13.000,258.924,0.626,2240.962189
1 Dec 2019 20:15:14.000,258.996,0.686,2234.557575
1 Dec 2019 20:15:15.000,259.068,0.746,2228.156007
1 Dec 2019 20:15:16.000,259.141,0.806,2221.757516
1 Dec 2019 20:15:17.000,259.214,0.866,2215.362134
1 Dec 2019 20:15:18.000,259.288,0.926,2208.969896
1 Dec 2019 20:15:19.000,259.362,0.986,2202.580837
1 Dec 2019 20:15:20.000,259.436,1.047,2196.194992
1 Dec 2019 20:15:21.000,259.511,1.108,2189.812393
1 Dec 2019 20:15:22.000,259.586,1.169,2183.433082
1 Dec 2019 20:15:23.000,259.662,1.230,2177.057092
1 Dec 2019 20:15:24.000,259.738,1.291,2170.684460
1 Dec 2019 20:15:25.000,259.814,1.352,2164.315222
1 Dec 2019 20:15:26.000,259.891,1.414,2157.949416
1 Dec 2019 20:15:27.000,259.969,1.475,2151.587080
1 Dec 2019 20:15:28.000,260.047,1.537,2145.228251
1 Dec 2019 20:15:29.000,260.125,1.599,2138.872964
1 Dec 2019 20:15:30.000,260.204,1.661,2132.521265
1 Dec 2019 20:15:31.000,260.283,1.724,2126.173191
1 Dec 2019 20:15:32.000,260.363,1.786,2119.828781
1 Dec 2019 20:15:33.000,260.443,1.849,2113.488075
1 Dec 2019 20:15:34.000,260.524,1.912,2107.151114
1 Dec 2019 20:15:35.000,260.605,1.975,2100.817939
1 Dec 2019 20:15:36.000,260.686,2.038,2094.488591
1 Dec 2019 20:15:37.000,260.768,2.101,2088.163112
1 Dec 2019 20:15:38.000,260.851,2.165,2081.841541
1 Dec 2019 20:15:39.000,260.934,2.229,2075.523929
1 Dec 2019 20:15:40.000,261.018,2.293,2069.210314
1 Dec 2019 20:15:41.000,261.102,2.357,2062.900742
1 Dec 2019 20:15:42.000,261.186,2.421,2056.595255
1 Dec 2019 20:15:43.000,261.271,2.485,2050.293900
1 Dec 2019 20:15:44.000,261.357,2.550,2043.996721
1 Dec 2019 20:15:45.000,261.443,2.615,2037.703764
1 Dec 2019 20:15:46.000,261.530,2.680,2031.415076
1 Dec 2019 20:15:47.000,261.617,2.745,2025.130703
1 Dec 2019 20:15:48.000,261.705,2.810,2018.850689
1 Dec 2019 20:15:49.000,261.793,2.876,2012.575090
1 Dec 2019 20:15:50.000,261.882,2.942,2006.303949
1 Dec 2019 20:15:51.000,261.971,3.008,2000.037317
1 Dec 2019 20:15:52.000,262.061,3.074,1993.775243
1 Dec 2019 20:15:53.000,262.152,3.140,1987.517777
1 Dec 2019 20:15:54.000,262.243,3.207,1981.264970
1 Dec 2019 20:15:55.000,262.335,3.273,1975.016872
1 Dec 2019 20:15:56.000,262.427,3.340,1968.773537
1 Dec 2019 20:15:57.000,262.520,3.408,1962.535015
1 Dec 2019 20:15:58.000,262.613,3.475,1956.301362
1 Dec 2019 20:15:59.000,262.707,3.542,1950.072625
1 Dec 2019 20:16:00.000,262.802,3.610,1943.848868
1 Dec 2019 20:16:01.000,262.897,3.678,1937.630142
1 Dec 2019 20:16:02.000,262.993,3.746,1931.416501
1 Dec 2019 20:16:03.000,263.089,3.815,1925.208003
1 Dec 2019 20:16:04.000,263.186,3.883,1919.004704
1 Dec 2019 20:16:05.000,263.284,3.952,1912.806662
1 Dec 2019 20:16:06.000,263.382,4.021,1906.613935
1 Dec 2019 20:16:07.000,263.481,4.090,1900.426581
1 Dec 2019 20:16:08.000,263.581,4.160,1894.244662
1 Dec 2019 20:16:09.000,263.681,4.229,1888.068236
1 Dec 2019 20:16:10.000,263.782,4.299,1881.897365
1 Dec 2019 20:16:11.000,263.884,4.369,1875.732111
1 Dec 2019 20:16:12.000,263.986,4.439,1869.572536
1 Dec 2019 20:16:13.000,264.089,4.510,1863.418704
1 Dec 2019 20:16:14.000,264.192,4.581,1857.270678
1 Dec 2019 20:16:15.000,264.297,4.652,1851.128520
1 Dec 2019 20:16:16.000,264.402,4.723,1844.992302
1 Dec 2019 20:16:17.000,264.508,4.794,1838.862087
1 Dec 2019 20:16:18.000,264.614,4.866,1832.737942
1 Dec 2019 20:16:19.000,264.721,4.938,1826.619936
1 Dec 2019 20:16:20.000,264.829,5.010,1820.508136
1 Dec 2019 20:16:21.000,264.938,5.082,1814.402613
1 Dec 2019 20:16:22.000,265.047,5.155,1808.303437
1 Dec 2019 20:16:23.000,265.157,5.228,1802.210679
1 Dec 2019 20:16:24.000,265.268,5.301,1796.124411
1 Dec 2019 20:16:25.000,265.380,5.374,1790.044707
1 Dec 2019 20:16:26.000,265.492,5.447,1783.971640
1 Dec 2019 20:16:27.000,265.605,5.521,1777.905285
1 Dec 2019 20:16:28.000,265.719,5.595,1771.845718
1 Dec 2019 20:16:29.000,265.834,5.669,1765.793015
1 Dec 2019 20:16:30.000,265.949,5.744,1759.747255
1 Dec 2019 20:16:31.000,266.066,5.819,1753.708515
1 Dec 2019 20:16:32.000,266.183,5.894,1747.676876
1 Dec 2019 20:16:33.000,266.301,5.969,1741.652417
1 Dec 2019 20:16:34.000,266.420,6.045,1735.635220
1 Dec 2019 20:16:35.000,266.540,6.120,1729.625368
1 Dec 2019 20:16:36.000,266.660,6.196,1723.622945
1 Dec 2019 20:16:37.000,266.782,6.273,1717.628034
1 Dec 2019 20:16:38.000,266.904,6.349,1711.640722
1 Dec 2019 20:16:39.000,267.027,6.426,1705.661095
1 Dec 2019 20:16:40.000,267.151,6.503,1699.689241
1 Dec 2019 20:16:41.000,267.276,6.580,1693.725249
1 Dec 2019 20:16:42.000,267.402,6.658,1687.769209
1 Dec 2019 20:16:43.000,267.528,6.736,1681.821212
1 Dec 2019 20:16:44.000,267.656,6.814,1675.881351
1 Dec 2019 20:16:45.000,267.785,6.892,1669.949718
1 Dec 2019 20:16:46.000,267.914,6.971,1664.026409
1 Dec 2019 20:16:47.000,268.045,7.050,1658.111518
1 Dec 2019 20:16:48.000,268.176,7.129,1652.205144
1 Dec 2019 20:16:49.000,268.308,7.209,1646.307385
1 Dec 2019 20:16:50.000,268.442,7.288,1640.418339
1 Dec 2019 20:16:51.000,268.576,7.368,1634.538108
1 Dec 2019 20:16:52.000,268.712,7.449,1628.666794
1 Dec 2019 20:16:53.000,268.848,7.529,1622.804499
1 Dec 2019 20:16:54.000,268.985,7.610,1616.951329
1 Dec 2019 20:16:55.000,269.124,7.691,1611.107390
1 Dec 2019 20:16:56.000,269.263,7.773,1605.272789
1 Dec 2019 20:16:57.000,269.404,7.855,1599.447634
1 Dec 2019 20:16:58.000,269.545,7.937,1593.632040
1 Dec 2019 20:16:59.000,269.688,8.019,1587.826110
1 Dec 2019 20:17:00.000,269.832,8.101,1582.029961
1 Dec 2019 20:17:01.000,269.977,8.184,1576.243707
1 Dec 2019 20:17:02.000,270.123,8.267,1570.467464
1 Dec 2019 20:17:03.000,270.270,8.351,1564.701350
1 Dec 2019 20:17:04.000,270.418,8.435,1558.945483
1 Dec 2019 20:17:05.000,270.567,8.519,1553.199983
1 Dec 2019 20:17:06.000,270.718,8.603,1547.464972
1 Dec 2019 20:17:07.000,270.869,8.688,1541.740575
1 Dec 2019 20:17:08.000,271.022,8.773,1536.026915
1 Dec 2019 20:17:09.000,271.176,8.858,1530.324119
1 Dec 2019 20:17:10.000,271.332,8.943,1524.632315
1 Dec 2019 20:17:11.000,271.488,9.029,1518.951638
1 Dec 2019 20:17:12.000,271.646,9.115,1513.282211
1 Dec 2019 20:17:13.000,271.805,9.202,1507.624171
1 Dec 2019 20:17:14.000,271.965,9.288,1501.977653
1 Dec 2019 20:17:15.000,272.126,9.376,1496.342794
1 Dec 2019 20:17:16.000,272.289,9.463,1490.719732
1 Dec 2019 20:17:17.000,272.453,9.550,1485.108608
1 Dec 2019 20:17:18.000,272.618,9.638,1479.509562
1 Dec 2019 20:17:19.000,272.785,9.727,1473.922744
1 Dec 2019 20:17:20.000,272.953,9.815,1468.348291
1 Dec 2019 20:17:21.000,273.122,9.904,1462.786354
1 Dec 2019 20:17:22.000,273.293,9.993,1457.237083
1 Dec 2019 20:17:23.000,273.465,10.083,1451.700629
1 Dec 2019 20:17:24.000,273.639,10.172,1446.177146
1 Dec 2019 20:17:25.000,273.813,10.263,1440.666789
1 Dec 2019 20:17:26.000,273.990,10.353,1435.169718
1 Dec 2019 20:17:27.000,274.167,10.444,1429.686085
1 Dec 2019 20:17:28.000,274.347,10.535,1424.216057
1 Dec 2019 20:17:29.000,274.527,10.626,1418.759795
1 Dec 2019 20:17:30.000,274.709,10.718,1413.317466
1 Dec 2019 20:17:31.000,274.893,10.809,1407.889236
1 Dec 2019 20:17:32.000,275.078,10.902,1402.475279
1 Dec 2019 20:17:33.000,275.265,10.994,1397.075761
1 Dec 2019 20:17:34.000,275.453,11.087,1391.690857
1 Dec 2019 20:17:35.000,275.643,11.180,1386.320745
1 Dec 2019 20:17:36.000,275.834,11.274,1380.965603
1 Dec 2019 20:17:37.000,276.027,11.367,1375.625616
1 Dec 2019 20:17:38.000,276.222,11.461,1370.300958
1 Dec 2019 20:17:39.000,276.418,11.556,1364.991819
1 Dec 2019 20:17:40.000,276.616,11.650,1359.698387
1 Dec 2019 20:17:41.000,276.815,11.745,1354.420854
1 Dec 2019 20:17:42.000,277.016,11.840,1349.159407
1 Dec 2019 20:17:43.000,277.219,11.936,1343.914243
1 Dec 2019 20:17:44.000,277.423,12.032,1338.685560
1 Dec 2019 20:17:45.000,277.630,12.128,1333.473560
1 Dec 2019 20:17:46.000,277.838,12.224,1328.278438
1 Dec 2019 20:17:47.000,278.048,12.321,1323.100403
1 Dec 2019 20:17:48.000,278.259,12.418,1317.939662
1 Dec 2019 20:17:49.000,278.472,12.515,1312.796427
1 Dec 2019 20:17:50.000,278.688,12.613,1307.670904
1 Dec 2019 20:17:51.000,278.905,12.710,1302.563310
1 Dec 2019 20:17:52.000,279.123,12.809,1297.473868
1 Dec 2019 20:17:53.000,279.344,12.907,1292.402789
1 Dec 2019 20:17:54.000,279.567,13.005,1287.350299
1 Dec 2019 20:17:55.000,279.791,13.104,1282.316628
1 Dec 2019 20:17:56.000,280.018,13.203,1277.301996
1 Dec 2019 20:17:57.000,280.246,13.303,1272.306637
1 Dec 2019 20:17:58.000,280.476,13.402,1267.330789
1 Dec 2019 20:17:59.000,280.709,13.502,1262.374679
1 Dec 2019 20:18:00.000,280.943,13.602,1257.438550
1 Dec 2019 20:18:01.000,281.179,13.703,1252.522648
1 Dec 2019 20:18:02.000,281.418,13.803,1247.627210
1 Dec 2019 20:18:03.000,281.658,13.904,1242.752486
1 Dec 2019 20:18:04.000,281.901,14.005,1237.898730
1 Dec 2019 20:18:05.000,282.145,14.107,1233.066187
1 Dec 2019 20:18:06.000,282.392,14.208,1228.255117
1 Dec 2019 20:18:07.000,282.641,14.310,1223.465782
1 Dec 2019 20:18:08.000,282.892,14.412,1218.698435
1 Dec 2019 20:18:09.000,283.145,14.514,1213.953349
1 Dec 2019 20:18:10.000,283.400,14.616,1209.230783
1 Dec 2019 20:18:11.000,283.658,14.719,1204.531014
1 Dec 2019 20:18:12.000,283.918,14.821,1199.854308
1 Dec 2019 20:18:13.000,284.180,14.924,1195.200945
1 Dec 2019 20:18:14.000,284.444,15.027,1190.571206
1 Dec 2019 20:18:15.000,284.711,15.130,1185.965366
1 Dec 2019 20:18:16.000,284.980,15.233,1181.383716
1 Dec 2019 20:18:17.000,285.251,15.337,1176.826537
1 Dec 2019 20:18:18.000,285.525,15.440,1172.294126
1 Dec 2019 20:18:19.000,285.801,15.544,1167.786770
1 Dec 2019 20:18:20.000,286.079,15.648,1163.304770
1 Dec 2019 20:18:21.000,286.360,15.751,1158.848420
1 Dec 2019 20:18:22.000,286.643,15.855,1154.418028
1 Dec 2019 20:18:23.000,286.929,15.959,1150.013891
1 Dec 2019 20:18:24.000,287.217,16.063,1145.636325
1 Dec 2019 20:18:25.000,287.508,16.168,1141.285632
1 Dec 2019 20:18:26.000,287.801,16.272,1136.962132
1 Dec 2019 20:18:27.000,288.097,16.376,1132.666134
1 Dec 2019 20:18:28.000,288.395,16.480,1128.397965
1 Dec 2019 20:18:29.000,288.696,16.584,1124.157941
1 Dec 2019 20:18:30.000,288.999,16.688,1119.946384
1 Dec 2019 20:18:31.000,289.305,16.793,1115.763628
1 Dec 2019 20:18:32.000,289.614,16.897,1111.609994
1 Dec 2019 20:18:33.000,289.925,17.001,1107.485821
1 Dec 2019 20:18:34.000,290.239,17.105,1103.391442
1 Dec 2019 20:18:35.000,290.555,17.209,1099.327189
1 Dec 2019 20:18:36.000,290.874,17.313,1095.293409
1 Dec 2019 20:18:37.000,291.196,17.416,1091.290441
1 Dec 2019 20:18:38.000,291.521,17.520,1087.318625
1 Dec 2019 20:18:39.000,291.848,17.624,1083.378316
1 Dec 2019 20:18:40.000,292.178,17.727,1079.469859
1 Dec 2019 20:18:41.000,292.511,17.830,1075.593601
1 Dec 2019 20:18:42.000,292.846,17.933,1071.749903
1 Dec 2019 20:18:43.000,293.184,18.036,1067.939118
1 Dec 2019 20:18:44.000,293.526,18.138,1064.161601
1 Dec 2019 20:18:45.000,293.869,18.240,1060.417711
1 Dec 2019 20:18:46.000,294.216,18.342,1056.707813
1 Dec 2019 20:18:47.000,294.566,18.444,1053.032269
1 Dec 2019 20:18:48.000,294.918,18.545,1049.391442
1 Dec 2019 20:18:49.000,295.273,18.646,1045.785697
1 Dec 2019 20:18:50.000,295.631,18.747,1042.215406
1 Dec 2019 20:18:51.000,295.992,18.847,1038.680937
1 Dec 2019 20:18:52.000,296.356,18.947,1035.182659
1 Dec 2019 20:18:53.000,296.722,19.047,1031.720945
1 Dec 2019 20:18:54.000,297.092,19.146,1028.296166
1 Dec 2019 20:18:55.000,297.464,19.244,1024.908694
1 Dec 2019 20:18:56.000,297.839,19.342,1021.558909
1 Dec 2019 20:18:57.000,298.218,19.440,1018.247183
1 Dec 2019 20:18:58.000,298.599,19.537,1014.973892
1 Dec 2019 20:18:59.000,298.982,19.633,1011.739413
1 Dec 2019 20:19:00.000,299.369,19.729,1008.544123
1 Dec 2019 20:19:01.000,299.759,19.824,1005.388396
1 Dec 2019 20:19:02.000,300.152,19.919,1002.272612
1 Dec 2019 20:19:03.000,300.547,20.013,999.197146
1 Dec 2019 20:19:04.000,300.945,20.106,996.162375
1 Dec 2019 20:19:05.000,301.347,20.198,993.168674
1 Dec 2019 20:19:06.000,301.751,20.290,990.216420
1 Dec 2019 20:19:07.000,302.158,20.381,987.305986
1 Dec 2019 20:19:08.000,302.567,20.471,984.437747
1 Dec 2019 20:19:09.000,302.980,20.560,981.612075
1 Dec 2019 20:19:10.000,303.395,20.649,978.829342
1 Dec 2019 20:19:11.000,303.814,20.736,976.089916
1 Dec 2019 20:19:12.000,304.235,20.823,973.394168
1 Dec 2019 20:19:13.000,304.659,20.908,970.742462
1 Dec 2019 20:19:14.000,305.085,20.993,968.135163
1 Dec 2019 20:19:15.000,305.515,21.076,965.572634
1 Dec 2019 20:19:16.000,305.947,21.159,963.055237
1 Dec 2019 20:19:17.000,306.382,21.240,960.583324
1 Dec 2019 20:19:18.000,306.819,21.321,958.157251
1 Dec 2019 20:19:19.000,307.259,21.400,955.777370
1 Dec 2019 20:19:20.000,307.702,21.478,953.444029
1 Dec 2019 20:19:21.000,308.147,21.555,951.157575
1 Dec 2019 20:19:22.000,308.595,21.631,948.918344
1 Dec 2019 20:19:23.000,309.046,21.705,946.726676
1 Dec 2019 20:19:24.000,309.499,21.778,944.582903
1 Dec 2019 20:19:25.000,309.954,21.850,942.487357
1 Dec 2019 20:19:26.000,310.412,21.920,940.440356
1 Dec 2019 20:19:27.000,310.873,21.989,938.442224
1 Dec 2019 20:19:28.000,311.336,22.057,936.493276
1 Dec 2019 20:19:29.000,311.801,22.123,934.593818
1 Dec 2019 20:19:30.000,312.268,22.188,932.744155
1 Dec 2019 20:19:31.000,312.738,22.251,930.944589
1 Dec 2019 20:19:32.000,313.209,22.313,929.195406
1 Dec 2019 20:19:33.000,313.683,22.373,927.496899
1 Dec 2019 20:19:34.000,314.159,22.431,925.849342
1 Dec 2019 20:19:35.000,314.638,22.488,924.253015
1 Dec 2019 20:19:36.000,315.118,22.544,922.708178
1 Dec 2019 20:19:37.000,315.600,22.597,921.215097
1 Dec 2019 20:19:38.000,316.084,22.649,919.774024
1 Dec 2019 20:19:39.000,316.570,22.699,918.385205
1 Dec 2019 20:19:40.000,317.057,22.748,917.048875
1 Dec 2019 20:19:41.000,317.547,22.795,915.765269
1 Dec 2019 20:19:42.000,318.038,22.840,914.534605
1 Dec 2019 20:19:43.000,318.530,22.883,913.357104
1 Dec 2019 20:19:44.000,319.024,22.924,912.232967
1 Dec 2019 20:19:45.000,319.520,22.964,911.162396
1 Dec 2019 20:19:46.000,320.017,23.001,910.145580
1 Dec 2019 20:19:47.000,320.515,23.037,909.182696
1 Dec 2019 20:19:48.000,321.015,23.071,908.273921
1 Dec 2019 20:19:49.000,321.516,23.103,907.419416
1 Dec 2019 20:19:50.000,322.018,23.133,906.619333
1 Dec 2019 20:19:51.000,322.521,23.161,905.873819
1 Dec 2019 20:19:52.000,323.025,23.187,905.183009
1 Dec 2019 20:19:53.000,323.530,23.211,904.547028
1 Dec 2019 20:19:54.000,324.036,23.233,903.965990
1 Dec 2019 20:19:55.000,324.543,23.253,903.440001
1 Dec 2019 20:19:56.000,325.050,23.271,902.969161
1 Dec 2019 20:19:57.000,325.558,23.287,902.553553
1 Dec 2019 20:19:58.000,326.066,23.301,902.193254
1 Dec 2019 20:19:59.000,326.575,23.313,901.888330
1 Dec 2019 20:20:00.000,327.085,23.322,901.638837
1 Dec 2019 20:20:01.000,327.594,23.330,901.444820
1 Dec 2019 20:20:02.000,328.104,23.336,901.306314
1 Dec 2019 20:20:03.000,328.614,23.340,901.223346
1 Dec 2019 20:20:04.000,329.124,23.341,901.195929
1 Dec 2019 20:20:05.000,329.635,23.341,901.224068
1 Dec 2019 20:20:06.000,330.145,23.338,901.307757
1 Dec 2019 20:20:07.000,330.655,23.334,901.446979
1 Dec 2019 20:20:08.000,331.164,23.327,901.641710
1 Dec 2019 20:20:09.000,331.674,23.318,901.891910
1 Dec 2019 20:20:10.000,332.183,23.307,902.197534
1 Dec 2019 20:20:11.000,332.691,23.295,902.558524
1 Dec 2019 20:20:12.000,333.199,23.280,902.974812
1 Dec 2019 20:20:13.000,333.707,23.263,903.446321
1 Dec 2019 20:20:14.000,334.213,23.244,903.972963
1 Dec 2019 20:20:15.000,334.719,23.223,904.554642
1 Dec 2019 20:20:16.000,335.224,23.200,905.191248
1 Dec 2019 20:20:17.000,335.728,23.175,905.882665
1 Dec 2019 20:20:18.000,336.232,23.148,906.628766
1 Dec 2019 20:20:19.000,336.734,23.119,907.429416
1 Dec 2019 20:20:20.000,337.235,23.088,908.284466
1 Dec 2019 20:20:21.000,337.734,23.056,909.193763
1 Dec 2019 20:20:22.000,338.233,23.021,910.157142
1 Dec 2019 20:20:23.000,338.730,22.984,911.174432
1 Dec 2019 20:20:24.000,339.226,22.946,912.245447
1 Dec 2019 20:20:25.000,339.720,22.906,913.369997
1 Dec 2019 20:20:26.000,340.213,22.864,914.547886
1 Dec 2019 20:20:27.000,340.704,22.820,915.778901
1 Dec 2019 20:20:28.000,341.194,22.774,917.062830
1 Dec 2019 20:20:29.000,341.681,22.727,918.399447
1 Dec 2019 20:20:30.000,342.167,22.677,919.788521
1 Dec 2019 20:20:31.000,342.652,22.626,921.229810
1 Dec 2019 20:20:32.000,343.134,22.574,922.723070
1 Dec 2019 20:20:33.000,343.614,22.519,924.268046
1 Dec 2019 20:20:34.000,344.092,22.464,925.864476
1 Dec 2019 20:20:35.000,344.569,22.406,927.512091
1 Dec 2019 20:20:36.000,345.043,22.347,929.210619
1 Dec 2019 20:20:37.000,345.515,22.286,930.959775
1 Dec 2019 20:20:38.000,345.985,22.224,932.759274
1 Dec 2019 20:20:39.000,346.452,22.160,934.608821
1 Dec 2019 20:20:40.000,346.918,22.095,936.508119
1 Dec 2019 20:20:41.000,347.381,22.029,938.456861
1 Dec 2019 20:20:42.000,347.841,21.960,940.454736
1 Dec 2019 20:20:43.000,348.299,21.891,942.501431
1 Dec 2019 20:20:44.000,348.755,21.820,944.596624
1 Dec 2019 20:20:45.000,349.209,21.748,946.739990
1 Dec 2019 20:20:46.000,349.659,21.675,948.931200
1 Dec 2019 20:20:47.000,350.108,21.600,951.169920
1 Dec 2019 20:20:48.000,350.553,21.524,953.455811
1 Dec 2019 20:20:49.000,350.996,21.447,955.788533
1 Dec 2019 20:20:50.000,351.437,21.369,958.167740
1 Dec 2019 20:20:51.000,351.874,21.289,960.593083
1 Dec 2019 20:20:52.000,352.310,21.209,963.064209
1 Dec 2019 20:20:53.000,352.742,21.127,965.580765
1 Dec 2019 20:20:54.000,353.172,21.044,968.142391
1 Dec 2019 20:20:55.000,353.599,20.961,970.748729
1 Dec 2019 20:20:56.000,354.023,20.876,973.399414
1 Dec 2019 20:20:57.000,354.444,20.790,976.094082
1 Dec 2019 20:20:58.000,354.863,20.704,978.832366
1 Dec 2019 20:20:59.000,355.278,20.616,981.613897
1 Dec 2019 20:21:00.000,355.691,20.528,984.438304
1 Dec 2019 20:21:01.000,356.101,20.439,987.305216
1 Dec 2019 20:21:02.000,356.509,20.349,990.214260
1 Dec 2019 20:21:03.000,356.913,20.258,993.165061
1 Dec 2019 20:21:04.000,357.315,20.166,996.157244
1 Dec 2019 20:21:05.000,357.713,20.074,999.190433
1 Dec 2019 20:21:06.000,358.109,19.981,1002.264252
1 Dec 2019 20:21:07.000,358.502,19.887,1005.378324
1 Dec 2019 20:21:08.000,358.892,19.793,1008.532272
1 Dec 2019 20:21:09.000,359.279,19.697,1011.725719
1 Dec 2019 20:21:10.000,359.663,19.602,1014.958287
1 Dec 2019 20:21:11.000,0.045,19.506,1018.229600
1 Dec 2019 20:21:12.000,0.423,19.409,1021.539280
1 Dec 2019 20:21:13.000,0.799,19.312,1024.886953
1 Dec 2019 20:21:14.000,1.172,19.214,1028.272241
1 Dec 2019 20:21:15.000,1.541,19.116,1031.694771
1 Dec 2019 20:21:16.000,1.908,19.017,1035.154169
1 Dec 2019 20:21:17.000,2.272,18.918,1038.650060
1 Dec 2019 20:21:18.000,2.634,18.818,1042.182075
1 Dec 2019 20:21:19.000,2.992,18.718,1045.749841
1 Dec 2019 20:21:20.000,3.348,18.618,1049.352989
1 Dec 2019 20:21:21.000,3.700,18.517,1052.991151
1 Dec 2019 20:21:22.000,4.050,18.416,1056.663962
1 Dec 2019 20:21:23.000,4.397,18.315,1060.371056
1 Dec 2019 20:21:24.000,4.741,18.214,1064.112069
1 Dec 2019 20:21:25.000,5.083,18.112,1067.886640
1 Dec 2019 20:21:26.000,5.422,18.010,1071.694411
1 Dec 2019 20:21:27.000,5.757,17.907,1075.535023
1 Dec 2019 20:21:28.000,6.091,17.805,1079.408120
1 Dec 2019 20:21:29.000,6.421,17.702,1083.313349
1 Dec 2019 20:21:30.000,6.749,17.600,1087.250360
1 Dec 2019 20:21:31.000,7.074,17.497,1091.218801
1 Dec 2019 20:21:32.000,7.396,17.393,1095.218328
1 Dec 2019 20:21:33.000,7.715,17.290,1099.248595
1 Dec 2019 20:21:34.000,8.032,17.187,1103.309260
1 Dec 2019 20:21:35.000,8.346,17.084,1107.399983
1 Dec 2019 20:21:36.000,8.658,16.980,1111.520428
1 Dec 2019 20:21:37.000,8.967,16.877,1115.670259
1 Dec 2019 20:21:38.000,9.273,16.773,1119.849145
1 Dec 2019 20:21:39.000,9.577,16.669,1124.056756
1 Dec 2019 20:21:40.000,9.878,16.566,1128.292764
1 Dec 2019 20:21:41.000,10.177,16.462,1132.556848
1 Dec 2019 20:21:42.000,10.473,16.358,1136.848684
1 Dec 2019 20:21:43.000,10.766,16.255,1141.167954
1 Dec 2019 20:21:44.000,11.057,16.151,1145.514343
1 Dec 2019 20:21:45.000,11.346,16.048,1149.887536
1 Dec 2019 20:21:46.000,11.632,15.944,1154.287224
1 Dec 2019 20:21:47.000,11.916,15.841,1158.713100
1 Dec 2019 20:21:48.000,12.197,15.738,1163.164858
1 Dec 2019 20:21:49.000,12.476,15.635,1167.642197
1 Dec 2019 20:21:50.000,12.752,15.531,1172.144819
1 Dec 2019 20:21:51.000,13.026,15.428,1176.672426
1 Dec 2019 20:21:52.000,13.298,15.326,1181.224727
1 Dec 2019 20:21:53.000,13.567,15.223,1185.801430
1 Dec 2019 20:21:54.000,13.834,15.120,1190.402250
1 Dec 2019 20:21:55.000,14.099,15.018,1195.026899
1 Dec 2019 20:21:56.000,14.362,14.915,1199.675100
1 Dec 2019 20:21:57.000,14.622,14.813,1204.346570
1 Dec 2019 20:21:58.000,14.880,14.711,1209.041036
1 Dec 2019 20:21:59.000,15.136,14.610,1213.758225
1 Dec 2019 20:22:00.000,15.389,14.508,1218.497866
1 Dec 2019 20:22:01.000,15.641,14.407,1223.259693
1 Dec 2019 20:22:02.000,15.890,14.305,1228.043441
1 Dec 2019 20:22:03.000,16.137,14.204,1232.848851
1 Dec 2019 20:22:04.000,16.382,14.104,1237.675661
1 Dec 2019 20:22:05.000,16.625,14.003,1242.523618
1 Dec 2019 20:22:06.000,16.866,13.903,1247.392469
1 Dec 2019 20:22:07.000,17.105,13.802,1252.281963
1 Dec 2019 20:22:08.000,17.342,13.702,1257.191856
1 Dec 2019 20:22:09.000,17.577,13.603,1262.121899
1 Dec 2019 20:22:10.000,17.809,13.503,1267.071854
1 Dec 2019 20:22:11.000,18.040,13.404,1272.041482
1 Dec 2019 20:22:12.000,18.269,13.305,1277.030546
1 Dec 2019 20:22:13.000,18.496,13.206,1282.038813
1 Dec 2019 20:22:14.000,18.721,13.108,1287.066054
1 Dec 2019 20:22:15.000,18.944,13.010,1292.112039
1 Dec 2019 20:22:16.000,19.165,12.912,1297.176544
1 Dec 2019 20:22:17.000,19.384,12.814,1302.259348
1 Dec 2019 20:22:18.000,19.602,12.717,1307.360228
1 Dec 2019 20:22:19.000,19.817,12.620,1312.478969
1 Dec 2019 20:22:20.000,20.031,12.523,1317.615356
1 Dec 2019 20:22:21.000,20.243,12.426,1322.769178
1 Dec 2019 20:22:22.000,20.453,12.330,1327.940223
1 Dec 2019 20:22:23.000,20.662,12.234,1333.128286
1 Dec 2019 20:22:24.000,20.869,12.138,1338.333162
1 Dec 2019 20:22:25.000,21.074,12.043,1343.554651
1 Dec 2019 20:22:26.000,21.277,11.948,1348.792550
1 Dec 2019 20:22:27.000,21.478,11.853,1354.046665
1 Dec 2019 20:22:28.000,21.678,11.758,1359.316801
1 Dec 2019 20:22:29.000,21.877,11.664,1364.602764
1 Dec 2019 20:22:30.000,22.073,11.570,1369.904365
1 Dec 2019 20:22:31.000,22.268,11.476,1375.221417
1 Dec 2019 20:22:32.000,22.462,11.383,1380.553734
1 Dec 2019 20:22:33.000,22.653,11.290,1385.901136
1 Dec 2019 20:22:34.000,22.844,11.197,1391.263439
1 Dec 2019 20:22:35.000,23.032,11.105,1396.640465
1 Dec 2019 20:22:36.000,23.219,11.013,1402.032040
1 Dec 2019 20:22:37.000,23.405,10.921,1407.437988
1 Dec 2019 20:22:38.000,23.589,10.829,1412.858140
1 Dec 2019 20:22:39.000,23.772,10.738,1418.292324
1 Dec 2019 20:22:40.000,23.953,10.647,1423.740372
1 Dec 2019 20:22:41.000,24.133,10.556,1429.202121
1 Dec 2019 20:22:42.000,24.311,10.466,1434.677406
1 Dec 2019 20:22:43.000,24.488,10.376,1440.166068
1 Dec 2019 20:22:44.000,24.663,10.286,1445.667945
1 Dec 2019 20:22:45.000,24.837,10.196,1451.182882
1 Dec 2019 20:22:46.000,25.010,10.107,1456.710722
1 Dec 2019 20:22:47.000,25.181,10.018,1462.251313
1 Dec 2019 20:22:48.000,25.351,9.930,1467.804504
1 Dec 2019 20:22:49.000,25.519,9.842,1473.370147
1 Dec 2019 20:22:50.000,25.686,9.754,1478.948091
1 Dec 2019 20:22:51.000,25.852,9.666,1484.538193
1 Dec 2019 20:22:52.000,26.017,9.579,1490.140307
1 Dec 2019 20:22:53.000,26.180,9.492,1495.754294
1 Dec 2019 20:22:54.000,26.342,9.405,1501.380012
1 Dec 2019 20:22:55.000,26.502,9.319,1507.017323
1 Dec 2019 20:22:56.000,26.662,9.232,1512.666091
1 Dec 2019 20:22:57.000,26.820,9.147,1518.326183
1 Dec 2019 20:22:58.000,26.977,9.061,1523.997461
1 Dec 2019 20:22:59.000,27.133,8.976,1529.679797
1 Dec 2019 20:23:00.000,27.287,8.891,1535.373060
1 Dec 2019 20:23:01.000,27.441,8.806,1541.077122
1 Dec 2019 20:23:02.000,27.593,8.722,1546.791858
1 Dec 2019 20:23:03.000,27.744,8.638,1552.517141
1 Dec 2019 20:23:04.000,27.894,8.554,1558.252849
1 Dec 2019 20:23:05.000,28.043,8.470,1563.998860
1 Dec 2019 20:23:06.000,28.190,8.387,1569.755053
1 Dec 2019 20:23:07.000,28.337,8.304,1575.521311
1 Dec 2019 20:23:08.000,28.482,8.222,1581.297517
1 Dec 2019 20:23:09.000,28.626,8.139,1587.083553
1 Dec 2019 20:23:10.000,28.770,8.057,1592.879305
1 Dec 2019 20:23:11.000,28.912,7.976,1598.684662
1 Dec 2019 20:23:12.000,29.053,7.894,1604.499511
1 Dec 2019 20:23:13.000,29.193,7.813,1610.323743
1 Dec 2019 20:23:14.000,29.332,7.732,1616.157249
1 Dec 2019 20:23:15.000,29.470,7.651,1621.999922
