vcc_sched/network/input/aer_uvags_wj2xmr_vcc-c_44430.csv

"Time (UTCG)","Azimuth (deg)","Elevation (deg)","Range (km)"
7 Jan 2020 03:47:21.969,189.201,-0.124,2309.259654
7 Jan 2020 03:47:22.000,189.198,-0.123,2309.075853
7 Jan 2020 03:47:23.000,189.105,-0.069,2303.095288
7 Jan 2020 03:47:24.000,189.012,-0.015,2297.120253
7 Jan 2020 03:47:25.000,188.918,0.039,2291.150799
7 Jan 2020 03:47:26.000,188.824,0.093,2285.186976
7 Jan 2020 03:47:27.000,188.730,0.147,2279.228838
7 Jan 2020 03:47:28.000,188.634,0.201,2273.276435
7 Jan 2020 03:47:29.000,188.539,0.255,2267.329822
7 Jan 2020 03:47:30.000,188.442,0.309,2261.389050
7 Jan 2020 03:47:31.000,188.346,0.364,2255.454174
7 Jan 2020 03:47:32.000,188.248,0.418,2249.525248
7 Jan 2020 03:47:33.000,188.150,0.473,2243.602327
7 Jan 2020 03:47:34.000,188.052,0.528,2237.685465
7 Jan 2020 03:47:35.000,187.953,0.583,2231.774718
7 Jan 2020 03:47:36.000,187.854,0.638,2225.870143
7 Jan 2020 03:47:37.000,187.754,0.693,2219.971797
7 Jan 2020 03:47:38.000,187.653,0.748,2214.079736
7 Jan 2020 03:47:39.000,187.552,0.803,2208.194017
7 Jan 2020 03:47:40.000,187.451,0.858,2202.314701
7 Jan 2020 03:47:41.000,187.349,0.914,2196.441845
7 Jan 2020 03:47:42.000,187.246,0.969,2190.575509
7 Jan 2020 03:47:43.000,187.143,1.025,2184.715752
7 Jan 2020 03:47:44.000,187.039,1.080,2178.862636
7 Jan 2020 03:47:45.000,186.935,1.136,2173.016221
7 Jan 2020 03:47:46.000,186.830,1.192,2167.176570
7 Jan 2020 03:47:47.000,186.724,1.248,2161.343743
7 Jan 2020 03:47:48.000,186.618,1.304,2155.517805
7 Jan 2020 03:47:49.000,186.511,1.360,2149.698818
7 Jan 2020 03:47:50.000,186.404,1.416,2143.886846
7 Jan 2020 03:47:51.000,186.296,1.473,2138.081954
7 Jan 2020 03:47:52.000,186.187,1.529,2132.284208
7 Jan 2020 03:47:53.000,186.078,1.586,2126.493672
7 Jan 2020 03:47:54.000,185.969,1.642,2120.710414
7 Jan 2020 03:47:55.000,185.858,1.699,2114.934501
7 Jan 2020 03:47:56.000,185.747,1.756,2109.166000
7 Jan 2020 03:47:57.000,185.636,1.813,2103.404978
7 Jan 2020 03:47:58.000,185.524,1.870,2097.651507
7 Jan 2020 03:47:59.000,185.411,1.927,2091.905654
7 Jan 2020 03:48:00.000,185.297,1.984,2086.167490
7 Jan 2020 03:48:01.000,185.183,2.041,2080.437087
7 Jan 2020 03:48:02.000,185.068,2.099,2074.714515
7 Jan 2020 03:48:03.000,184.953,2.156,2068.999847
7 Jan 2020 03:48:04.000,184.837,2.214,2063.293156
7 Jan 2020 03:48:05.000,184.720,2.272,2057.594516
7 Jan 2020 03:48:06.000,184.603,2.329,2051.904000
7 Jan 2020 03:48:07.000,184.485,2.387,2046.221685
7 Jan 2020 03:48:08.000,184.366,2.445,2040.547645
7 Jan 2020 03:48:09.000,184.247,2.503,2034.881957
7 Jan 2020 03:48:10.000,184.126,2.562,2029.224698
7 Jan 2020 03:48:11.000,184.006,2.620,2023.575947
7 Jan 2020 03:48:12.000,183.884,2.678,2017.935781
7 Jan 2020 03:48:13.000,183.762,2.737,2012.304281
7 Jan 2020 03:48:14.000,183.639,2.795,2006.681525
7 Jan 2020 03:48:15.000,183.515,2.854,2001.067596
7 Jan 2020 03:48:16.000,183.391,2.913,1995.462575
7 Jan 2020 03:48:17.000,183.266,2.972,1989.866544
7 Jan 2020 03:48:18.000,183.140,3.031,1984.279586
7 Jan 2020 03:48:19.000,183.014,3.090,1978.701786
7 Jan 2020 03:48:20.000,182.886,3.149,1973.133228
7 Jan 2020 03:48:21.000,182.758,3.208,1967.573997
7 Jan 2020 03:48:22.000,182.630,3.268,1962.024181
7 Jan 2020 03:48:23.000,182.500,3.327,1956.483866
7 Jan 2020 03:48:24.000,182.370,3.387,1950.953141
7 Jan 2020 03:48:25.000,182.239,3.446,1945.432093
7 Jan 2020 03:48:26.000,182.107,3.506,1939.920814
7 Jan 2020 03:48:27.000,181.975,3.566,1934.419393
7 Jan 2020 03:48:28.000,181.841,3.626,1928.927921
7 Jan 2020 03:48:29.000,181.707,3.686,1923.446492
7 Jan 2020 03:48:30.000,181.572,3.746,1917.975198
7 Jan 2020 03:48:31.000,181.436,3.806,1912.514133
7 Jan 2020 03:48:32.000,181.300,3.867,1907.063392
7 Jan 2020 03:48:33.000,181.163,3.927,1901.623071
7 Jan 2020 03:48:34.000,181.024,3.987,1896.193266
7 Jan 2020 03:48:35.000,180.885,4.048,1890.774075
7 Jan 2020 03:48:36.000,180.746,4.109,1885.365596
7 Jan 2020 03:48:37.000,180.605,4.170,1879.967929
7 Jan 2020 03:48:38.000,180.463,4.230,1874.581175
7 Jan 2020 03:48:39.000,180.321,4.291,1869.205433
7 Jan 2020 03:48:40.000,180.178,4.352,1863.840807
7 Jan 2020 03:48:41.000,180.034,4.414,1858.487400
7 Jan 2020 03:48:42.000,179.889,4.475,1853.145315
7 Jan 2020 03:48:43.000,179.743,4.536,1847.814658
7 Jan 2020 03:48:44.000,179.597,4.598,1842.495535
7 Jan 2020 03:48:45.000,179.449,4.659,1837.188053
7 Jan 2020 03:48:46.000,179.301,4.721,1831.892319
7 Jan 2020 03:48:47.000,179.151,4.782,1826.608444
7 Jan 2020 03:48:48.000,179.001,4.844,1821.336536
7 Jan 2020 03:48:49.000,178.850,4.906,1816.076707
7 Jan 2020 03:48:50.000,178.698,4.968,1810.829068
7 Jan 2020 03:48:51.000,178.545,5.030,1805.593734
7 Jan 2020 03:48:52.000,178.391,5.092,1800.370817
7 Jan 2020 03:48:53.000,178.236,5.154,1795.160433
7 Jan 2020 03:48:54.000,178.080,5.217,1789.962699
7 Jan 2020 03:48:55.000,177.924,5.279,1784.777731
7 Jan 2020 03:48:56.000,177.766,5.341,1779.605647
7 Jan 2020 03:48:57.000,177.607,5.404,1774.446567
7 Jan 2020 03:48:58.000,177.448,5.466,1769.300612
7 Jan 2020 03:48:59.000,177.287,5.529,1764.167902
7 Jan 2020 03:49:00.000,177.125,5.592,1759.048561
7 Jan 2020 03:49:01.000,176.963,5.655,1753.942712
7 Jan 2020 03:49:02.000,176.799,5.717,1748.850479
7 Jan 2020 03:49:03.000,176.635,5.780,1743.771989
7 Jan 2020 03:49:04.000,176.469,5.843,1738.707369
7 Jan 2020 03:49:05.000,176.303,5.907,1733.656747
7 Jan 2020 03:49:06.000,176.135,5.970,1728.620251
7 Jan 2020 03:49:07.000,175.966,6.033,1723.598013
7 Jan 2020 03:49:08.000,175.797,6.096,1718.590163
7 Jan 2020 03:49:09.000,175.626,6.159,1713.596835
7 Jan 2020 03:49:10.000,175.454,6.223,1708.618162
7 Jan 2020 03:49:11.000,175.282,6.286,1703.654279
7 Jan 2020 03:49:12.000,175.108,6.350,1698.705322
7 Jan 2020 03:49:13.000,174.933,6.413,1693.771429
7 Jan 2020 03:49:14.000,174.757,6.477,1688.852737
7 Jan 2020 03:49:15.000,174.580,6.541,1683.949387
7 Jan 2020 03:49:16.000,174.402,6.604,1679.061519
7 Jan 2020 03:49:17.000,174.222,6.668,1674.189275
7 Jan 2020 03:49:18.000,174.042,6.732,1669.332797
7 Jan 2020 03:49:19.000,173.860,6.796,1664.492232
7 Jan 2020 03:49:20.000,173.678,6.860,1659.667724
7 Jan 2020 03:49:21.000,173.494,6.924,1654.859419
7 Jan 2020 03:49:22.000,173.309,6.988,1650.067466
7 Jan 2020 03:49:23.000,173.123,7.052,1645.292013
7 Jan 2020 03:49:24.000,172.936,7.116,1640.533212
7 Jan 2020 03:49:25.000,172.748,7.180,1635.791214
7 Jan 2020 03:49:26.000,172.558,7.244,1631.066170
7 Jan 2020 03:49:27.000,172.368,7.308,1626.358235
7 Jan 2020 03:49:28.000,172.176,7.372,1621.667565
7 Jan 2020 03:49:29.000,171.983,7.436,1616.994316
7 Jan 2020 03:49:30.000,171.789,7.500,1612.338644
7 Jan 2020 03:49:31.000,171.594,7.565,1607.700710
7 Jan 2020 03:49:32.000,171.397,7.629,1603.080673
7 Jan 2020 03:49:33.000,171.200,7.693,1598.478694
7 Jan 2020 03:49:34.000,171.001,7.757,1593.894936
7 Jan 2020 03:49:35.000,170.800,7.821,1589.329562
7 Jan 2020 03:49:36.000,170.599,7.886,1584.782737
7 Jan 2020 03:49:37.000,170.396,7.950,1580.254627
7 Jan 2020 03:49:38.000,170.193,8.014,1575.745400
7 Jan 2020 03:49:39.000,169.988,8.078,1571.255224
7 Jan 2020 03:49:40.000,169.781,8.142,1566.784268
7 Jan 2020 03:49:41.000,169.574,8.207,1562.332704
7 Jan 2020 03:49:42.000,169.365,8.271,1557.900703
7 Jan 2020 03:49:43.000,169.155,8.335,1553.488439
7 Jan 2020 03:49:44.000,168.943,8.399,1549.096087
7 Jan 2020 03:49:45.000,168.731,8.463,1544.723821
7 Jan 2020 03:49:46.000,168.517,8.527,1540.371818
7 Jan 2020 03:49:47.000,168.301,8.591,1536.040258
7 Jan 2020 03:49:48.000,168.085,8.655,1531.729318
7 Jan 2020 03:49:49.000,167.867,8.719,1527.439179
7 Jan 2020 03:49:50.000,167.648,8.783,1523.170022
7 Jan 2020 03:49:51.000,167.427,8.846,1518.922031
7 Jan 2020 03:49:52.000,167.206,8.910,1514.695388
7 Jan 2020 03:49:53.000,166.982,8.974,1510.490278
7 Jan 2020 03:49:54.000,166.758,9.037,1506.306888
7 Jan 2020 03:49:55.000,166.532,9.101,1502.145404
7 Jan 2020 03:49:56.000,166.305,9.164,1498.006015
7 Jan 2020 03:49:57.000,166.077,9.228,1493.888908
7 Jan 2020 03:49:58.000,165.847,9.291,1489.794275
7 Jan 2020 03:49:59.000,165.616,9.354,1485.722308
7 Jan 2020 03:50:00.000,165.383,9.417,1481.673197
7 Jan 2020 03:50:01.000,165.149,9.480,1477.647137
7 Jan 2020 03:50:02.000,164.914,9.543,1473.644322
7 Jan 2020 03:50:03.000,164.677,9.606,1469.664946
7 Jan 2020 03:50:04.000,164.439,9.668,1465.709207
7 Jan 2020 03:50:05.000,164.200,9.731,1461.777301
7 Jan 2020 03:50:06.000,163.959,9.793,1457.869426
7 Jan 2020 03:50:07.000,163.717,9.856,1453.985782
7 Jan 2020 03:50:08.000,163.473,9.918,1450.126568
7 Jan 2020 03:50:09.000,163.228,9.980,1446.291985
7 Jan 2020 03:50:10.000,162.981,10.041,1442.482234
7 Jan 2020 03:50:11.000,162.734,10.103,1438.697518
7 Jan 2020 03:50:12.000,162.484,10.165,1434.938040
7 Jan 2020 03:50:13.000,162.234,10.226,1431.204004
7 Jan 2020 03:50:14.000,161.982,10.287,1427.495614
7 Jan 2020 03:50:15.000,161.728,10.348,1423.813076
7 Jan 2020 03:50:16.000,161.473,10.409,1420.156598
7 Jan 2020 03:50:17.000,161.217,10.469,1416.526382
7 Jan 2020 03:50:18.000,160.959,10.530,1412.922639
7 Jan 2020 03:50:19.000,160.700,10.590,1409.345575
7 Jan 2020 03:50:20.000,160.439,10.650,1405.795400
7 Jan 2020 03:50:21.000,160.177,10.709,1402.272324
7 Jan 2020 03:50:22.000,159.914,10.769,1398.776553
7 Jan 2020 03:50:23.000,159.649,10.828,1395.308299
7 Jan 2020 03:50:24.000,159.383,10.887,1391.867773
7 Jan 2020 03:50:25.000,159.115,10.946,1388.455184
7 Jan 2020 03:50:26.000,158.846,11.004,1385.070744
7 Jan 2020 03:50:27.000,158.575,11.063,1381.714667
7 Jan 2020 03:50:28.000,158.303,11.121,1378.387160
7 Jan 2020 03:50:29.000,158.030,11.178,1375.088438
7 Jan 2020 03:50:30.000,157.755,11.236,1371.818712
7 Jan 2020 03:50:31.000,157.479,11.293,1368.578195
7 Jan 2020 03:50:32.000,157.201,11.349,1365.367099
7 Jan 2020 03:50:33.000,156.922,11.406,1362.185636
7 Jan 2020 03:50:34.000,156.641,11.462,1359.034019
7 Jan 2020 03:50:35.000,156.359,11.518,1355.912461
7 Jan 2020 03:50:36.000,156.076,11.573,1352.821174
7 Jan 2020 03:50:37.000,155.791,11.628,1349.760369
7 Jan 2020 03:50:38.000,155.505,11.683,1346.730260
7 Jan 2020 03:50:39.000,155.217,11.737,1343.731058
7 Jan 2020 03:50:40.000,154.928,11.791,1340.762974
7 Jan 2020 03:50:41.000,154.637,11.845,1337.826219
7 Jan 2020 03:50:42.000,154.345,11.898,1334.921006
7 Jan 2020 03:50:43.000,154.052,11.951,1332.047543
7 Jan 2020 03:50:44.000,153.758,12.004,1329.206041
7 Jan 2020 03:50:45.000,153.462,12.056,1326.396709
7 Jan 2020 03:50:46.000,153.164,12.107,1323.619756
7 Jan 2020 03:50:47.000,152.865,12.159,1320.875390
7 Jan 2020 03:50:48.000,152.565,12.209,1318.163818
7 Jan 2020 03:50:49.000,152.264,12.260,1315.485247
7 Jan 2020 03:50:50.000,151.961,12.309,1312.839884
7 Jan 2020 03:50:51.000,151.657,12.359,1310.227930
7 Jan 2020 03:50:52.000,151.351,12.408,1307.649593
7 Jan 2020 03:50:53.000,151.045,12.456,1305.105074
7 Jan 2020 03:50:54.000,150.736,12.504,1302.594576
7 Jan 2020 03:50:55.000,150.427,12.552,1300.118298
7 Jan 2020 03:50:56.000,150.116,12.598,1297.676441
7 Jan 2020 03:50:57.000,149.804,12.645,1295.269202
7 Jan 2020 03:50:58.000,149.491,12.691,1292.896776
7 Jan 2020 03:50:59.000,149.176,12.736,1290.559363
7 Jan 2020 03:51:00.000,148.861,12.781,1288.257154
7 Jan 2020 03:51:01.000,148.544,12.825,1285.990342
7 Jan 2020 03:51:02.000,148.225,12.869,1283.759116
7 Jan 2020 03:51:03.000,147.906,12.912,1281.563669
7 Jan 2020 03:51:04.000,147.585,12.954,1279.404185
7 Jan 2020 03:51:05.000,147.263,12.996,1277.280851
7 Jan 2020 03:51:06.000,146.940,13.038,1275.193849
7 Jan 2020 03:51:07.000,146.616,13.078,1273.143364
7 Jan 2020 03:51:08.000,146.291,13.118,1271.129573
7 Jan 2020 03:51:09.000,145.964,13.158,1269.152653
7 Jan 2020 03:51:10.000,145.636,13.197,1267.212783
7 Jan 2020 03:51:11.000,145.308,13.235,1265.310134
7 Jan 2020 03:51:12.000,144.978,13.273,1263.444875
7 Jan 2020 03:51:13.000,144.647,13.309,1261.617179
7 Jan 2020 03:51:14.000,144.315,13.346,1259.827208
7 Jan 2020 03:51:15.000,143.982,13.381,1258.075130
7 Jan 2020 03:51:16.000,143.648,13.416,1256.361104
7 Jan 2020 03:51:17.000,143.313,13.450,1254.685286
7 Jan 2020 03:51:18.000,142.977,13.484,1253.047837
7 Jan 2020 03:51:19.000,142.640,13.516,1251.448906
7 Jan 2020 03:51:20.000,142.302,13.549,1249.888646
7 Jan 2020 03:51:21.000,141.963,13.580,1248.367202
7 Jan 2020 03:51:22.000,141.623,13.610,1246.884721
7 Jan 2020 03:51:23.000,141.283,13.640,1245.441341
7 Jan 2020 03:51:24.000,140.941,13.669,1244.037206
7 Jan 2020 03:51:25.000,140.599,13.698,1242.672444
7 Jan 2020 03:51:26.000,140.256,13.725,1241.347194
7 Jan 2020 03:51:27.000,139.912,13.752,1240.061580
7 Jan 2020 03:51:28.000,139.567,13.778,1238.815731
7 Jan 2020 03:51:29.000,139.221,13.804,1237.609765
7 Jan 2020 03:51:30.000,138.875,13.828,1236.443804
7 Jan 2020 03:51:31.000,138.528,13.852,1235.317963
7 Jan 2020 03:51:32.000,138.180,13.875,1234.232352
7 Jan 2020 03:51:33.000,137.832,13.897,1233.187080
7 Jan 2020 03:51:34.000,137.483,13.918,1232.182254
7 Jan 2020 03:51:35.000,137.133,13.939,1231.217969
7 Jan 2020 03:51:36.000,136.783,13.958,1230.294327
7 Jan 2020 03:51:37.000,136.432,13.977,1229.411421
7 Jan 2020 03:51:38.000,136.080,13.995,1228.569337
7 Jan 2020 03:51:39.000,135.728,14.012,1227.768163
7 Jan 2020 03:51:40.000,135.376,14.029,1227.007982
7 Jan 2020 03:51:41.000,135.023,14.044,1226.288868
7 Jan 2020 03:51:42.000,134.670,14.059,1225.610897
7 Jan 2020 03:51:43.000,134.316,14.073,1224.974139
7 Jan 2020 03:51:44.000,133.962,14.086,1224.378658
7 Jan 2020 03:51:45.000,133.607,14.098,1223.824520
7 Jan 2020 03:51:46.000,133.252,14.109,1223.311776
7 Jan 2020 03:51:47.000,132.897,14.119,1222.840482
7 Jan 2020 03:51:48.000,132.541,14.129,1222.410687
7 Jan 2020 03:51:49.000,132.186,14.137,1222.022437
7 Jan 2020 03:51:50.000,131.830,14.145,1221.675771
7 Jan 2020 03:51:51.000,131.473,14.152,1221.370730
7 Jan 2020 03:51:52.000,131.117,14.158,1221.107339
7 Jan 2020 03:51:53.000,130.760,14.163,1220.885629
7 Jan 2020 03:51:54.000,130.404,14.167,1220.705623
7 Jan 2020 03:51:55.000,130.047,14.171,1220.567342
7 Jan 2020 03:51:56.000,129.690,14.173,1220.470799
7 Jan 2020 03:51:57.000,129.333,14.175,1220.416005
7 Jan 2020 03:51:58.000,128.976,14.175,1220.402967
7 Jan 2020 03:51:59.000,128.619,14.175,1220.431687
7 Jan 2020 03:52:00.000,128.262,14.174,1220.502161
7 Jan 2020 03:52:01.000,127.905,14.172,1220.614384
7 Jan 2020 03:52:02.000,127.548,14.169,1220.768344
7 Jan 2020 03:52:03.000,127.192,14.166,1220.964026
7 Jan 2020 03:52:04.000,126.835,14.161,1221.201409
7 Jan 2020 03:52:05.000,126.479,14.156,1221.480471
7 Jan 2020 03:52:06.000,126.122,14.149,1221.801179
7 Jan 2020 03:52:07.000,125.766,14.142,1222.163507
7 Jan 2020 03:52:08.000,125.411,14.134,1222.567415
7 Jan 2020 03:52:09.000,125.055,14.125,1223.012863
7 Jan 2020 03:52:10.000,124.700,14.115,1223.499803
7 Jan 2020 03:52:11.000,124.345,14.105,1224.028188
7 Jan 2020 03:52:12.000,123.991,14.093,1224.597963
7 Jan 2020 03:52:13.000,123.637,14.081,1225.209067
7 Jan 2020 03:52:14.000,123.283,14.067,1225.861445
7 Jan 2020 03:52:15.000,122.930,14.053,1226.555027
7 Jan 2020 03:52:16.000,122.577,14.038,1227.289743
7 Jan 2020 03:52:17.000,122.225,14.023,1228.065516
7 Jan 2020 03:52:18.000,121.873,14.006,1228.882274
7 Jan 2020 03:52:19.000,121.522,13.989,1229.739931
7 Jan 2020 03:52:20.000,121.171,13.970,1230.638403
7 Jan 2020 03:52:21.000,120.821,13.951,1231.577595
7 Jan 2020 03:52:22.000,120.471,13.931,1232.557420
7 Jan 2020 03:52:23.000,120.122,13.910,1233.577778
7 Jan 2020 03:52:24.000,119.774,13.889,1234.638564
7 Jan 2020 03:52:25.000,119.427,13.866,1235.739680
7 Jan 2020 03:52:26.000,119.080,13.843,1236.881014
7 Jan 2020 03:52:27.000,118.734,13.819,1238.062452
7 Jan 2020 03:52:28.000,118.388,13.795,1239.283882
7 Jan 2020 03:52:29.000,118.044,13.769,1240.545181
7 Jan 2020 03:52:30.000,117.700,13.743,1241.846232
7 Jan 2020 03:52:31.000,117.357,13.716,1243.186907
7 Jan 2020 03:52:32.000,117.015,13.688,1244.567072
7 Jan 2020 03:52:33.000,116.673,13.659,1245.986602
7 Jan 2020 03:52:34.000,116.333,13.630,1247.445354
7 Jan 2020 03:52:35.000,115.994,13.600,1248.943198
7 Jan 2020 03:52:36.000,115.655,13.569,1250.479983
7 Jan 2020 03:52:37.000,115.317,13.537,1252.055573
7 Jan 2020 03:52:38.000,114.981,13.505,1253.669813
7 Jan 2020 03:52:39.000,114.645,13.472,1255.322559
7 Jan 2020 03:52:40.000,114.310,13.439,1257.013651
7 Jan 2020 03:52:41.000,113.976,13.404,1258.742936
7 Jan 2020 03:52:42.000,113.644,13.369,1260.510259
7 Jan 2020 03:52:43.000,113.312,13.333,1262.315452
7 Jan 2020 03:52:44.000,112.981,13.297,1264.158358
7 Jan 2020 03:52:45.000,112.652,13.260,1266.038803
7 Jan 2020 03:52:46.000,112.323,13.222,1267.956622
7 Jan 2020 03:52:47.000,111.996,13.184,1269.911648
7 Jan 2020 03:52:48.000,111.670,13.145,1271.903699
7 Jan 2020 03:52:49.000,111.345,13.105,1273.932605
7 Jan 2020 03:52:50.000,111.021,13.065,1275.998191
7 Jan 2020 03:52:51.000,110.698,13.024,1278.100270
7 Jan 2020 03:52:52.000,110.377,12.983,1280.238663
7 Jan 2020 03:52:53.000,110.056,12.941,1282.413191
7 Jan 2020 03:52:54.000,109.737,12.898,1284.623661
7 Jan 2020 03:52:55.000,109.419,12.855,1286.869889
7 Jan 2020 03:52:56.000,109.103,12.811,1289.151685
7 Jan 2020 03:52:57.000,108.787,12.767,1291.468864
7 Jan 2020 03:52:58.000,108.473,12.722,1293.821224
7 Jan 2020 03:52:59.000,108.160,12.677,1296.208577
7 Jan 2020 03:53:00.000,107.849,12.631,1298.630726
7 Jan 2020 03:53:01.000,107.538,12.585,1301.087474
7 Jan 2020 03:53:02.000,107.229,12.538,1303.578628
7 Jan 2020 03:53:03.000,106.922,12.490,1306.103981
7 Jan 2020 03:53:04.000,106.615,12.442,1308.663336
7 Jan 2020 03:53:05.000,106.310,12.394,1311.256490
7 Jan 2020 03:53:06.000,106.006,12.345,1313.883242
7 Jan 2020 03:53:07.000,105.704,12.296,1316.543388
7 Jan 2020 03:53:08.000,105.403,12.246,1319.236723
7 Jan 2020 03:53:09.000,105.103,12.195,1321.963040
7 Jan 2020 03:53:10.000,104.805,12.145,1324.722138
7 Jan 2020 03:53:11.000,104.508,12.094,1327.513803
7 Jan 2020 03:53:12.000,104.213,12.042,1330.337829
7 Jan 2020 03:53:13.000,103.918,11.990,1333.194008
7 Jan 2020 03:53:14.000,103.626,11.938,1336.082131
7 Jan 2020 03:53:15.000,103.334,11.885,1339.001989
7 Jan 2020 03:53:16.000,103.044,11.832,1341.953370
7 Jan 2020 03:53:17.000,102.756,11.778,1344.936066
7 Jan 2020 03:53:18.000,102.469,11.724,1347.949864
7 Jan 2020 03:53:19.000,102.183,11.670,1350.994553
7 Jan 2020 03:53:20.000,101.898,11.615,1354.069921
7 Jan 2020 03:53:21.000,101.615,11.560,1357.175758
7 Jan 2020 03:53:22.000,101.334,11.505,1360.311851
7 Jan 2020 03:53:23.000,101.054,11.449,1363.477987
7 Jan 2020 03:53:24.000,100.775,11.393,1366.673956
7 Jan 2020 03:53:25.000,100.498,11.337,1369.899544
7 Jan 2020 03:53:26.000,100.222,11.280,1373.154535
7 Jan 2020 03:53:27.000,99.948,11.223,1376.438726
7 Jan 2020 03:53:28.000,99.675,11.166,1379.751900
7 Jan 2020 03:53:29.000,99.403,11.108,1383.093846
7 Jan 2020 03:53:30.000,99.133,11.051,1386.464352
7 Jan 2020 03:53:31.000,98.865,10.992,1389.863206
7 Jan 2020 03:53:32.000,98.597,10.934,1393.290198
7 Jan 2020 03:53:33.000,98.332,10.876,1396.745117
7 Jan 2020 03:53:34.000,98.067,10.817,1400.227748
7 Jan 2020 03:53:35.000,97.804,10.758,1403.737890
7 Jan 2020 03:53:36.000,97.543,10.698,1407.275328
7 Jan 2020 03:53:37.000,97.283,10.639,1410.839853
7 Jan 2020 03:53:38.000,97.024,10.579,1414.431258
7 Jan 2020 03:53:39.000,96.767,10.519,1418.049334
7 Jan 2020 03:53:40.000,96.511,10.459,1421.693869
7 Jan 2020 03:53:41.000,96.257,10.399,1425.364664
7 Jan 2020 03:53:42.000,96.004,10.338,1429.061510
7 Jan 2020 03:53:43.000,95.753,10.277,1432.784200
7 Jan 2020 03:53:44.000,95.503,10.216,1436.532526
7 Jan 2020 03:53:45.000,95.254,10.155,1440.306291
7 Jan 2020 03:53:46.000,95.007,10.094,1444.105287
7 Jan 2020 03:53:47.000,94.761,10.033,1447.929313
7 Jan 2020 03:53:48.000,94.517,9.971,1451.778162
7 Jan 2020 03:53:49.000,94.274,9.909,1455.651641
7 Jan 2020 03:53:50.000,94.032,9.847,1459.549546
7 Jan 2020 03:53:51.000,93.792,9.785,1463.471673
7 Jan 2020 03:53:52.000,93.553,9.723,1467.417832
7 Jan 2020 03:53:53.000,93.316,9.661,1471.387821
7 Jan 2020 03:53:54.000,93.079,9.599,1475.381443
7 Jan 2020 03:53:55.000,92.845,9.536,1479.398499
7 Jan 2020 03:53:56.000,92.611,9.473,1483.438802
7 Jan 2020 03:53:57.000,92.380,9.411,1487.502150
7 Jan 2020 03:53:58.000,92.149,9.348,1491.588358
7 Jan 2020 03:53:59.000,91.920,9.285,1495.697230
7 Jan 2020 03:54:00.000,91.692,9.222,1499.828573
7 Jan 2020 03:54:01.000,91.465,9.159,1503.982202
7 Jan 2020 03:54:02.000,91.240,9.096,1508.157927
7 Jan 2020 03:54:03.000,91.016,9.032,1512.355556
7 Jan 2020 03:54:04.000,90.794,8.969,1516.574910
7 Jan 2020 03:54:05.000,90.573,8.906,1520.815795
7 Jan 2020 03:54:06.000,90.353,8.842,1525.078036
7 Jan 2020 03:54:07.000,90.135,8.779,1529.361444
7 Jan 2020 03:54:08.000,89.917,8.715,1533.665835
7 Jan 2020 03:54:09.000,89.701,8.652,1537.991034
7 Jan 2020 03:54:10.000,89.487,8.588,1542.336855
7 Jan 2020 03:54:11.000,89.274,8.524,1546.703125
7 Jan 2020 03:54:12.000,89.062,8.460,1551.089661
7 Jan 2020 03:54:13.000,88.851,8.397,1555.496294
7 Jan 2020 03:54:14.000,88.642,8.333,1559.922840
7 Jan 2020 03:54:15.000,88.433,8.269,1564.369133
7 Jan 2020 03:54:16.000,88.226,8.205,1568.834993
7 Jan 2020 03:54:17.000,88.021,8.141,1573.320256
7 Jan 2020 03:54:18.000,87.816,8.077,1577.824744
7 Jan 2020 03:54:19.000,87.613,8.013,1582.348295
7 Jan 2020 03:54:20.000,87.411,7.950,1586.890733
7 Jan 2020 03:54:21.000,87.211,7.886,1591.451900
7 Jan 2020 03:54:22.000,87.011,7.822,1596.031622
7 Jan 2020 03:54:23.000,86.813,7.758,1600.629742
7 Jan 2020 03:54:24.000,86.616,7.694,1605.246089
7 Jan 2020 03:54:25.000,86.420,7.630,1609.880510
7 Jan 2020 03:54:26.000,86.226,7.566,1614.532835
7 Jan 2020 03:54:27.000,86.032,7.502,1619.202913
7 Jan 2020 03:54:28.000,85.840,7.438,1623.890578
7 Jan 2020 03:54:29.000,85.649,7.374,1628.595680
7 Jan 2020 03:54:30.000,85.459,7.311,1633.318055
7 Jan 2020 03:54:31.000,85.270,7.247,1638.057554
7 Jan 2020 03:54:32.000,85.083,7.183,1642.814025
7 Jan 2020 03:54:33.000,84.897,7.119,1647.587310
7 Jan 2020 03:54:34.000,84.711,7.055,1652.377264
7 Jan 2020 03:54:35.000,84.527,6.992,1657.183730
7 Jan 2020 03:54:36.000,84.344,6.928,1662.006564
7 Jan 2020 03:54:37.000,84.162,6.864,1666.845621
7 Jan 2020 03:54:38.000,83.982,6.801,1671.700749
7 Jan 2020 03:54:39.000,83.802,6.737,1676.571808
7 Jan 2020 03:54:40.000,83.624,6.674,1681.458647
7 Jan 2020 03:54:41.000,83.446,6.610,1686.361129
7 Jan 2020 03:54:42.000,83.270,6.547,1691.279115
7 Jan 2020 03:54:43.000,83.095,6.483,1696.212456
7 Jan 2020 03:54:44.000,82.921,6.420,1701.161019
7 Jan 2020 03:54:45.000,82.747,6.357,1706.124667
7 Jan 2020 03:54:46.000,82.575,6.294,1711.103258
7 Jan 2020 03:54:47.000,82.405,6.230,1716.096659
7 Jan 2020 03:54:48.000,82.235,6.167,1721.104739
7 Jan 2020 03:54:49.000,82.066,6.104,1726.127357
7 Jan 2020 03:54:50.000,81.898,6.041,1731.164386
7 Jan 2020 03:54:51.000,81.731,5.978,1736.215696
7 Jan 2020 03:54:52.000,81.565,5.916,1741.281152
7 Jan 2020 03:54:53.000,81.401,5.853,1746.360628
7 Jan 2020 03:54:54.000,81.237,5.790,1751.454000
7 Jan 2020 03:54:55.000,81.074,5.727,1756.561134
7 Jan 2020 03:54:56.000,80.912,5.665,1761.681908
7 Jan 2020 03:54:57.000,80.752,5.602,1766.816197
7 Jan 2020 03:54:58.000,80.592,5.540,1771.963883
7 Jan 2020 03:54:59.000,80.433,5.477,1777.124835
7 Jan 2020 03:55:00.000,80.275,5.415,1782.298936
7 Jan 2020 03:55:01.000,80.118,5.353,1787.486070
7 Jan 2020 03:55:02.000,79.963,5.291,1792.686110
7 Jan 2020 03:55:03.000,79.808,5.229,1797.898942
7 Jan 2020 03:55:04.000,79.654,5.167,1803.124450
7 Jan 2020 03:55:05.000,79.500,5.105,1808.362520
7 Jan 2020 03:55:06.000,79.348,5.043,1813.613032
7 Jan 2020 03:55:07.000,79.197,4.981,1818.875874
7 Jan 2020 03:55:08.000,79.047,4.920,1824.150935
7 Jan 2020 03:55:09.000,78.897,4.858,1829.438106
7 Jan 2020 03:55:10.000,78.749,4.797,1834.737268
7 Jan 2020 03:55:11.000,78.601,4.735,1840.048318
7 Jan 2020 03:55:12.000,78.455,4.674,1845.371144
7 Jan 2020 03:55:13.000,78.309,4.613,1850.705644
7 Jan 2020 03:55:14.000,78.164,4.551,1856.051703
7 Jan 2020 03:55:15.000,78.020,4.490,1861.409220
7 Jan 2020 03:55:16.000,77.877,4.429,1866.778090
7 Jan 2020 03:55:17.000,77.734,4.368,1872.158208
7 Jan 2020 03:55:18.000,77.593,4.308,1877.549476
7 Jan 2020 03:55:19.000,77.452,4.247,1882.951784
7 Jan 2020 03:55:20.000,77.313,4.186,1888.365035
7 Jan 2020 03:55:21.000,77.174,4.126,1893.789130
7 Jan 2020 03:55:22.000,77.036,4.065,1899.223969
7 Jan 2020 03:55:23.000,76.898,4.005,1904.669457
7 Jan 2020 03:55:24.000,76.762,3.945,1910.125490
7 Jan 2020 03:55:25.000,76.626,3.884,1915.591975
7 Jan 2020 03:55:26.000,76.491,3.824,1921.068817
7 Jan 2020 03:55:27.000,76.357,3.764,1926.555921
7 Jan 2020 03:55:28.000,76.224,3.705,1932.053194
7 Jan 2020 03:55:29.000,76.092,3.645,1937.560545
7 Jan 2020 03:55:30.000,75.960,3.585,1943.077877
7 Jan 2020 03:55:31.000,75.829,3.525,1948.605102
7 Jan 2020 03:55:32.000,75.699,3.466,1954.142128
7 Jan 2020 03:55:33.000,75.570,3.406,1959.688867
7 Jan 2020 03:55:34.000,75.441,3.347,1965.245231
7 Jan 2020 03:55:35.000,75.313,3.288,1970.811135
7 Jan 2020 03:55:36.000,75.186,3.229,1976.386484
7 Jan 2020 03:55:37.000,75.060,3.170,1981.971197
7 Jan 2020 03:55:38.000,74.935,3.111,1987.565188
7 Jan 2020 03:55:39.000,74.810,3.052,1993.168373
7 Jan 2020 03:55:40.000,74.686,2.993,1998.780667
7 Jan 2020 03:55:41.000,74.562,2.935,2004.401988
7 Jan 2020 03:55:42.000,74.440,2.876,2010.032254
7 Jan 2020 03:55:43.000,74.318,2.817,2015.671386
7 Jan 2020 03:55:44.000,74.196,2.759,2021.319298
7 Jan 2020 03:55:45.000,74.076,2.701,2026.975912
7 Jan 2020 03:55:46.000,73.956,2.643,2032.641149
7 Jan 2020 03:55:47.000,73.837,2.585,2038.314932
7 Jan 2020 03:55:48.000,73.718,2.527,2043.997182
7 Jan 2020 03:55:49.000,73.601,2.469,2049.687823
7 Jan 2020 03:55:50.000,73.484,2.411,2055.386777
7 Jan 2020 03:55:51.000,73.367,2.353,2061.093971
7 Jan 2020 03:55:52.000,73.251,2.296,2066.809332
7 Jan 2020 03:55:53.000,73.136,2.238,2072.532779
7 Jan 2020 03:55:54.000,73.022,2.181,2078.264243
7 Jan 2020 03:55:55.000,72.908,2.123,2084.003650
7 Jan 2020 03:55:56.000,72.795,2.066,2089.750929
7 Jan 2020 03:55:57.000,72.683,2.009,2095.506008
7 Jan 2020 03:55:58.000,72.571,1.952,2101.268816
7 Jan 2020 03:55:59.000,72.460,1.895,2107.039284
7 Jan 2020 03:56:00.000,72.349,1.838,2112.817342
7 Jan 2020 03:56:01.000,72.239,1.782,2118.602921
7 Jan 2020 03:56:02.000,72.130,1.725,2124.395953
7 Jan 2020 03:56:03.000,72.021,1.669,2130.196371
7 Jan 2020 03:56:04.000,71.913,1.612,2136.004108
7 Jan 2020 03:56:05.000,71.806,1.556,2141.819101
7 Jan 2020 03:56:06.000,71.699,1.499,2147.641277
7 Jan 2020 03:56:07.000,71.592,1.443,2153.470575
7 Jan 2020 03:56:08.000,71.487,1.387,2159.306931
7 Jan 2020 03:56:09.000,71.382,1.331,2165.150281
7 Jan 2020 03:56:10.000,71.277,1.275,2171.000561
7 Jan 2020 03:56:11.000,71.173,1.220,2176.857709
7 Jan 2020 03:56:12.000,71.070,1.164,2182.721663
7 Jan 2020 03:56:13.000,70.967,1.108,2188.592361
7 Jan 2020 03:56:14.000,70.865,1.053,2194.469743
7 Jan 2020 03:56:15.000,70.763,0.998,2200.353747
7 Jan 2020 03:56:16.000,70.662,0.942,2206.244316
7 Jan 2020 03:56:17.000,70.562,0.887,2212.141388
7 Jan 2020 03:56:18.000,70.462,0.832,2218.044906
7 Jan 2020 03:56:19.000,70.362,0.777,2223.954811
7 Jan 2020 03:56:20.000,70.264,0.722,2229.871045
7 Jan 2020 03:56:21.000,70.165,0.667,2235.793552
7 Jan 2020 03:56:22.000,70.067,0.612,2241.722276
7 Jan 2020 03:56:23.000,69.970,0.558,2247.657159
7 Jan 2020 03:56:24.000,69.874,0.503,2253.598146
7 Jan 2020 03:56:25.000,69.777,0.449,2259.545183
7 Jan 2020 03:56:26.000,69.682,0.394,2265.498215
7 Jan 2020 03:56:27.000,69.587,0.340,2271.457188
7 Jan 2020 03:56:28.000,69.492,0.286,2277.422048
7 Jan 2020 03:56:29.000,69.398,0.232,2283.392743
7 Jan 2020 03:56:30.000,69.304,0.178,2289.369219
7 Jan 2020 03:56:31.000,69.211,0.124,2295.351425
7 Jan 2020 03:56:32.000,69.118,0.070,2301.339308
7 Jan 2020 03:56:33.000,69.026,0.016,2307.332819
7 Jan 2020 03:56:34.000,68.935,-0.037,2313.331906
7 Jan 2020 03:56:35.000,68.844,-0.091,2319.336519
7 Jan 2020 03:56:35.617,68.788,-0.124,2323.041510
7 Jan 2020 05:22:46.253,240.687,-0.124,2314.725535
7 Jan 2020 05:22:47.000,240.708,-0.078,2309.605141
7 Jan 2020 05:22:48.000,240.736,-0.017,2302.754231
7 Jan 2020 05:22:49.000,240.764,0.045,2295.903757
7 Jan 2020 05:22:50.000,240.793,0.107,2289.053732
7 Jan 2020 05:22:51.000,240.821,0.169,2282.204164
7 Jan 2020 05:22:52.000,240.850,0.231,2275.355071
7 Jan 2020 05:22:53.000,240.879,0.294,2268.506463
7 Jan 2020 05:22:54.000,240.908,0.357,2261.658349
7 Jan 2020 05:22:55.000,240.937,0.419,2254.810747
7 Jan 2020 05:22:56.000,240.967,0.482,2247.963668
7 Jan 2020 05:22:57.000,240.996,0.546,2241.117124
7 Jan 2020 05:22:58.000,241.026,0.609,2234.271124
7 Jan 2020 05:22:59.000,241.056,0.673,2227.425689
7 Jan 2020 05:23:00.000,241.086,0.737,2220.580828
7 Jan 2020 05:23:01.000,241.117,0.801,2213.736552
7 Jan 2020 05:23:02.000,241.147,0.865,2206.892879
7 Jan 2020 05:23:03.000,241.178,0.929,2200.049822
7 Jan 2020 05:23:04.000,241.209,0.994,2193.207392
7 Jan 2020 05:23:05.000,241.240,1.059,2186.365602
7 Jan 2020 05:23:06.000,241.271,1.124,2179.524471
7 Jan 2020 05:23:07.000,241.302,1.189,2172.684011
7 Jan 2020 05:23:08.000,241.334,1.255,2165.844232
7 Jan 2020 05:23:09.000,241.366,1.321,2159.005156
7 Jan 2020 05:23:10.000,241.398,1.386,2152.166794
7 Jan 2020 05:23:11.000,241.430,1.453,2145.329161
7 Jan 2020 05:23:12.000,241.462,1.519,2138.492268
7 Jan 2020 05:23:13.000,241.495,1.586,2131.656138
7 Jan 2020 05:23:14.000,241.527,1.652,2124.820781
7 Jan 2020 05:23:15.000,241.560,1.719,2117.986215
7 Jan 2020 05:23:16.000,241.594,1.787,2111.152450
7 Jan 2020 05:23:17.000,241.627,1.854,2104.319510
7 Jan 2020 05:23:18.000,241.660,1.922,2097.487407
7 Jan 2020 05:23:19.000,241.694,1.990,2090.656155
7 Jan 2020 05:23:20.000,241.728,2.058,2083.825775
7 Jan 2020 05:23:21.000,241.762,2.127,2076.996282
7 Jan 2020 05:23:22.000,241.797,2.195,2070.167691
7 Jan 2020 05:23:23.000,241.831,2.264,2063.340018
7 Jan 2020 05:23:24.000,241.866,2.333,2056.513284
7 Jan 2020 05:23:25.000,241.901,2.403,2049.687505
7 Jan 2020 05:23:26.000,241.937,2.473,2042.862695
7 Jan 2020 05:23:27.000,241.972,2.543,2036.038878
7 Jan 2020 05:23:28.000,242.008,2.613,2029.216069
7 Jan 2020 05:23:29.000,242.044,2.683,2022.394285
7 Jan 2020 05:23:30.000,242.080,2.754,2015.573542
7 Jan 2020 05:23:31.000,242.116,2.825,2008.753865
7 Jan 2020 05:23:32.000,242.153,2.896,2001.935270
7 Jan 2020 05:23:33.000,242.190,2.968,1995.117776
7 Jan 2020 05:23:34.000,242.227,3.040,1988.301398
7 Jan 2020 05:23:35.000,242.265,3.112,1981.486162
7 Jan 2020 05:23:36.000,242.302,3.184,1974.672086
7 Jan 2020 05:23:37.000,242.340,3.257,1967.859186
7 Jan 2020 05:23:38.000,242.378,3.330,1961.047488
7 Jan 2020 05:23:39.000,242.417,3.403,1954.237011
7 Jan 2020 05:23:40.000,242.456,3.476,1947.427774
7 Jan 2020 05:23:41.000,242.494,3.550,1940.619795
7 Jan 2020 05:23:42.000,242.534,3.624,1933.813102
7 Jan 2020 05:23:43.000,242.573,3.699,1927.007713
7 Jan 2020 05:23:44.000,242.613,3.773,1920.203651
7 Jan 2020 05:23:45.000,242.653,3.848,1913.400934
7 Jan 2020 05:23:46.000,242.693,3.924,1906.599590
7 Jan 2020 05:23:47.000,242.734,3.999,1899.799640
7 Jan 2020 05:23:48.000,242.775,4.075,1893.001103
7 Jan 2020 05:23:49.000,242.816,4.151,1886.204008
7 Jan 2020 05:23:50.000,242.857,4.228,1879.408376
7 Jan 2020 05:23:51.000,242.899,4.305,1872.614231
7 Jan 2020 05:23:52.000,242.941,4.382,1865.821594
7 Jan 2020 05:23:53.000,242.983,4.460,1859.030495
7 Jan 2020 05:23:54.000,243.026,4.538,1852.240957
7 Jan 2020 05:23:55.000,243.069,4.616,1845.453003
7 Jan 2020 05:23:56.000,243.112,4.694,1838.666658
7 Jan 2020 05:23:57.000,243.156,4.773,1831.881952
7 Jan 2020 05:23:58.000,243.200,4.853,1825.098909
7 Jan 2020 05:23:59.000,243.244,4.932,1818.317555
7 Jan 2020 05:24:00.000,243.288,5.012,1811.537913
7 Jan 2020 05:24:01.000,243.333,5.092,1804.760019
7 Jan 2020 05:24:02.000,243.378,5.173,1797.983895
7 Jan 2020 05:24:03.000,243.424,5.254,1791.209570
7 Jan 2020 05:24:04.000,243.470,5.336,1784.437069
7 Jan 2020 05:24:05.000,243.516,5.417,1777.666427
7 Jan 2020 05:24:06.000,243.563,5.500,1770.897671
7 Jan 2020 05:24:07.000,243.609,5.582,1764.130826
7 Jan 2020 05:24:08.000,243.657,5.665,1757.365929
7 Jan 2020 05:24:09.000,243.704,5.749,1750.603007
7 Jan 2020 05:24:10.000,243.752,5.832,1743.842091
7 Jan 2020 05:24:11.000,243.801,5.916,1737.083209
7 Jan 2020 05:24:12.000,243.849,6.001,1730.326399
7 Jan 2020 05:24:13.000,243.899,6.086,1723.571690
7 Jan 2020 05:24:14.000,243.948,6.171,1716.819115
7 Jan 2020 05:24:15.000,243.998,6.257,1710.068704
7 Jan 2020 05:24:16.000,244.048,6.343,1703.320496
7 Jan 2020 05:24:17.000,244.099,6.430,1696.574523
7 Jan 2020 05:24:18.000,244.150,6.517,1689.830820
7 Jan 2020 05:24:19.000,244.202,6.605,1683.089417
7 Jan 2020 05:24:20.000,244.253,6.693,1676.350358
7 Jan 2020 05:24:21.000,244.306,6.781,1669.613674
7 Jan 2020 05:24:22.000,244.359,6.870,1662.879404
7 Jan 2020 05:24:23.000,244.412,6.959,1656.147580
7 Jan 2020 05:24:24.000,244.465,7.049,1649.418248
7 Jan 2020 05:24:25.000,244.519,7.139,1642.691441
7 Jan 2020 05:24:26.000,244.574,7.230,1635.967200
7 Jan 2020 05:24:27.000,244.629,7.321,1629.245560
7 Jan 2020 05:24:28.000,244.684,7.413,1622.526569
7 Jan 2020 05:24:29.000,244.740,7.505,1615.810263
7 Jan 2020 05:24:30.000,244.797,7.598,1609.096685
7 Jan 2020 05:24:31.000,244.853,7.691,1602.385875
7 Jan 2020 05:24:32.000,244.911,7.785,1595.677874
7 Jan 2020 05:24:33.000,244.969,7.879,1588.972732
7 Jan 2020 05:24:34.000,245.027,7.974,1582.270490
7 Jan 2020 05:24:35.000,245.086,8.069,1575.571191
7 Jan 2020 05:24:36.000,245.145,8.165,1568.874879
7 Jan 2020 05:24:37.000,245.205,8.261,1562.181605
7 Jan 2020 05:24:38.000,245.265,8.358,1555.491415
7 Jan 2020 05:24:39.000,245.326,8.456,1548.804355
7 Jan 2020 05:24:40.000,245.388,8.554,1542.120471
7 Jan 2020 05:24:41.000,245.449,8.652,1535.439818
7 Jan 2020 05:24:42.000,245.512,8.752,1528.762444
7 Jan 2020 05:24:43.000,245.575,8.851,1522.088398
7 Jan 2020 05:24:44.000,245.639,8.952,1515.417731
7 Jan 2020 05:24:45.000,245.703,9.053,1508.750499
7 Jan 2020 05:24:46.000,245.768,9.154,1502.086755
7 Jan 2020 05:24:47.000,245.833,9.256,1495.426552
7 Jan 2020 05:24:48.000,245.899,9.359,1488.769945
7 Jan 2020 05:24:49.000,245.966,9.462,1482.116988
7 Jan 2020 05:24:50.000,246.033,9.566,1475.467743
7 Jan 2020 05:24:51.000,246.101,9.671,1468.822266
7 Jan 2020 05:24:52.000,246.170,9.776,1462.180616
7 Jan 2020 05:24:53.000,246.239,9.882,1455.542853
7 Jan 2020 05:24:54.000,246.309,9.989,1448.909035
7 Jan 2020 05:24:55.000,246.379,10.096,1442.279229
7 Jan 2020 05:24:56.000,246.450,10.204,1435.653498
7 Jan 2020 05:24:57.000,246.522,10.313,1429.031903
7 Jan 2020 05:24:58.000,246.595,10.422,1422.414509
7 Jan 2020 05:24:59.000,246.668,10.532,1415.801387
7 Jan 2020 05:25:00.000,246.742,10.643,1409.192603
7 Jan 2020 05:25:01.000,246.816,10.755,1402.588225
7 Jan 2020 05:25:02.000,246.892,10.867,1395.988323
7 Jan 2020 05:25:03.000,246.968,10.980,1389.392966
7 Jan 2020 05:25:04.000,247.045,11.094,1382.802233
7 Jan 2020 05:25:05.000,247.123,11.208,1376.216194
7 Jan 2020 05:25:06.000,247.201,11.323,1369.634925
7 Jan 2020 05:25:07.000,247.281,11.439,1363.058503
7 Jan 2020 05:25:08.000,247.361,11.556,1356.487002
7 Jan 2020 05:25:09.000,247.442,11.674,1349.920509
7 Jan 2020 05:25:10.000,247.523,11.792,1343.359100
7 Jan 2020 05:25:11.000,247.606,11.912,1336.802859
7 Jan 2020 05:25:12.000,247.689,12.032,1330.251870
7 Jan 2020 05:25:13.000,247.774,12.153,1323.706217
7 Jan 2020 05:25:14.000,247.859,12.275,1317.165985
7 Jan 2020 05:25:15.000,247.945,12.397,1310.631270
7 Jan 2020 05:25:16.000,248.032,12.521,1304.102157
7 Jan 2020 05:25:17.000,248.120,12.645,1297.578740
7 Jan 2020 05:25:18.000,248.209,12.771,1291.061112
7 Jan 2020 05:25:19.000,248.299,12.897,1284.549365
7 Jan 2020 05:25:20.000,248.390,13.024,1278.043604
7 Jan 2020 05:25:21.000,248.482,13.153,1271.543924
7 Jan 2020 05:25:22.000,248.575,13.282,1265.050428
7 Jan 2020 05:25:23.000,248.669,13.412,1258.563216
7 Jan 2020 05:25:24.000,248.764,13.543,1252.082397
7 Jan 2020 05:25:25.000,248.860,13.675,1245.608071
7 Jan 2020 05:25:26.000,248.957,13.808,1239.140357
7 Jan 2020 05:25:27.000,249.055,13.942,1232.679362
7 Jan 2020 05:25:28.000,249.155,14.077,1226.225199
7 Jan 2020 05:25:29.000,249.255,14.213,1219.777985
7 Jan 2020 05:25:30.000,249.357,14.351,1213.337838
7 Jan 2020 05:25:31.000,249.460,14.489,1206.904877
7 Jan 2020 05:25:32.000,249.564,14.628,1200.479223
7 Jan 2020 05:25:33.000,249.669,14.769,1194.061009
7 Jan 2020 05:25:34.000,249.776,14.910,1187.650357
7 Jan 2020 05:25:35.000,249.883,15.053,1181.247399
7 Jan 2020 05:25:36.000,249.993,15.197,1174.852269
7 Jan 2020 05:25:37.000,250.103,15.342,1168.465101
7 Jan 2020 05:25:38.000,250.215,15.488,1162.086034
7 Jan 2020 05:25:39.000,250.328,15.636,1155.715207
7 Jan 2020 05:25:40.000,250.442,15.785,1149.352771
7 Jan 2020 05:25:41.000,250.558,15.934,1142.998869
7 Jan 2020 05:25:42.000,250.676,16.086,1136.653652
7 Jan 2020 05:25:43.000,250.794,16.238,1130.317274
7 Jan 2020 05:25:44.000,250.915,16.392,1123.989891
7 Jan 2020 05:25:45.000,251.037,16.547,1117.671663
7 Jan 2020 05:25:46.000,251.160,16.703,1111.362754
7 Jan 2020 05:25:47.000,251.285,16.861,1105.063330
7 Jan 2020 05:25:48.000,251.412,17.020,1098.773559
7 Jan 2020 05:25:49.000,251.540,17.180,1092.493621
7 Jan 2020 05:25:50.000,251.670,17.342,1086.223690
7 Jan 2020 05:25:51.000,251.801,17.505,1079.963948
7 Jan 2020 05:25:52.000,251.935,17.670,1073.714580
7 Jan 2020 05:25:53.000,252.070,17.836,1067.475776
7 Jan 2020 05:25:54.000,252.207,18.004,1061.247728
7 Jan 2020 05:25:55.000,252.346,18.173,1055.030635
7 Jan 2020 05:25:56.000,252.486,18.343,1048.824698
7 Jan 2020 05:25:57.000,252.629,18.516,1042.630124
7 Jan 2020 05:25:58.000,252.774,18.689,1036.447124
7 Jan 2020 05:25:59.000,252.920,18.865,1030.275912
7 Jan 2020 05:26:00.000,253.069,19.041,1024.116710
7 Jan 2020 05:26:01.000,253.219,19.220,1017.969738
7 Jan 2020 05:26:02.000,253.372,19.400,1011.835233
7 Jan 2020 05:26:03.000,253.527,19.582,1005.713427
7 Jan 2020 05:26:04.000,253.684,19.765,999.604561
7 Jan 2020 05:26:05.000,253.844,19.950,993.508879
7 Jan 2020 05:26:06.000,254.006,20.137,987.426634
7 Jan 2020 05:26:07.000,254.170,20.326,981.358081
7 Jan 2020 05:26:08.000,254.336,20.517,975.303483
7 Jan 2020 05:26:09.000,254.505,20.709,969.263109
7 Jan 2020 05:26:10.000,254.677,20.903,963.237233
7 Jan 2020 05:26:11.000,254.851,21.099,957.226135
7 Jan 2020 05:26:12.000,255.028,21.297,951.230103
7 Jan 2020 05:26:13.000,255.207,21.496,945.249430
7 Jan 2020 05:26:14.000,255.389,21.698,939.284416
7 Jan 2020 05:26:15.000,255.574,21.902,933.335369
7 Jan 2020 05:26:16.000,255.762,22.107,927.402601
7 Jan 2020 05:26:17.000,255.953,22.315,921.486435
7 Jan 2020 05:26:18.000,256.147,22.524,915.587199
7 Jan 2020 05:26:19.000,256.344,22.736,909.705228
7 Jan 2020 05:26:20.000,256.544,22.950,903.840867
7 Jan 2020 05:26:21.000,256.747,23.165,897.994468
7 Jan 2020 05:26:22.000,256.953,23.383,892.166389
7 Jan 2020 05:26:23.000,257.163,23.603,886.357002
7 Jan 2020 05:26:24.000,257.376,23.826,880.566677
7 Jan 2020 05:26:25.000,257.593,24.050,874.795802
7 Jan 2020 05:26:26.000,257.814,24.277,869.044771
7 Jan 2020 05:26:27.000,258.038,24.506,863.313988
7 Jan 2020 05:26:28.000,258.266,24.737,857.603865
7 Jan 2020 05:26:29.000,258.497,24.970,851.914822
7 Jan 2020 05:26:30.000,258.733,25.206,846.247293
7 Jan 2020 05:26:31.000,258.973,25.444,840.601719
7 Jan 2020 05:26:32.000,259.217,25.685,834.978550
7 Jan 2020 05:26:33.000,259.465,25.927,829.378250
7 Jan 2020 05:26:34.000,259.718,26.173,823.801293
7 Jan 2020 05:26:35.000,259.975,26.420,818.248158
7 Jan 2020 05:26:36.000,260.236,26.670,812.719341
7 Jan 2020 05:26:37.000,260.503,26.923,807.215349
7 Jan 2020 05:26:38.000,260.774,27.178,801.736700
7 Jan 2020 05:26:39.000,261.050,27.435,796.283921
7 Jan 2020 05:26:40.000,261.331,27.695,790.857558
7 Jan 2020 05:26:41.000,261.618,27.958,785.458158
7 Jan 2020 05:26:42.000,261.909,28.223,780.086290
7 Jan 2020 05:26:43.000,262.206,28.491,774.742532
7 Jan 2020 05:26:44.000,262.509,28.761,769.427477
7 Jan 2020 05:26:45.000,262.818,29.034,764.141731
7 Jan 2020 05:26:46.000,263.132,29.309,758.885908
7 Jan 2020 05:26:47.000,263.453,29.587,753.660641
7 Jan 2020 05:26:48.000,263.779,29.868,748.466577
7 Jan 2020 05:26:49.000,264.112,30.151,743.304380
7 Jan 2020 05:26:50.000,264.452,30.437,738.174715
7 Jan 2020 05:26:51.000,264.798,30.725,733.078276
7 Jan 2020 05:26:52.000,265.152,31.016,728.015770
7 Jan 2020 05:26:53.000,265.512,31.309,722.987907
7 Jan 2020 05:26:54.000,265.879,31.605,717.995424
7 Jan 2020 05:26:55.000,266.255,31.904,713.039074
7 Jan 2020 05:26:56.000,266.637,32.205,708.119614
7 Jan 2020 05:26:57.000,267.028,32.509,703.237827
7 Jan 2020 05:26:58.000,267.427,32.815,698.394511
7 Jan 2020 05:26:59.000,267.833,33.123,693.590472
7 Jan 2020 05:27:00.000,268.249,33.434,688.826538
7 Jan 2020 05:27:01.000,268.673,33.748,684.103558
7 Jan 2020 05:27:02.000,269.106,34.064,679.422382
7 Jan 2020 05:27:03.000,269.549,34.382,674.783894
7 Jan 2020 05:27:04.000,270.001,34.702,670.188977
7 Jan 2020 05:27:05.000,270.462,35.024,665.638546
7 Jan 2020 05:27:06.000,270.934,35.349,661.133518
7 Jan 2020 05:27:07.000,271.416,35.675,656.674837
7 Jan 2020 05:27:08.000,271.908,36.004,652.263454
7 Jan 2020 05:27:09.000,272.412,36.334,647.900346
7 Jan 2020 05:27:10.000,272.926,36.666,643.586491
7 Jan 2020 05:27:11.000,273.452,37.000,639.322900
7 Jan 2020 05:27:12.000,273.989,37.336,635.110581
7 Jan 2020 05:27:13.000,274.538,37.672,630.950573
7 Jan 2020 05:27:14.000,275.100,38.010,626.843918
7 Jan 2020 05:27:15.000,275.674,38.350,622.791673
7 Jan 2020 05:27:16.000,276.261,38.690,618.794917
7 Jan 2020 05:27:17.000,276.861,39.031,614.854735
7 Jan 2020 05:27:18.000,277.475,39.373,610.972220
7 Jan 2020 05:27:19.000,278.103,39.715,607.148491
7 Jan 2020 05:27:20.000,278.744,40.058,603.384664
7 Jan 2020 05:27:21.000,279.401,40.401,599.681873
7 Jan 2020 05:27:22.000,280.072,40.743,596.041255
7 Jan 2020 05:27:23.000,280.758,41.085,592.463967
7 Jan 2020 05:27:24.000,281.460,41.427,588.951162
7 Jan 2020 05:27:25.000,282.177,41.768,585.504006
7 Jan 2020 05:27:26.000,282.911,42.108,582.123668
7 Jan 2020 05:27:27.000,283.661,42.446,578.811322
7 Jan 2020 05:27:28.000,284.428,42.783,575.568143
7 Jan 2020 05:27:29.000,285.212,43.117,572.395315
7 Jan 2020 05:27:30.000,286.013,43.449,569.294015
7 Jan 2020 05:27:31.000,286.831,43.779,566.265422
7 Jan 2020 05:27:32.000,287.667,44.106,563.310710
7 Jan 2020 05:27:33.000,288.522,44.429,560.431051
7 Jan 2020 05:27:34.000,289.394,44.748,557.627612
7 Jan 2020 05:27:35.000,290.285,45.064,554.901550
7 Jan 2020 05:27:36.000,291.194,45.375,552.254015
7 Jan 2020 05:27:37.000,292.122,45.680,549.686141
7 Jan 2020 05:27:38.000,293.069,45.981,547.199053
7 Jan 2020 05:27:39.000,294.034,46.276,544.793861
7 Jan 2020 05:27:40.000,295.019,46.564,542.471655
7 Jan 2020 05:27:41.000,296.022,46.846,540.233509
7 Jan 2020 05:27:42.000,297.043,47.120,538.080476
7 Jan 2020 05:27:43.000,298.084,47.387,536.013578
7 Jan 2020 05:27:44.000,299.142,47.646,534.033820
7 Jan 2020 05:27:45.000,300.219,47.896,532.142178
7 Jan 2020 05:27:46.000,301.313,48.138,530.339593
7 Jan 2020 05:27:47.000,302.425,48.369,528.626979
7 Jan 2020 05:27:48.000,303.554,48.591,527.005217
7 Jan 2020 05:27:49.000,304.699,48.803,525.475145
7 Jan 2020 05:27:50.000,305.861,49.003,524.037572
7 Jan 2020 05:27:51.000,307.037,49.193,522.693258
7 Jan 2020 05:27:52.000,308.229,49.370,521.442930
7 Jan 2020 05:27:53.000,309.434,49.536,520.287262
7 Jan 2020 05:27:54.000,310.652,49.689,519.226888
7 Jan 2020 05:27:55.000,311.883,49.830,518.262395
7 Jan 2020 05:27:56.000,313.124,49.957,517.394320
7 Jan 2020 05:27:57.000,314.376,50.070,516.623145
7 Jan 2020 05:27:58.000,315.637,50.170,515.949311
7 Jan 2020 05:27:59.000,316.905,50.257,515.373197
7 Jan 2020 05:28:00.000,318.181,50.328,514.895130
7 Jan 2020 05:28:01.000,319.462,50.386,514.515385
7 Jan 2020 05:28:02.000,320.748,50.429,514.234178
7 Jan 2020 05:28:03.000,322.036,50.457,514.051673
7 Jan 2020 05:28:04.000,323.327,50.471,513.967973
7 Jan 2020 05:28:05.000,324.617,50.469,513.983126
7 Jan 2020 05:28:06.000,325.908,50.454,514.097123
7 Jan 2020 05:28:07.000,327.196,50.423,514.309897
7 Jan 2020 05:28:08.000,328.480,50.378,514.621324
7 Jan 2020 05:28:09.000,329.760,50.318,515.031227
7 Jan 2020 05:28:10.000,331.035,50.244,515.539366
7 Jan 2020 05:28:11.000,332.302,50.156,516.145452
7 Jan 2020 05:28:12.000,333.561,50.053,516.849139
7 Jan 2020 05:28:13.000,334.810,49.938,517.650026
7 Jan 2020 05:28:14.000,336.049,49.808,518.547664
7 Jan 2020 05:28:15.000,337.277,49.666,519.541547
7 Jan 2020 05:28:16.000,338.493,49.511,520.631123
7 Jan 2020 05:28:17.000,339.695,49.344,521.815792
7 Jan 2020 05:28:18.000,340.883,49.164,523.094904
7 Jan 2020 05:28:19.000,342.057,48.973,524.467767
7 Jan 2020 05:28:20.000,343.215,48.771,525.933643
7 Jan 2020 05:28:21.000,344.356,48.558,527.491757
7 Jan 2020 05:28:22.000,345.482,48.335,529.141289
7 Jan 2020 05:28:23.000,346.590,48.102,530.881386
7 Jan 2020 05:28:24.000,347.681,47.860,532.711157
7 Jan 2020 05:28:25.000,348.753,47.609,534.629680
7 Jan 2020 05:28:26.000,349.808,47.349,536.635998
7 Jan 2020 05:28:27.000,350.844,47.081,538.729129
7 Jan 2020 05:28:28.000,351.862,46.806,540.908061
7 Jan 2020 05:28:29.000,352.861,46.524,543.171759
7 Jan 2020 05:28:30.000,353.841,46.235,545.519163
7 Jan 2020 05:28:31.000,354.803,45.940,547.949196
7 Jan 2020 05:28:32.000,355.745,45.639,550.460760
7 Jan 2020 05:28:33.000,356.669,45.333,553.052739
7 Jan 2020 05:28:34.000,357.575,45.022,555.724005
7 Jan 2020 05:28:35.000,358.462,44.706,558.473417
7 Jan 2020 05:28:36.000,359.330,44.387,561.299823
7 Jan 2020 05:28:37.000,0.181,44.064,564.202061
7 Jan 2020 05:28:38.000,1.013,43.737,567.178964
7 Jan 2020 05:28:39.000,1.828,43.408,570.229357
7 Jan 2020 05:28:40.000,2.625,43.076,573.352065
7 Jan 2020 05:28:41.000,3.405,42.742,576.545907
7 Jan 2020 05:28:42.000,4.169,42.406,579.809703
7 Jan 2020 05:28:43.000,4.915,42.068,583.142276
7 Jan 2020 05:28:44.000,5.645,41.729,586.542447
7 Jan 2020 05:28:45.000,6.360,41.389,590.009045
7 Jan 2020 05:28:46.000,7.058,41.048,593.540899
7 Jan 2020 05:28:47.000,7.741,40.706,597.136848
7 Jan 2020 05:28:48.000,8.409,40.365,600.795736
7 Jan 2020 05:28:49.000,9.062,40.023,604.516415
7 Jan 2020 05:28:50.000,9.701,39.681,608.297747
7 Jan 2020 05:28:51.000,10.326,39.340,612.138602
7 Jan 2020 05:28:52.000,10.937,38.999,616.037862
7 Jan 2020 05:28:53.000,11.534,38.659,619.994420
7 Jan 2020 05:28:54.000,12.119,38.319,624.007182
7 Jan 2020 05:28:55.000,12.690,37.981,628.075063
7 Jan 2020 05:28:56.000,13.249,37.644,632.196996
7 Jan 2020 05:28:57.000,13.796,37.308,636.371924
7 Jan 2020 05:28:58.000,14.331,36.974,640.598806
7 Jan 2020 05:28:59.000,14.854,36.642,644.876615
7 Jan 2020 05:29:00.000,15.366,36.311,649.204338
7 Jan 2020 05:29:01.000,15.867,35.981,653.580979
7 Jan 2020 05:29:02.000,16.357,35.654,658.005555
7 Jan 2020 05:29:03.000,16.837,35.329,662.477101
7 Jan 2020 05:29:04.000,17.307,35.005,666.994665
7 Jan 2020 05:29:05.000,17.767,34.684,671.557315
7 Jan 2020 05:29:06.000,18.217,34.365,676.164129
7 Jan 2020 05:29:07.000,18.657,34.048,680.814208
7 Jan 2020 05:29:08.000,19.089,33.734,685.506664
7 Jan 2020 05:29:09.000,19.511,33.421,690.240627
7 Jan 2020 05:29:10.000,19.925,33.112,695.015242
7 Jan 2020 05:29:11.000,20.330,32.804,699.829672
7 Jan 2020 05:29:12.000,20.727,32.499,704.683094
7 Jan 2020 05:29:13.000,21.116,32.197,709.574702
7 Jan 2020 05:29:14.000,21.498,31.897,714.503707
7 Jan 2020 05:29:15.000,21.871,31.599,719.469331
7 Jan 2020 05:29:16.000,22.237,31.304,724.470816
7 Jan 2020 05:29:17.000,22.596,31.012,729.507421
7 Jan 2020 05:29:18.000,22.948,30.722,734.578412
7 Jan 2020 05:29:19.000,23.293,30.435,739.683079
7 Jan 2020 05:29:20.000,23.632,30.151,744.820723
7 Jan 2020 05:29:21.000,23.964,29.869,749.990659
7 Jan 2020 05:29:22.000,24.289,29.589,755.192216
7 Jan 2020 05:29:23.000,24.609,29.312,760.424740
7 Jan 2020 05:29:24.000,24.922,29.038,765.687591
7 Jan 2020 05:29:25.000,25.229,28.766,770.980139
7 Jan 2020 05:29:26.000,25.531,28.497,776.301770
7 Jan 2020 05:29:27.000,25.827,28.231,781.651884
7 Jan 2020 05:29:28.000,26.118,27.967,787.029894
7 Jan 2020 05:29:29.000,26.404,27.705,792.435226
7 Jan 2020 05:29:30.000,26.684,27.446,797.867315
7 Jan 2020 05:29:31.000,26.959,27.190,803.325613
7 Jan 2020 05:29:32.000,27.230,26.936,808.809583
7 Jan 2020 05:29:33.000,27.495,26.684,814.318699
7 Jan 2020 05:29:34.000,27.756,26.435,819.852449
7 Jan 2020 05:29:35.000,28.012,26.188,825.410327
7 Jan 2020 05:29:36.000,28.264,25.944,830.991844
7 Jan 2020 05:29:37.000,28.512,25.702,836.596520
7 Jan 2020 05:29:38.000,28.755,25.463,842.223885
7 Jan 2020 05:29:39.000,28.994,25.226,847.873481
7 Jan 2020 05:29:40.000,29.229,24.991,853.544860
7 Jan 2020 05:29:41.000,29.461,24.758,859.237582
7 Jan 2020 05:29:42.000,29.688,24.528,864.951221
7 Jan 2020 05:29:43.000,29.911,24.300,870.685355
7 Jan 2020 05:29:44.000,30.131,24.074,876.439576
7 Jan 2020 05:29:45.000,30.348,23.851,882.213484
7 Jan 2020 05:29:46.000,30.561,23.629,888.006687
7 Jan 2020 05:29:47.000,30.770,23.410,893.818804
7 Jan 2020 05:29:48.000,30.976,23.193,899.649460
7 Jan 2020 05:29:49.000,31.179,22.978,905.498291
7 Jan 2020 05:29:50.000,31.378,22.765,911.364939
7 Jan 2020 05:29:51.000,31.575,22.555,917.249055
7 Jan 2020 05:29:52.000,31.768,22.346,923.150297
7 Jan 2020 05:29:53.000,31.959,22.139,929.068332
7 Jan 2020 05:29:54.000,32.146,21.934,935.002834
7 Jan 2020 05:29:55.000,32.331,21.731,940.953484
7 Jan 2020 05:29:56.000,32.513,21.530,946.919970
7 Jan 2020 05:29:57.000,32.692,21.331,952.901988
7 Jan 2020 05:29:58.000,32.869,21.134,958.899238
7 Jan 2020 05:29:59.000,33.042,20.939,964.911431
7 Jan 2020 05:30:00.000,33.214,20.746,970.938280
7 Jan 2020 05:30:01.000,33.383,20.554,976.979507
7 Jan 2020 05:30:02.000,33.549,20.364,983.034841
7 Jan 2020 05:30:03.000,33.713,20.176,989.104013
7 Jan 2020 05:30:04.000,33.874,19.990,995.186763
7 Jan 2020 05:30:05.000,34.034,19.806,1001.282838
7 Jan 2020 05:30:06.000,34.191,19.623,1007.391986
7 Jan 2020 05:30:07.000,34.346,19.442,1013.513965
7 Jan 2020 05:30:08.000,34.498,19.262,1019.648535
7 Jan 2020 05:30:09.000,34.649,19.084,1025.795463
7 Jan 2020 05:30:10.000,34.798,18.908,1031.954521
7 Jan 2020 05:30:11.000,34.944,18.733,1038.125486
7 Jan 2020 05:30:12.000,35.089,18.560,1044.308138
7 Jan 2020 05:30:13.000,35.231,18.389,1050.502264
7 Jan 2020 05:30:14.000,35.372,18.219,1056.707654
7 Jan 2020 05:30:15.000,35.511,18.050,1062.924104
7 Jan 2020 05:30:16.000,35.647,17.883,1069.151413
7 Jan 2020 05:30:17.000,35.783,17.718,1075.389382
7 Jan 2020 05:30:18.000,35.916,17.554,1081.637824
7 Jan 2020 05:30:19.000,36.048,17.391,1087.896549
7 Jan 2020 05:30:20.000,36.178,17.230,1094.165371
7 Jan 2020 05:30:21.000,36.306,17.070,1100.444112
7 Jan 2020 05:30:22.000,36.432,16.911,1106.732595
7 Jan 2020 05:30:23.000,36.558,16.754,1113.030647
7 Jan 2020 05:30:24.000,36.681,16.598,1119.338098
7 Jan 2020 05:30:25.000,36.803,16.444,1125.654783
7 Jan 2020 05:30:26.000,36.923,16.291,1131.980540
7 Jan 2020 05:30:27.000,37.042,16.139,1138.315207
7 Jan 2020 05:30:28.000,37.160,15.988,1144.658633
7 Jan 2020 05:30:29.000,37.276,15.839,1151.010664
7 Jan 2020 05:30:30.000,37.390,15.690,1157.371150
7 Jan 2020 05:30:31.000,37.504,15.543,1163.739944
7 Jan 2020 05:30:32.000,37.616,15.398,1170.116903
7 Jan 2020 05:30:33.000,37.726,15.253,1176.501887
7 Jan 2020 05:30:34.000,37.835,15.109,1182.894759
7 Jan 2020 05:30:35.000,37.943,14.967,1189.295379
7 Jan 2020 05:30:36.000,38.050,14.826,1195.703622
7 Jan 2020 05:30:37.000,38.155,14.686,1202.119354
7 Jan 2020 05:30:38.000,38.260,14.547,1208.542450
7 Jan 2020 05:30:39.000,38.363,14.409,1214.972783
7 Jan 2020 05:30:40.000,38.465,14.272,1221.410233
7 Jan 2020 05:30:41.000,38.565,14.136,1227.854679
7 Jan 2020 05:30:42.000,38.665,14.002,1234.306002
7 Jan 2020 05:30:43.000,38.763,13.868,1240.764091
7 Jan 2020 05:30:44.000,38.861,13.735,1247.228830
7 Jan 2020 05:30:45.000,38.957,13.604,1253.700110
7 Jan 2020 05:30:46.000,39.052,13.473,1260.177821
7 Jan 2020 05:30:47.000,39.147,13.343,1266.661858
7 Jan 2020 05:30:48.000,39.240,13.215,1273.152114
7 Jan 2020 05:30:49.000,39.332,13.087,1279.648486
7 Jan 2020 05:30:50.000,39.423,12.960,1286.150878
7 Jan 2020 05:30:51.000,39.513,12.834,1292.659188
7 Jan 2020 05:30:52.000,39.602,12.709,1299.173320
7 Jan 2020 05:30:53.000,39.691,12.585,1305.693179
7 Jan 2020 05:30:54.000,39.778,12.462,1312.218671
7 Jan 2020 05:30:55.000,39.865,12.339,1318.749703
7 Jan 2020 05:30:56.000,39.950,12.218,1325.286189
7 Jan 2020 05:30:57.000,40.035,12.097,1331.828039
7 Jan 2020 05:30:58.000,40.119,11.977,1338.375166
7 Jan 2020 05:30:59.000,40.202,11.858,1344.927485
7 Jan 2020 05:31:00.000,40.284,11.740,1351.484910
7 Jan 2020 05:31:01.000,40.365,11.623,1358.047365
7 Jan 2020 05:31:02.000,40.445,11.506,1364.614766
7 Jan 2020 05:31:03.000,40.525,11.391,1371.187034
7 Jan 2020 05:31:04.000,40.604,11.276,1377.764092
7 Jan 2020 05:31:05.000,40.682,11.161,1384.345861
7 Jan 2020 05:31:06.000,40.759,11.048,1390.932271
7 Jan 2020 05:31:07.000,40.836,10.935,1397.523246
7 Jan 2020 05:31:08.000,40.912,10.823,1404.118713
7 Jan 2020 05:31:09.000,40.987,10.712,1410.718603
7 Jan 2020 05:31:10.000,41.061,10.602,1417.322841
7 Jan 2020 05:31:11.000,41.135,10.492,1423.931366
7 Jan 2020 05:31:12.000,41.208,10.383,1430.544107
7 Jan 2020 05:31:13.000,41.280,10.274,1437.160997
7 Jan 2020 05:31:14.000,41.351,10.167,1443.781972
7 Jan 2020 05:31:15.000,41.422,10.060,1450.406966
7 Jan 2020 05:31:16.000,41.492,9.953,1457.035920
7 Jan 2020 05:31:17.000,41.562,9.848,1463.668770
7 Jan 2020 05:31:18.000,41.631,9.743,1470.305456
7 Jan 2020 05:31:19.000,41.699,9.638,1476.945917
7 Jan 2020 05:31:20.000,41.767,9.535,1483.590093
7 Jan 2020 05:31:21.000,41.834,9.431,1490.237930
7 Jan 2020 05:31:22.000,41.901,9.329,1496.889370
7 Jan 2020 05:31:23.000,41.966,9.227,1503.544356
7 Jan 2020 05:31:24.000,42.032,9.126,1510.202832
7 Jan 2020 05:31:25.000,42.096,9.025,1516.864748
7 Jan 2020 05:31:26.000,42.161,8.925,1523.530048
7 Jan 2020 05:31:27.000,42.224,8.826,1530.198680
7 Jan 2020 05:31:28.000,42.287,8.727,1536.870594
7 Jan 2020 05:31:29.000,42.350,8.628,1543.545735
7 Jan 2020 05:31:30.000,42.411,8.530,1550.224058
7 Jan 2020 05:31:31.000,42.473,8.433,1556.905514
7 Jan 2020 05:31:32.000,42.534,8.337,1563.590052
7 Jan 2020 05:31:33.000,42.594,8.240,1570.277624
7 Jan 2020 05:31:34.000,42.654,8.145,1576.968187
7 Jan 2020 05:31:35.000,42.713,8.050,1583.661693
7 Jan 2020 05:31:36.000,42.772,7.955,1590.358098
7 Jan 2020 05:31:37.000,42.830,7.861,1597.057355
7 Jan 2020 05:31:38.000,42.888,7.768,1603.759420
7 Jan 2020 05:31:39.000,42.945,7.675,1610.464253
7 Jan 2020 05:31:40.000,43.002,7.582,1617.171810
7 Jan 2020 05:31:41.000,43.059,7.490,1623.882050
7 Jan 2020 05:31:42.000,43.115,7.399,1630.594927
7 Jan 2020 05:31:43.000,43.170,7.308,1637.310408
7 Jan 2020 05:31:44.000,43.225,7.217,1644.028449
7 Jan 2020 05:31:45.000,43.280,7.127,1650.749010
7 Jan 2020 05:31:46.000,43.334,7.038,1657.472052
7 Jan 2020 05:31:47.000,43.388,6.948,1664.197539
7 Jan 2020 05:31:48.000,43.441,6.860,1670.925433
7 Jan 2020 05:31:49.000,43.494,6.772,1677.655697
7 Jan 2020 05:31:50.000,43.547,6.684,1684.388291
7 Jan 2020 05:31:51.000,43.599,6.596,1691.123184
7 Jan 2020 05:31:52.000,43.650,6.510,1697.860338
7 Jan 2020 05:31:53.000,43.702,6.423,1704.599720
7 Jan 2020 05:31:54.000,43.752,6.337,1711.341290
7 Jan 2020 05:31:55.000,43.803,6.251,1718.085021
7 Jan 2020 05:31:56.000,43.853,6.166,1724.830877
7 Jan 2020 05:31:57.000,43.903,6.081,1731.578825
7 Jan 2020 05:31:58.000,43.952,5.997,1738.328829
7 Jan 2020 05:31:59.000,44.001,5.913,1745.080864
7 Jan 2020 05:32:00.000,44.050,5.830,1751.834894
7 Jan 2020 05:32:01.000,44.098,5.746,1758.590888
7 Jan 2020 05:32:02.000,44.146,5.664,1765.348814
7 Jan 2020 05:32:03.000,44.193,5.581,1772.108646
7 Jan 2020 05:32:04.000,44.241,5.499,1778.870352
7 Jan 2020 05:32:05.000,44.287,5.418,1785.633902
7 Jan 2020 05:32:06.000,44.334,5.336,1792.399265
7 Jan 2020 05:32:07.000,44.380,5.255,1799.166418
7 Jan 2020 05:32:08.000,44.426,5.175,1805.935329
7 Jan 2020 05:32:09.000,44.471,5.095,1812.705970
7 Jan 2020 05:32:10.000,44.517,5.015,1819.478313
7 Jan 2020 05:32:11.000,44.561,4.935,1826.252334
7 Jan 2020 05:32:12.000,44.606,4.856,1833.028004
7 Jan 2020 05:32:13.000,44.650,4.778,1839.805298
7 Jan 2020 05:32:14.000,44.694,4.699,1846.584186
7 Jan 2020 05:32:15.000,44.738,4.621,1853.364648
7 Jan 2020 05:32:16.000,44.781,4.543,1860.146656
7 Jan 2020 05:32:17.000,44.824,4.466,1866.930185
7 Jan 2020 05:32:18.000,44.867,4.389,1873.715208
7 Jan 2020 05:32:19.000,44.909,4.312,1880.501706
7 Jan 2020 05:32:20.000,44.951,4.236,1887.289651
7 Jan 2020 05:32:21.000,44.993,4.160,1894.079019
7 Jan 2020 05:32:22.000,45.035,4.084,1900.869789
7 Jan 2020 05:32:23.000,45.076,4.009,1907.661938
7 Jan 2020 05:32:24.000,45.117,3.933,1914.455441
7 Jan 2020 05:32:25.000,45.158,3.859,1921.250275
7 Jan 2020 05:32:26.000,45.198,3.784,1928.046421
7 Jan 2020 05:32:27.000,45.238,3.710,1934.843855
7 Jan 2020 05:32:28.000,45.278,3.636,1941.642556
7 Jan 2020 05:32:29.000,45.318,3.562,1948.442499
7 Jan 2020 05:32:30.000,45.357,3.489,1955.243669
7 Jan 2020 05:32:31.000,45.396,3.416,1962.046042
7 Jan 2020 05:32:32.000,45.435,3.343,1968.849598
7 Jan 2020 05:32:33.000,45.474,3.270,1975.654313
7 Jan 2020 05:32:34.000,45.512,3.198,1982.460172
7 Jan 2020 05:32:35.000,45.550,3.126,1989.267154
7 Jan 2020 05:32:36.000,45.588,3.055,1996.075235
7 Jan 2020 05:32:37.000,45.626,2.983,2002.884402
7 Jan 2020 05:32:38.000,45.664,2.912,2009.694633
7 Jan 2020 05:32:39.000,45.701,2.841,2016.505908
7 Jan 2020 05:32:40.000,45.738,2.771,2023.318207
7 Jan 2020 05:32:41.000,45.774,2.700,2030.131517
7 Jan 2020 05:32:42.000,45.811,2.630,2036.945816
7 Jan 2020 05:32:43.000,45.847,2.561,2043.761086
7 Jan 2020 05:32:44.000,45.883,2.491,2050.577307
7 Jan 2020 05:32:45.000,45.919,2.422,2057.394466
7 Jan 2020 05:32:46.000,45.955,2.353,2064.212544
7 Jan 2020 05:32:47.000,45.990,2.284,2071.031520
7 Jan 2020 05:32:48.000,46.025,2.215,2077.851383
7 Jan 2020 05:32:49.000,46.060,2.147,2084.672114
7 Jan 2020 05:32:50.000,46.095,2.079,2091.493694
7 Jan 2020 05:32:51.000,46.130,2.011,2098.316107
7 Jan 2020 05:32:52.000,46.164,1.943,2105.139340
7 Jan 2020 05:32:53.000,46.198,1.876,2111.963374
7 Jan 2020 05:32:54.000,46.232,1.809,2118.788195
7 Jan 2020 05:32:55.000,46.266,1.742,2125.613782
7 Jan 2020 05:32:56.000,46.299,1.675,2132.440127
7 Jan 2020 05:32:57.000,46.333,1.609,2139.267211
7 Jan 2020 05:32:58.000,46.366,1.543,2146.095017
7 Jan 2020 05:32:59.000,46.399,1.477,2152.923533
7 Jan 2020 05:33:00.000,46.432,1.411,2159.752744
7 Jan 2020 05:33:01.000,46.464,1.345,2166.582634
7 Jan 2020 05:33:02.000,46.497,1.280,2173.413186
7 Jan 2020 05:33:03.000,46.529,1.215,2180.244390
7 Jan 2020 05:33:04.000,46.561,1.150,2187.076231
7 Jan 2020 05:33:05.000,46.593,1.085,2193.908690
7 Jan 2020 05:33:06.000,46.625,1.020,2200.741760
7 Jan 2020 05:33:07.000,46.656,0.956,2207.575425
7 Jan 2020 05:33:08.000,46.688,0.892,2214.409669
7 Jan 2020 05:33:09.000,46.719,0.828,2221.244477
7 Jan 2020 05:33:10.000,46.750,0.764,2228.079842
7 Jan 2020 05:33:11.000,46.781,0.701,2234.915747
7 Jan 2020 05:33:12.000,46.811,0.638,2241.752178
7 Jan 2020 05:33:13.000,46.842,0.574,2248.589121
7 Jan 2020 05:33:14.000,46.872,0.511,2255.426568
7 Jan 2020 05:33:15.000,46.902,0.449,2262.264504
7 Jan 2020 05:33:16.000,46.932,0.386,2269.102912
7 Jan 2020 05:33:17.000,46.962,0.324,2275.941787
7 Jan 2020 05:33:18.000,46.992,0.262,2282.781112
7 Jan 2020 05:33:19.000,47.021,0.200,2289.620877
7 Jan 2020 05:33:20.000,47.051,0.138,2296.461065
7 Jan 2020 05:33:21.000,47.080,0.076,2303.301671
7 Jan 2020 05:33:22.000,47.109,0.015,2310.142680
7 Jan 2020 05:33:23.000,47.138,-0.047,2316.984077
7 Jan 2020 05:33:24.000,47.167,-0.108,2323.825856
7 Jan 2020 05:33:24.269,47.174,-0.124,2325.667560
7 Jan 2020 07:00:35.890,284.317,-0.124,2322.023392
7 Jan 2020 07:00:36.000,284.329,-0.118,2321.400235
7 Jan 2020 07:00:37.000,284.435,-0.068,2315.761837
7 Jan 2020 07:00:38.000,284.541,-0.017,2310.130084
7 Jan 2020 07:00:39.000,284.648,0.033,2304.505025
