vcc_sched/network/input/aer_uvags_wj2xmr_vcc-a_44428.csv

"Time (UTCG)","Azimuth (deg)","Elevation (deg)","Range (km)"
3 Feb 2020 16:56:37.872,192.892,-0.124,2318.143036
3 Feb 2020 16:56:38.000,192.882,-0.117,2317.354299
3 Feb 2020 16:56:39.000,192.798,-0.062,2311.202883
3 Feb 2020 16:56:40.000,192.713,-0.007,2305.056031
3 Feb 2020 16:56:41.000,192.628,0.049,2298.913786
3 Feb 2020 16:56:42.000,192.543,0.104,2292.776193
3 Feb 2020 16:56:43.000,192.457,0.160,2286.643298
3 Feb 2020 16:56:44.000,192.371,0.216,2280.515146
3 Feb 2020 16:56:45.000,192.284,0.272,2274.391783
3 Feb 2020 16:56:46.000,192.197,0.328,2268.273255
3 Feb 2020 16:56:47.000,192.109,0.384,2262.159610
3 Feb 2020 16:56:48.000,192.021,0.440,2256.050894
3 Feb 2020 16:56:49.000,191.932,0.497,2249.947156
3 Feb 2020 16:56:50.000,191.843,0.553,2243.848443
3 Feb 2020 16:56:51.000,191.753,0.610,2237.754805
3 Feb 2020 16:56:52.000,191.663,0.666,2231.666291
3 Feb 2020 16:56:53.000,191.573,0.723,2225.582951
3 Feb 2020 16:56:54.000,191.481,0.780,2219.504834
3 Feb 2020 16:56:55.000,191.390,0.837,2213.431991
3 Feb 2020 16:56:56.000,191.297,0.894,2207.364473
3 Feb 2020 16:56:57.000,191.205,0.952,2201.302333
3 Feb 2020 16:56:58.000,191.111,1.009,2195.245622
3 Feb 2020 16:56:59.000,191.018,1.067,2189.194392
3 Feb 2020 16:57:00.000,190.923,1.124,2183.148698
3 Feb 2020 16:57:01.000,190.829,1.182,2177.108592
3 Feb 2020 16:57:02.000,190.733,1.240,2171.074129
3 Feb 2020 16:57:03.000,190.637,1.298,2165.045364
3 Feb 2020 16:57:04.000,190.541,1.356,2159.022352
3 Feb 2020 16:57:05.000,190.444,1.414,2153.005149
3 Feb 2020 16:57:06.000,190.346,1.472,2146.993811
3 Feb 2020 16:57:07.000,190.248,1.531,2140.988395
3 Feb 2020 16:57:08.000,190.149,1.589,2134.988959
3 Feb 2020 16:57:09.000,190.050,1.648,2128.995561
3 Feb 2020 16:57:10.000,189.950,1.707,2123.008259
3 Feb 2020 16:57:11.000,189.850,1.766,2117.027112
3 Feb 2020 16:57:12.000,189.749,1.825,2111.052182
3 Feb 2020 16:57:13.000,189.647,1.884,2105.083527
3 Feb 2020 16:57:14.000,189.545,1.943,2099.121209
3 Feb 2020 16:57:15.000,189.442,2.003,2093.165290
3 Feb 2020 16:57:16.000,189.338,2.062,2087.215832
3 Feb 2020 16:57:17.000,189.234,2.122,2081.272898
3 Feb 2020 16:57:18.000,189.130,2.182,2075.336551
3 Feb 2020 16:57:19.000,189.025,2.242,2069.406855
3 Feb 2020 16:57:20.000,188.919,2.302,2063.483876
3 Feb 2020 16:57:21.000,188.812,2.362,2057.567679
3 Feb 2020 16:57:22.000,188.705,2.422,2051.658329
3 Feb 2020 16:57:23.000,188.597,2.483,2045.755894
3 Feb 2020 16:57:24.000,188.489,2.543,2039.860441
3 Feb 2020 16:57:25.000,188.380,2.604,2033.972039
3 Feb 2020 16:57:26.000,188.270,2.665,2028.090755
3 Feb 2020 16:57:27.000,188.160,2.726,2022.216661
3 Feb 2020 16:57:28.000,188.049,2.787,2016.349825
3 Feb 2020 16:57:29.000,187.937,2.848,2010.490319
3 Feb 2020 16:57:30.000,187.825,2.909,2004.638214
3 Feb 2020 16:57:31.000,187.712,2.971,1998.793582
3 Feb 2020 16:57:32.000,187.598,3.032,1992.956498
3 Feb 2020 16:57:33.000,187.483,3.094,1987.127035
3 Feb 2020 16:57:34.000,187.368,3.156,1981.305267
3 Feb 2020 16:57:35.000,187.252,3.218,1975.491270
3 Feb 2020 16:57:36.000,187.136,3.280,1969.685119
3 Feb 2020 16:57:37.000,187.019,3.342,1963.886893
3 Feb 2020 16:57:38.000,186.901,3.405,1958.096668
3 Feb 2020 16:57:39.000,186.782,3.467,1952.314523
3 Feb 2020 16:57:40.000,186.663,3.530,1946.540538
3 Feb 2020 16:57:41.000,186.542,3.593,1940.774792
3 Feb 2020 16:57:42.000,186.422,3.656,1935.017366
3 Feb 2020 16:57:43.000,186.300,3.719,1929.268343
3 Feb 2020 16:57:44.000,186.178,3.782,1923.527805
3 Feb 2020 16:57:45.000,186.054,3.845,1917.795834
3 Feb 2020 16:57:46.000,185.930,3.909,1912.072516
3 Feb 2020 16:57:47.000,185.806,3.972,1906.357936
3 Feb 2020 16:57:48.000,185.680,4.036,1900.652180
3 Feb 2020 16:57:49.000,185.554,4.100,1894.955334
3 Feb 2020 16:57:50.000,185.427,4.164,1889.267487
3 Feb 2020 16:57:51.000,185.299,4.228,1883.588727
3 Feb 2020 16:57:52.000,185.170,4.292,1877.919144
3 Feb 2020 16:57:53.000,185.041,4.356,1872.258828
3 Feb 2020 16:57:54.000,184.911,4.421,1866.607871
3 Feb 2020 16:57:55.000,184.780,4.486,1860.966365
3 Feb 2020 16:57:56.000,184.648,4.550,1855.334404
3 Feb 2020 16:57:57.000,184.515,4.615,1849.712081
3 Feb 2020 16:57:58.000,184.381,4.680,1844.099493
3 Feb 2020 16:57:59.000,184.247,4.746,1838.496735
3 Feb 2020 16:58:00.000,184.111,4.811,1832.903905
3 Feb 2020 16:58:01.000,183.975,4.876,1827.321101
3 Feb 2020 16:58:02.000,183.838,4.942,1821.748423
3 Feb 2020 16:58:03.000,183.700,5.008,1816.185969
3 Feb 2020 16:58:04.000,183.561,5.073,1810.633843
3 Feb 2020 16:58:05.000,183.422,5.139,1805.092145
3 Feb 2020 16:58:06.000,183.281,5.206,1799.560980
3 Feb 2020 16:58:07.000,183.140,5.272,1794.040452
3 Feb 2020 16:58:08.000,182.997,5.338,1788.530667
3 Feb 2020 16:58:09.000,182.854,5.405,1783.031730
3 Feb 2020 16:58:10.000,182.710,5.471,1777.543750
3 Feb 2020 16:58:11.000,182.564,5.538,1772.066836
3 Feb 2020 16:58:12.000,182.418,5.605,1766.601097
3 Feb 2020 16:58:13.000,182.271,5.672,1761.146644
3 Feb 2020 16:58:14.000,182.123,5.739,1755.703590
3 Feb 2020 16:58:15.000,181.974,5.807,1750.272047
3 Feb 2020 16:58:16.000,181.824,5.874,1744.852131
3 Feb 2020 16:58:17.000,181.673,5.942,1739.443956
3 Feb 2020 16:58:18.000,181.521,6.010,1734.047640
3 Feb 2020 16:58:19.000,181.368,6.077,1728.663300
3 Feb 2020 16:58:20.000,181.214,6.145,1723.291056
3 Feb 2020 16:58:21.000,181.059,6.213,1717.931027
3 Feb 2020 16:58:22.000,180.903,6.282,1712.583336
3 Feb 2020 16:58:23.000,180.746,6.350,1707.248105
3 Feb 2020 16:58:24.000,180.588,6.418,1701.925458
3 Feb 2020 16:58:25.000,180.429,6.487,1696.615520
3 Feb 2020 16:58:26.000,180.269,6.556,1691.318418
3 Feb 2020 16:58:27.000,180.107,6.625,1686.034280
3 Feb 2020 16:58:28.000,179.945,6.694,1680.763234
3 Feb 2020 16:58:29.000,179.782,6.763,1675.505411
3 Feb 2020 16:58:30.000,179.617,6.832,1670.260942
3 Feb 2020 16:58:31.000,179.452,6.901,1665.029960
3 Feb 2020 16:58:32.000,179.285,6.971,1659.812601
3 Feb 2020 16:58:33.000,179.117,7.040,1654.608998
3 Feb 2020 16:58:34.000,178.948,7.110,1649.419289
3 Feb 2020 16:58:35.000,178.778,7.180,1644.243612
3 Feb 2020 16:58:36.000,178.607,7.249,1639.082106
3 Feb 2020 16:58:37.000,178.435,7.319,1633.934914
3 Feb 2020 16:58:38.000,178.261,7.390,1628.802176
3 Feb 2020 16:58:39.000,178.087,7.460,1623.684036
3 Feb 2020 16:58:40.000,177.911,7.530,1618.580640
3 Feb 2020 16:58:41.000,177.734,7.601,1613.492134
3 Feb 2020 16:58:42.000,177.556,7.671,1608.418666
3 Feb 2020 16:58:43.000,177.376,7.742,1603.360385
3 Feb 2020 16:58:44.000,177.196,7.812,1598.317441
3 Feb 2020 16:58:45.000,177.014,7.883,1593.289988
3 Feb 2020 16:58:46.000,176.831,7.954,1588.278177
3 Feb 2020 16:58:47.000,176.647,8.025,1583.282165
3 Feb 2020 16:58:48.000,176.461,8.096,1578.302108
3 Feb 2020 16:58:49.000,176.275,8.168,1573.338164
3 Feb 2020 16:58:50.000,176.087,8.239,1568.390491
3 Feb 2020 16:58:51.000,175.897,8.310,1563.459252
3 Feb 2020 16:58:52.000,175.707,8.382,1558.544608
3 Feb 2020 16:58:53.000,175.515,8.453,1553.646723
3 Feb 2020 16:58:54.000,175.322,8.525,1548.765762
3 Feb 2020 16:58:55.000,175.127,8.596,1543.901892
3 Feb 2020 16:58:56.000,174.932,8.668,1539.055282
3 Feb 2020 16:58:57.000,174.735,8.740,1534.226101
3 Feb 2020 16:58:58.000,174.536,8.812,1529.414521
3 Feb 2020 16:58:59.000,174.337,8.884,1524.620714
3 Feb 2020 16:59:00.000,174.135,8.956,1519.844855
3 Feb 2020 16:59:01.000,173.933,9.028,1515.087120
3 Feb 2020 16:59:02.000,173.729,9.100,1510.347686
3 Feb 2020 16:59:03.000,173.524,9.172,1505.626732
3 Feb 2020 16:59:04.000,173.318,9.244,1500.924439
3 Feb 2020 16:59:05.000,173.110,9.317,1496.240988
3 Feb 2020 16:59:06.000,172.900,9.389,1491.576563
3 Feb 2020 16:59:07.000,172.689,9.461,1486.931349
3 Feb 2020 16:59:08.000,172.477,9.534,1482.305534
3 Feb 2020 16:59:09.000,172.264,9.606,1477.699304
3 Feb 2020 16:59:10.000,172.049,9.679,1473.112850
3 Feb 2020 16:59:11.000,171.832,9.751,1468.546363
3 Feb 2020 16:59:12.000,171.614,9.824,1464.000036
3 Feb 2020 16:59:13.000,171.395,9.896,1459.474062
3 Feb 2020 16:59:14.000,171.174,9.969,1454.968639
3 Feb 2020 16:59:15.000,170.951,10.041,1450.483962
3 Feb 2020 16:59:16.000,170.728,10.114,1446.020233
3 Feb 2020 16:59:17.000,170.502,10.186,1441.577648
3 Feb 2020 16:59:18.000,170.275,10.259,1437.156413
3 Feb 2020 16:59:19.000,170.047,10.331,1432.756729
3 Feb 2020 16:59:20.000,169.817,10.403,1428.378802
3 Feb 2020 16:59:21.000,169.586,10.476,1424.022838
3 Feb 2020 16:59:22.000,169.353,10.548,1419.689045
3 Feb 2020 16:59:23.000,169.118,10.621,1415.377631
3 Feb 2020 16:59:24.000,168.882,10.693,1411.088809
3 Feb 2020 16:59:25.000,168.645,10.765,1406.822789
3 Feb 2020 16:59:26.000,168.405,10.838,1402.579787
3 Feb 2020 16:59:27.000,168.165,10.910,1398.360016
3 Feb 2020 16:59:28.000,167.922,10.982,1394.163693
3 Feb 2020 16:59:29.000,167.678,11.054,1389.991038
3 Feb 2020 16:59:30.000,167.433,11.126,1385.842266
3 Feb 2020 16:59:31.000,167.186,11.198,1381.717601
3 Feb 2020 16:59:32.000,166.937,11.269,1377.617265
3 Feb 2020 16:59:33.000,166.687,11.341,1373.541478
3 Feb 2020 16:59:34.000,166.435,11.413,1369.490469
3 Feb 2020 16:59:35.000,166.181,11.484,1365.464460
3 Feb 2020 16:59:36.000,165.926,11.556,1361.463680
3 Feb 2020 16:59:37.000,165.669,11.627,1357.488358
3 Feb 2020 16:59:38.000,165.410,11.698,1353.538721
3 Feb 2020 16:59:39.000,165.150,11.769,1349.615002
3 Feb 2020 16:59:40.000,164.888,11.840,1345.717432
3 Feb 2020 16:59:41.000,164.625,11.910,1341.846245
3 Feb 2020 16:59:42.000,164.359,11.981,1338.001674
3 Feb 2020 16:59:43.000,164.092,12.051,1334.183954
3 Feb 2020 16:59:44.000,163.824,12.121,1330.393322
3 Feb 2020 16:59:45.000,163.554,12.191,1326.630015
3 Feb 2020 16:59:46.000,163.282,12.261,1322.894270
3 Feb 2020 16:59:47.000,163.008,12.331,1319.186328
3 Feb 2020 16:59:48.000,162.733,12.400,1315.506429
3 Feb 2020 16:59:49.000,162.456,12.469,1311.854813
3 Feb 2020 16:59:50.000,162.177,12.538,1308.231721
3 Feb 2020 16:59:51.000,161.897,12.607,1304.637396
3 Feb 2020 16:59:52.000,161.615,12.675,1301.072082
3 Feb 2020 16:59:53.000,161.331,12.743,1297.536024
3 Feb 2020 16:59:54.000,161.045,12.811,1294.029463
3 Feb 2020 16:59:55.000,160.758,12.879,1290.552646
3 Feb 2020 16:59:56.000,160.469,12.946,1287.105820
3 Feb 2020 16:59:57.000,160.178,13.013,1283.689229
3 Feb 2020 16:59:58.000,159.886,13.080,1280.303121
3 Feb 2020 16:59:59.000,159.592,13.146,1276.947743
3 Feb 2020 17:00:00.000,159.296,13.212,1273.623343
3 Feb 2020 17:00:01.000,158.998,13.278,1270.330166
3 Feb 2020 17:00:02.000,158.699,13.343,1267.068463
3 Feb 2020 17:00:03.000,158.398,13.409,1263.838480
3 Feb 2020 17:00:04.000,158.096,13.473,1260.640466
3 Feb 2020 17:00:05.000,157.791,13.537,1257.474669
3 Feb 2020 17:00:06.000,157.485,13.601,1254.341338
3 Feb 2020 17:00:07.000,157.177,13.665,1251.240720
3 Feb 2020 17:00:08.000,156.868,13.728,1248.173064
3 Feb 2020 17:00:09.000,156.557,13.791,1245.138618
3 Feb 2020 17:00:10.000,156.244,13.853,1242.137628
3 Feb 2020 17:00:11.000,155.929,13.915,1239.170342
3 Feb 2020 17:00:12.000,155.613,13.976,1236.237008
3 Feb 2020 17:00:13.000,155.295,14.037,1233.337870
3 Feb 2020 17:00:14.000,154.976,14.097,1230.473175
3 Feb 2020 17:00:15.000,154.654,14.157,1227.643169
3 Feb 2020 17:00:16.000,154.331,14.216,1224.848094
3 Feb 2020 17:00:17.000,154.007,14.275,1222.088195
3 Feb 2020 17:00:18.000,153.681,14.334,1219.363715
3 Feb 2020 17:00:19.000,153.353,14.391,1216.674894
3 Feb 2020 17:00:20.000,153.023,14.449,1214.021975
3 Feb 2020 17:00:21.000,152.692,14.505,1211.405194
3 Feb 2020 17:00:22.000,152.360,14.561,1208.824793
3 Feb 2020 17:00:23.000,152.026,14.617,1206.281009
3 Feb 2020 17:00:24.000,151.690,14.672,1203.774076
3 Feb 2020 17:00:25.000,151.352,14.726,1201.304228
3 Feb 2020 17:00:26.000,151.013,14.780,1198.871699
3 Feb 2020 17:00:27.000,150.673,14.833,1196.476717
3 Feb 2020 17:00:28.000,150.331,14.885,1194.119516
3 Feb 2020 17:00:29.000,149.987,14.937,1191.800322
3 Feb 2020 17:00:30.000,149.642,14.988,1189.519359
3 Feb 2020 17:00:31.000,149.296,15.038,1187.276851
3 Feb 2020 17:00:32.000,148.948,15.088,1185.073019
3 Feb 2020 17:00:33.000,148.598,15.136,1182.908084
3 Feb 2020 17:00:34.000,148.247,15.185,1180.782263
3 Feb 2020 17:00:35.000,147.895,15.232,1178.695768
3 Feb 2020 17:00:36.000,147.541,15.279,1176.648815
3 Feb 2020 17:00:37.000,147.186,15.325,1174.641612
3 Feb 2020 17:00:38.000,146.830,15.370,1172.674366
3 Feb 2020 17:00:39.000,146.472,15.414,1170.747280
3 Feb 2020 17:00:40.000,146.113,15.458,1168.860558
3 Feb 2020 17:00:41.000,145.752,15.501,1167.014395
3 Feb 2020 17:00:42.000,145.391,15.542,1165.208991
3 Feb 2020 17:00:43.000,145.028,15.584,1163.444537
3 Feb 2020 17:00:44.000,144.663,15.624,1161.721219
3 Feb 2020 17:00:45.000,144.298,15.663,1160.039227
3 Feb 2020 17:00:46.000,143.931,15.702,1158.398740
3 Feb 2020 17:00:47.000,143.563,15.739,1156.799941
3 Feb 2020 17:00:48.000,143.194,15.776,1155.243001
3 Feb 2020 17:00:49.000,142.824,15.812,1153.728097
3 Feb 2020 17:00:50.000,142.453,15.847,1152.255393
3 Feb 2020 17:00:51.000,142.081,15.881,1150.825056
3 Feb 2020 17:00:52.000,141.708,15.914,1149.437243
3 Feb 2020 17:00:53.000,141.333,15.947,1148.092115
3 Feb 2020 17:00:54.000,140.958,15.978,1146.789820
3 Feb 2020 17:00:55.000,140.582,16.008,1145.530510
3 Feb 2020 17:00:56.000,140.204,16.037,1144.314325
3 Feb 2020 17:00:57.000,139.826,16.066,1143.141406
3 Feb 2020 17:00:58.000,139.447,16.093,1142.011892
3 Feb 2020 17:00:59.000,139.068,16.119,1140.925908
3 Feb 2020 17:01:00.000,138.687,16.145,1139.883585
3 Feb 2020 17:01:01.000,138.305,16.169,1138.885041
3 Feb 2020 17:01:02.000,137.923,16.193,1137.930394
3 Feb 2020 17:01:03.000,137.540,16.215,1137.019759
3 Feb 2020 17:01:04.000,137.157,16.236,1136.153239
3 Feb 2020 17:01:05.000,136.773,16.256,1135.330939
3 Feb 2020 17:01:06.000,136.388,16.276,1134.552957
3 Feb 2020 17:01:07.000,136.002,16.294,1133.819386
3 Feb 2020 17:01:08.000,135.616,16.311,1133.130312
3 Feb 2020 17:01:09.000,135.230,16.327,1132.485817
3 Feb 2020 17:01:10.000,134.843,16.342,1131.885981
3 Feb 2020 17:01:11.000,134.455,16.356,1131.330877
3 Feb 2020 17:01:12.000,134.067,16.369,1130.820567
3 Feb 2020 17:01:13.000,133.679,16.381,1130.355117
3 Feb 2020 17:01:14.000,133.290,16.391,1129.934582
3 Feb 2020 17:01:15.000,132.901,16.401,1129.559014
3 Feb 2020 17:01:16.000,132.512,16.409,1129.228458
3 Feb 2020 17:01:17.000,132.123,16.417,1128.942955
3 Feb 2020 17:01:18.000,131.733,16.423,1128.702540
3 Feb 2020 17:01:19.000,131.343,16.428,1128.507246
3 Feb 2020 17:01:20.000,130.953,16.432,1128.357090
3 Feb 2020 17:01:21.000,130.563,16.435,1128.252096
3 Feb 2020 17:01:22.000,130.173,16.437,1128.192274
3 Feb 2020 17:01:23.000,129.783,16.438,1128.177635
3 Feb 2020 17:01:24.000,129.393,16.438,1128.208179
3 Feb 2020 17:01:25.000,129.002,16.437,1128.283905
3 Feb 2020 17:01:26.000,128.612,16.434,1128.404802
3 Feb 2020 17:01:27.000,128.222,16.431,1128.570857
3 Feb 2020 17:01:28.000,127.833,16.426,1128.782050
3 Feb 2020 17:01:29.000,127.443,16.420,1129.038354
3 Feb 2020 17:01:30.000,127.053,16.413,1129.339743
3 Feb 2020 17:01:31.000,126.664,16.405,1129.686179
3 Feb 2020 17:01:32.000,126.275,16.396,1130.077620
3 Feb 2020 17:01:33.000,125.887,16.386,1130.514020
3 Feb 2020 17:01:34.000,125.499,16.375,1130.995327
3 Feb 2020 17:01:35.000,125.111,16.363,1131.521483
3 Feb 2020 17:01:36.000,124.724,16.349,1132.092423
3 Feb 2020 17:01:37.000,124.337,16.335,1132.708084
3 Feb 2020 17:01:38.000,123.950,16.319,1133.368391
3 Feb 2020 17:01:39.000,123.564,16.303,1134.073266
3 Feb 2020 17:01:40.000,123.179,16.285,1134.822624
3 Feb 2020 17:01:41.000,122.794,16.267,1135.616376
3 Feb 2020 17:01:42.000,122.410,16.247,1136.454432
3 Feb 2020 17:01:43.000,122.027,16.226,1137.336692
3 Feb 2020 17:01:44.000,121.644,16.204,1138.263049
3 Feb 2020 17:01:45.000,121.262,16.182,1139.233402
3 Feb 2020 17:01:46.000,120.881,16.158,1140.247633
3 Feb 2020 17:01:47.000,120.500,16.133,1141.305623
3 Feb 2020 17:01:48.000,120.121,16.107,1142.407256
3 Feb 2020 17:01:49.000,119.742,16.080,1143.552400
3 Feb 2020 17:01:50.000,119.364,16.053,1144.740923
3 Feb 2020 17:01:51.000,118.987,16.024,1145.972693
3 Feb 2020 17:01:52.000,118.611,15.994,1147.247568
3 Feb 2020 17:01:53.000,118.236,15.963,1148.565399
3 Feb 2020 17:01:54.000,117.862,15.932,1149.926046
3 Feb 2020 17:01:55.000,117.489,15.899,1151.329347
3 Feb 2020 17:01:56.000,117.117,15.866,1152.775153
3 Feb 2020 17:01:57.000,116.746,15.831,1154.263296
3 Feb 2020 17:01:58.000,116.376,15.796,1155.793618
3 Feb 2020 17:01:59.000,116.008,15.760,1157.365944
3 Feb 2020 17:02:00.000,115.640,15.723,1158.980107
3 Feb 2020 17:02:01.000,115.274,15.685,1160.635926
3 Feb 2020 17:02:02.000,114.908,15.646,1162.333228
3 Feb 2020 17:02:03.000,114.545,15.606,1164.071822
3 Feb 2020 17:02:04.000,114.182,15.565,1165.851526
3 Feb 2020 17:02:05.000,113.820,15.524,1167.672153
3 Feb 2020 17:02:06.000,113.460,15.482,1169.533505
3 Feb 2020 17:02:07.000,113.102,15.439,1171.435391
3 Feb 2020 17:02:08.000,112.744,15.395,1173.377607
3 Feb 2020 17:02:09.000,112.388,15.350,1175.359953
3 Feb 2020 17:02:10.000,112.033,15.305,1177.382229
3 Feb 2020 17:02:11.000,111.680,15.259,1179.444221
3 Feb 2020 17:02:12.000,111.328,15.212,1181.545721
3 Feb 2020 17:02:13.000,110.977,15.164,1183.686521
3 Feb 2020 17:02:14.000,110.628,15.116,1185.866400
3 Feb 2020 17:02:15.000,110.281,15.067,1188.085143
3 Feb 2020 17:02:16.000,109.935,15.017,1190.342531
3 Feb 2020 17:02:17.000,109.590,14.967,1192.638345
3 Feb 2020 17:02:18.000,109.247,14.915,1194.972355
3 Feb 2020 17:02:19.000,108.905,14.864,1197.344340
3 Feb 2020 17:02:20.000,108.565,14.811,1199.754070
3 Feb 2020 17:02:21.000,108.227,14.758,1202.201317
3 Feb 2020 17:02:22.000,107.890,14.704,1204.685853
3 Feb 2020 17:02:23.000,107.554,14.650,1207.207438
3 Feb 2020 17:02:24.000,107.220,14.595,1209.765843
3 Feb 2020 17:02:25.000,106.888,14.539,1212.360830
3 Feb 2020 17:02:26.000,106.558,14.483,1214.992163
3 Feb 2020 17:02:27.000,106.229,14.426,1217.659604
3 Feb 2020 17:02:28.000,105.901,14.369,1220.362912
3 Feb 2020 17:02:29.000,105.576,14.311,1223.101849
3 Feb 2020 17:02:30.000,105.252,14.253,1225.876175
3 Feb 2020 17:02:31.000,104.929,14.194,1228.685640
3 Feb 2020 17:02:32.000,104.608,14.135,1231.530006
3 Feb 2020 17:02:33.000,104.289,14.075,1234.409027
3 Feb 2020 17:02:34.000,103.972,14.015,1237.322459
3 Feb 2020 17:02:35.000,103.656,13.954,1240.270056
3 Feb 2020 17:02:36.000,103.342,13.892,1243.251572
3 Feb 2020 17:02:37.000,103.030,13.831,1246.266761
3 Feb 2020 17:02:38.000,102.719,13.768,1249.315376
3 Feb 2020 17:02:39.000,102.410,13.706,1252.397169
3 Feb 2020 17:02:40.000,102.103,13.643,1255.511893
3 Feb 2020 17:02:41.000,101.797,13.579,1258.659300
3 Feb 2020 17:02:42.000,101.493,13.516,1261.839141
3 Feb 2020 17:02:43.000,101.191,13.451,1265.051171
3 Feb 2020 17:02:44.000,100.891,13.387,1268.295135
3 Feb 2020 17:02:45.000,100.592,13.322,1271.570795
3 Feb 2020 17:02:46.000,100.295,13.257,1274.877898
3 Feb 2020 17:02:47.000,100.000,13.191,1278.216198
3 Feb 2020 17:02:48.000,99.706,13.125,1281.585446
3 Feb 2020 17:02:49.000,99.415,13.059,1284.985395
3 Feb 2020 17:02:50.000,99.124,12.992,1288.415799
3 Feb 2020 17:02:51.000,98.836,12.925,1291.876413
3 Feb 2020 17:02:52.000,98.549,12.858,1295.366985
3 Feb 2020 17:02:53.000,98.264,12.791,1298.887278
3 Feb 2020 17:02:54.000,97.981,12.723,1302.437044
3 Feb 2020 17:02:55.000,97.700,12.655,1306.016039
3 Feb 2020 17:02:56.000,97.420,12.587,1309.624019
3 Feb 2020 17:02:57.000,97.142,12.518,1313.260741
3 Feb 2020 17:02:58.000,96.865,12.450,1316.925960
3 Feb 2020 17:02:59.000,96.590,12.381,1320.619441
3 Feb 2020 17:03:00.000,96.317,12.312,1324.340941
3 Feb 2020 17:03:01.000,96.046,12.242,1328.090220
3 Feb 2020 17:03:02.000,95.776,12.173,1331.867036
3 Feb 2020 17:03:03.000,95.509,12.103,1335.671158
3 Feb 2020 17:03:04.000,95.242,12.033,1339.502345
3 Feb 2020 17:03:05.000,94.978,11.963,1343.360363
3 Feb 2020 17:03:06.000,94.715,11.893,1347.244973
3 Feb 2020 17:03:07.000,94.453,11.822,1351.155948
3 Feb 2020 17:03:08.000,94.194,11.752,1355.093052
3 Feb 2020 17:03:09.000,93.936,11.681,1359.056050
3 Feb 2020 17:03:10.000,93.680,11.610,1363.044720
3 Feb 2020 17:03:11.000,93.425,11.539,1367.058828
3 Feb 2020 17:03:12.000,93.172,11.468,1371.098143
3 Feb 2020 17:03:13.000,92.921,11.397,1375.162446
3 Feb 2020 17:03:14.000,92.671,11.326,1379.251508
3 Feb 2020 17:03:15.000,92.423,11.254,1383.365101
3 Feb 2020 17:03:16.000,92.176,11.183,1387.503010
3 Feb 2020 17:03:17.000,91.931,11.111,1391.665005
3 Feb 2020 17:03:18.000,91.688,11.040,1395.850875
3 Feb 2020 17:03:19.000,91.446,10.968,1400.060397
3 Feb 2020 17:03:20.000,91.206,10.896,1404.293349
3 Feb 2020 17:03:21.000,90.968,10.824,1408.549524
3 Feb 2020 17:03:22.000,90.731,10.752,1412.828699
3 Feb 2020 17:03:23.000,90.495,10.680,1417.130668
3 Feb 2020 17:03:24.000,90.262,10.608,1421.455216
3 Feb 2020 17:03:25.000,90.029,10.536,1425.802130
3 Feb 2020 17:03:26.000,89.799,10.464,1430.171208
3 Feb 2020 17:03:27.000,89.569,10.392,1434.562234
3 Feb 2020 17:03:28.000,89.342,10.320,1438.975012
3 Feb 2020 17:03:29.000,89.116,10.248,1443.409328
3 Feb 2020 17:03:30.000,88.891,10.176,1447.864988
3 Feb 2020 17:03:31.000,88.668,10.104,1452.341782
3 Feb 2020 17:03:32.000,88.446,10.031,1456.839518
3 Feb 2020 17:03:33.000,88.226,9.959,1461.357992
3 Feb 2020 17:03:34.000,88.007,9.887,1465.897012
3 Feb 2020 17:03:35.000,87.790,9.815,1470.456376
3 Feb 2020 17:03:36.000,87.574,9.743,1475.035899
3 Feb 2020 17:03:37.000,87.360,9.671,1479.635379
3 Feb 2020 17:03:38.000,87.147,9.599,1484.254635
3 Feb 2020 17:03:39.000,86.935,9.527,1488.893470
3 Feb 2020 17:03:40.000,86.725,9.455,1493.551702
3 Feb 2020 17:03:41.000,86.517,9.383,1498.229139
3 Feb 2020 17:03:42.000,86.309,9.311,1502.925600
3 Feb 2020 17:03:43.000,86.104,9.239,1507.640906
3 Feb 2020 17:03:44.000,85.899,9.167,1512.374867
3 Feb 2020 17:03:45.000,85.696,9.095,1517.127310
3 Feb 2020 17:03:46.000,85.494,9.023,1521.898052
3 Feb 2020 17:03:47.000,85.294,8.952,1526.686920
3 Feb 2020 17:03:48.000,85.095,8.880,1531.493734
3 Feb 2020 17:03:49.000,84.897,8.808,1536.318322
3 Feb 2020 17:03:50.000,84.701,8.737,1541.160516
3 Feb 2020 17:03:51.000,84.506,8.665,1546.020138
3 Feb 2020 17:03:52.000,84.312,8.594,1550.897022
3 Feb 2020 17:03:53.000,84.120,8.523,1555.791004
3 Feb 2020 17:03:54.000,83.929,8.451,1560.701910
3 Feb 2020 17:03:55.000,83.739,8.380,1565.629583
3 Feb 2020 17:03:56.000,83.551,8.309,1570.573853
3 Feb 2020 17:03:57.000,83.363,8.238,1575.534560
3 Feb 2020 17:03:58.000,83.177,8.167,1580.511549
3 Feb 2020 17:03:59.000,82.993,8.096,1585.504652
3 Feb 2020 17:04:00.000,82.809,8.026,1590.513717
3 Feb 2020 17:04:01.000,82.627,7.955,1595.538591
3 Feb 2020 17:04:02.000,82.446,7.884,1600.579112
3 Feb 2020 17:04:03.000,82.266,7.814,1605.635131
3 Feb 2020 17:04:04.000,82.088,7.744,1610.706499
3 Feb 2020 17:04:05.000,81.910,7.673,1615.793059
3 Feb 2020 17:04:06.000,81.734,7.603,1620.894667
3 Feb 2020 17:04:07.000,81.559,7.533,1626.011173
3 Feb 2020 17:04:08.000,81.385,7.463,1631.142437
3 Feb 2020 17:04:09.000,81.212,7.393,1636.288307
3 Feb 2020 17:04:10.000,81.041,7.323,1641.448642
3 Feb 2020 17:04:11.000,80.871,7.254,1646.623304
3 Feb 2020 17:04:12.000,80.701,7.184,1651.812147
3 Feb 2020 17:04:13.000,80.533,7.115,1657.015033
3 Feb 2020 17:04:14.000,80.366,7.045,1662.231826
3 Feb 2020 17:04:15.000,80.200,6.976,1667.462393
3 Feb 2020 17:04:16.000,80.036,6.907,1672.706591
3 Feb 2020 17:04:17.000,79.872,6.838,1677.964290
3 Feb 2020 17:04:18.000,79.709,6.769,1683.235358
3 Feb 2020 17:04:19.000,79.548,6.701,1688.519667
3 Feb 2020 17:04:20.000,79.387,6.632,1693.817080
3 Feb 2020 17:04:21.000,79.228,6.564,1699.127471
3 Feb 2020 17:04:22.000,79.070,6.495,1704.450715
3 Feb 2020 17:04:23.000,78.913,6.427,1709.786687
3 Feb 2020 17:04:24.000,78.756,6.359,1715.135256
3 Feb 2020 17:04:25.000,78.601,6.291,1720.496303
3 Feb 2020 17:04:26.000,78.447,6.223,1725.869704
3 Feb 2020 17:04:27.000,78.294,6.155,1731.255338
3 Feb 2020 17:04:28.000,78.142,6.087,1736.653090
3 Feb 2020 17:04:29.000,77.991,6.020,1742.062833
3 Feb 2020 17:04:30.000,77.840,5.953,1747.484453
3 Feb 2020 17:04:31.000,77.691,5.885,1752.917834
3 Feb 2020 17:04:32.000,77.543,5.818,1758.362860
3 Feb 2020 17:04:33.000,77.396,5.751,1763.819422
3 Feb 2020 17:04:34.000,77.250,5.684,1769.287399
3 Feb 2020 17:04:35.000,77.104,5.618,1774.766683
3 Feb 2020 17:04:36.000,76.960,5.551,1780.257162
3 Feb 2020 17:04:37.000,76.817,5.485,1785.758729
3 Feb 2020 17:04:38.000,76.674,5.418,1791.271273
3 Feb 2020 17:04:39.000,76.532,5.352,1796.794693
3 Feb 2020 17:04:40.000,76.392,5.286,1802.328873
3 Feb 2020 17:04:41.000,76.252,5.220,1807.873712
3 Feb 2020 17:04:42.000,76.113,5.154,1813.429107
3 Feb 2020 17:04:43.000,75.975,5.088,1818.994954
3 Feb 2020 17:04:44.000,75.838,5.023,1824.571152
3 Feb 2020 17:04:45.000,75.702,4.957,1830.157598
3 Feb 2020 17:04:46.000,75.567,4.892,1835.754198
3 Feb 2020 17:04:47.000,75.432,4.827,1841.360844
3 Feb 2020 17:04:48.000,75.299,4.762,1846.977442
3 Feb 2020 17:04:49.000,75.166,4.697,1852.603896
3 Feb 2020 17:04:50.000,75.034,4.632,1858.240109
3 Feb 2020 17:04:51.000,74.903,4.568,1863.885987
3 Feb 2020 17:04:52.000,74.773,4.503,1869.541436
3 Feb 2020 17:04:53.000,74.644,4.439,1875.206361
3 Feb 2020 17:04:54.000,74.515,4.375,1880.880675
3 Feb 2020 17:04:55.000,74.387,4.311,1886.564280
3 Feb 2020 17:04:56.000,74.260,4.247,1892.257089
3 Feb 2020 17:04:57.000,74.134,4.183,1897.959012
3 Feb 2020 17:04:58.000,74.009,4.119,1903.669961
3 Feb 2020 17:04:59.000,73.884,4.055,1909.389848
3 Feb 2020 17:05:00.000,73.761,3.992,1915.118587
3 Feb 2020 17:05:01.000,73.638,3.929,1920.856092
3 Feb 2020 17:05:02.000,73.515,3.866,1926.602278
3 Feb 2020 17:05:03.000,73.394,3.803,1932.357061
3 Feb 2020 17:05:04.000,73.273,3.740,1938.120358
3 Feb 2020 17:05:05.000,73.153,3.677,1943.892090
3 Feb 2020 17:05:06.000,73.034,3.614,1949.672169
3 Feb 2020 17:05:07.000,72.916,3.552,1955.460516
3 Feb 2020 17:05:08.000,72.798,3.489,1961.257053
3 Feb 2020 17:05:09.000,72.681,3.427,1967.061701
3 Feb 2020 17:05:10.000,72.565,3.365,1972.874380
3 Feb 2020 17:05:11.000,72.449,3.303,1978.695014
3 Feb 2020 17:05:12.000,72.334,3.241,1984.523526
3 Feb 2020 17:05:13.000,72.220,3.179,1990.359840
3 Feb 2020 17:05:14.000,72.107,3.118,1996.203880
3 Feb 2020 17:05:15.000,71.994,3.056,2002.055574
3 Feb 2020 17:05:16.000,71.882,2.995,2007.914845
3 Feb 2020 17:05:17.000,71.770,2.934,2013.781623
3 Feb 2020 17:05:18.000,71.660,2.873,2019.655835
3 Feb 2020 17:05:19.000,71.550,2.812,2025.537408
3 Feb 2020 17:05:20.000,71.440,2.751,2031.426274
3 Feb 2020 17:05:21.000,71.332,2.690,2037.322360
3 Feb 2020 17:05:22.000,71.223,2.630,2043.225599
3 Feb 2020 17:05:23.000,71.116,2.569,2049.135922
3 Feb 2020 17:05:24.000,71.009,2.509,2055.053260
3 Feb 2020 17:05:25.000,70.903,2.449,2060.977550
3 Feb 2020 17:05:26.000,70.798,2.389,2066.908718
3 Feb 2020 17:05:27.000,70.693,2.329,2072.846703
3 Feb 2020 17:05:28.000,70.589,2.269,2078.791438
3 Feb 2020 17:05:29.000,70.485,2.209,2084.742858
3 Feb 2020 17:05:30.000,70.382,2.150,2090.700901
3 Feb 2020 17:05:31.000,70.280,2.090,2096.665503
3 Feb 2020 17:05:32.000,70.178,2.031,2102.636601
3 Feb 2020 17:05:33.000,70.077,1.972,2108.614132
3 Feb 2020 17:05:34.000,69.976,1.912,2114.598036
3 Feb 2020 17:05:35.000,69.876,1.853,2120.588252
3 Feb 2020 17:05:36.000,69.777,1.795,2126.584719
3 Feb 2020 17:05:37.000,69.678,1.736,2132.587377
3 Feb 2020 17:05:38.000,69.580,1.677,2138.596168
3 Feb 2020 17:05:39.000,69.482,1.619,2144.611034
3 Feb 2020 17:05:40.000,69.385,1.560,2150.631915
3 Feb 2020 17:05:41.000,69.288,1.502,2156.658755
3 Feb 2020 17:05:42.000,69.192,1.444,2162.691498
3 Feb 2020 17:05:43.000,69.097,1.386,2168.730086
3 Feb 2020 17:05:44.000,69.002,1.328,2174.774464
3 Feb 2020 17:05:45.000,68.908,1.270,2180.824577
3 Feb 2020 17:05:46.000,68.814,1.213,2186.880371
3 Feb 2020 17:05:47.000,68.721,1.155,2192.941791
3 Feb 2020 17:05:48.000,68.628,1.098,2199.008784
3 Feb 2020 17:05:49.000,68.536,1.040,2205.081293
3 Feb 2020 17:05:50.000,68.444,0.983,2211.159272
3 Feb 2020 17:05:51.000,68.353,0.926,2217.242667
3 Feb 2020 17:05:52.000,68.262,0.869,2223.331426
3 Feb 2020 17:05:53.000,68.172,0.812,2229.425497
3 Feb 2020 17:05:54.000,68.083,0.756,2235.524831
3 Feb 2020 17:05:55.000,67.994,0.699,2241.629376
3 Feb 2020 17:05:56.000,67.905,0.642,2247.739085
3 Feb 2020 17:05:57.000,67.817,0.586,2253.853907
3 Feb 2020 17:05:58.000,67.730,0.530,2259.973794
3 Feb 2020 17:05:59.000,67.642,0.473,2266.098698
3 Feb 2020 17:06:00.000,67.556,0.417,2272.228571
3 Feb 2020 17:06:01.000,67.470,0.361,2278.363366
3 Feb 2020 17:06:02.000,67.384,0.306,2284.503037
3 Feb 2020 17:06:03.000,67.299,0.250,2290.647536
3 Feb 2020 17:06:04.000,67.214,0.194,2296.796818
3 Feb 2020 17:06:05.000,67.130,0.139,2302.950838
3 Feb 2020 17:06:06.000,67.046,0.083,2309.109550
3 Feb 2020 17:06:07.000,66.963,0.028,2315.272910
3 Feb 2020 17:06:08.000,66.880,-0.027,2321.440874
3 Feb 2020 17:06:09.000,66.798,-0.083,2327.613398
3 Feb 2020 17:06:09.753,66.736,-0.124,2332.264652
3 Feb 2020 18:32:15.733,243.490,-0.124,2324.262633
3 Feb 2020 18:32:16.000,243.499,-0.108,2322.448882
3 Feb 2020 18:32:17.000,243.533,-0.047,2315.644046
3 Feb 2020 18:32:18.000,243.568,0.015,2308.839860
3 Feb 2020 18:32:19.000,243.602,0.076,2302.036333
3 Feb 2020 18:32:20.000,243.637,0.138,2295.233480
3 Feb 2020 18:32:21.000,243.671,0.199,2288.431311
3 Feb 2020 18:32:22.000,243.706,0.261,2281.629847
3 Feb 2020 18:32:23.000,243.742,0.324,2274.829099
3 Feb 2020 18:32:24.000,243.777,0.386,2268.029081
3 Feb 2020 18:32:25.000,243.813,0.448,2261.229805
3 Feb 2020 18:32:26.000,243.848,0.511,2254.431291
3 Feb 2020 18:32:27.000,243.884,0.574,2247.633552
3 Feb 2020 18:32:28.000,243.921,0.637,2240.836598
3 Feb 2020 18:32:29.000,243.957,0.700,2234.040452
3 Feb 2020 18:32:30.000,243.994,0.764,2227.245125
3 Feb 2020 18:32:31.000,244.030,0.827,2220.450633
3 Feb 2020 18:32:32.000,244.067,0.891,2213.656988
3 Feb 2020 18:32:33.000,244.105,0.955,2206.864213
3 Feb 2020 18:32:34.000,244.142,1.020,2200.072320
3 Feb 2020 18:32:35.000,244.180,1.084,2193.281325
3 Feb 2020 18:32:36.000,244.218,1.149,2186.491241
3 Feb 2020 18:32:37.000,244.256,1.214,2179.702092
3 Feb 2020 18:32:38.000,244.294,1.279,2172.913890
3 Feb 2020 18:32:39.000,244.333,1.344,2166.126652
3 Feb 2020 18:32:40.000,244.372,1.409,2159.340393
3 Feb 2020 18:32:41.000,244.411,1.475,2152.555135
3 Feb 2020 18:32:42.000,244.450,1.541,2145.770893
3 Feb 2020 18:32:43.000,244.490,1.607,2138.987684
3 Feb 2020 18:32:44.000,244.530,1.674,2132.205523
3 Feb 2020 18:32:45.000,244.570,1.740,2125.424435
3 Feb 2020 18:32:46.000,244.610,1.807,2118.644433
3 Feb 2020 18:32:47.000,244.650,1.874,2111.865534
3 Feb 2020 18:32:48.000,244.691,1.941,2105.087762
3 Feb 2020 18:32:49.000,244.732,2.009,2098.311133
3 Feb 2020 18:32:50.000,244.773,2.076,2091.535666
3 Feb 2020 18:32:51.000,244.815,2.144,2084.761376
3 Feb 2020 18:32:52.000,244.857,2.213,2077.988291
3 Feb 2020 18:32:53.000,244.899,2.281,2071.216425
3 Feb 2020 18:32:54.000,244.941,2.350,2064.445799
3 Feb 2020 18:32:55.000,244.984,2.419,2057.676430
3 Feb 2020 18:32:56.000,245.027,2.488,2050.908344
3 Feb 2020 18:32:57.000,245.070,2.557,2044.141560
3 Feb 2020 18:32:58.000,245.113,2.627,2037.376097
3 Feb 2020 18:32:59.000,245.157,2.697,2030.611974
3 Feb 2020 18:33:00.000,245.201,2.767,2023.849217
3 Feb 2020 18:33:01.000,245.245,2.837,2017.087847
3 Feb 2020 18:33:02.000,245.290,2.908,2010.327884
3 Feb 2020 18:33:03.000,245.335,2.979,2003.569347
3 Feb 2020 18:33:04.000,245.380,3.050,1996.812266
3 Feb 2020 18:33:05.000,245.425,3.121,1990.056659
3 Feb 2020 18:33:06.000,245.471,3.193,1983.302549
3 Feb 2020 18:33:07.000,245.517,3.265,1976.549957
3 Feb 2020 18:33:08.000,245.563,3.337,1969.798912
3 Feb 2020 18:33:09.000,245.610,3.410,1963.049435
3 Feb 2020 18:33:10.000,245.657,3.483,1956.301550
3 Feb 2020 18:33:11.000,245.704,3.556,1949.555277
3 Feb 2020 18:33:12.000,245.752,3.629,1942.810649
3 Feb 2020 18:33:13.000,245.800,3.703,1936.067687
3 Feb 2020 18:33:14.000,245.848,3.777,1929.326415
3 Feb 2020 18:33:15.000,245.897,3.851,1922.586857
3 Feb 2020 18:33:16.000,245.946,3.926,1915.849046
3 Feb 2020 18:33:17.000,245.995,4.000,1909.113002
3 Feb 2020 18:33:18.000,246.045,4.076,1902.378755
3 Feb 2020 18:33:19.000,246.095,4.151,1895.646326
3 Feb 2020 18:33:20.000,246.145,4.227,1888.915751
3 Feb 2020 18:33:21.000,246.196,4.303,1882.187052
3 Feb 2020 18:33:22.000,246.247,4.379,1875.460260
3 Feb 2020 18:33:23.000,246.298,4.456,1868.735397
3 Feb 2020 18:33:24.000,246.350,4.533,1862.012500
3 Feb 2020 18:33:25.000,246.402,4.610,1855.291595
3 Feb 2020 18:33:26.000,246.454,4.688,1848.572710
3 Feb 2020 18:33:27.000,246.507,4.766,1841.855873
3 Feb 2020 18:33:28.000,246.560,4.844,1835.141121
3 Feb 2020 18:33:29.000,246.614,4.923,1828.428481
3 Feb 2020 18:33:30.000,246.668,5.002,1821.717983
3 Feb 2020 18:33:31.000,246.723,5.081,1815.009657
3 Feb 2020 18:33:32.000,246.777,5.161,1808.303541
3 Feb 2020 18:33:33.000,246.833,5.241,1801.599663
3 Feb 2020 18:33:34.000,246.888,5.322,1794.898057
3 Feb 2020 18:33:35.000,246.944,5.402,1788.198753
3 Feb 2020 18:33:36.000,247.001,5.484,1781.501791
3 Feb 2020 18:33:37.000,247.058,5.565,1774.807202
3 Feb 2020 18:33:38.000,247.115,5.647,1768.115020
3 Feb 2020 18:33:39.000,247.173,5.729,1761.425281
3 Feb 2020 18:33:40.000,247.231,5.812,1754.738018
3 Feb 2020 18:33:41.000,247.290,5.895,1748.053272
3 Feb 2020 18:33:42.000,247.349,5.978,1741.371078
3 Feb 2020 18:33:43.000,247.408,6.062,1734.691472
3 Feb 2020 18:33:44.000,247.468,6.146,1728.014489
3 Feb 2020 18:33:45.000,247.529,6.231,1721.340174
3 Feb 2020 18:33:46.000,247.590,6.316,1714.668562
3 Feb 2020 18:33:47.000,247.651,6.401,1707.999694
3 Feb 2020 18:33:48.000,247.713,6.487,1701.333607
3 Feb 2020 18:33:49.000,247.776,6.573,1694.670341
3 Feb 2020 18:33:50.000,247.838,6.660,1688.009942
3 Feb 2020 18:33:51.000,247.902,6.747,1681.352450
3 Feb 2020 18:33:52.000,247.966,6.834,1674.697905
3 Feb 2020 18:33:53.000,248.030,6.922,1668.046349
3 Feb 2020 18:33:54.000,248.095,7.011,1661.397831
3 Feb 2020 18:33:55.000,248.161,7.099,1654.752393
3 Feb 2020 18:33:56.000,248.227,7.189,1648.110078
3 Feb 2020 18:33:57.000,248.293,7.278,1641.470933
3 Feb 2020 18:33:58.000,248.360,7.369,1634.835001
3 Feb 2020 18:33:59.000,248.428,7.459,1628.202335
3 Feb 2020 18:34:00.000,248.496,7.550,1621.572980
3 Feb 2020 18:34:01.000,248.565,7.642,1614.946983
3 Feb 2020 18:34:02.000,248.634,7.734,1608.324392
3 Feb 2020 18:34:03.000,248.704,7.826,1601.705262
3 Feb 2020 18:34:04.000,248.775,7.920,1595.089640
3 Feb 2020 18:34:05.000,248.846,8.013,1588.477579
3 Feb 2020 18:34:06.000,248.918,8.107,1581.869131
3 Feb 2020 18:34:07.000,248.990,8.202,1575.264344
3 Feb 2020 18:34:08.000,249.063,8.297,1568.663280
3 Feb 2020 18:34:09.000,249.137,8.392,1562.065991
3 Feb 2020 18:34:10.000,249.211,8.488,1555.472531
3 Feb 2020 18:34:11.000,249.286,8.585,1548.882958
3 Feb 2020 18:34:12.000,249.361,8.682,1542.297325
3 Feb 2020 18:34:13.000,249.438,8.780,1535.715697
3 Feb 2020 18:34:14.000,249.515,8.878,1529.138131
3 Feb 2020 18:34:15.000,249.592,8.977,1522.564686
3 Feb 2020 18:34:16.000,249.670,9.076,1515.995424
3 Feb 2020 18:34:17.000,249.749,9.176,1509.430403
3 Feb 2020 18:34:18.000,249.829,9.277,1502.869693
3 Feb 2020 18:34:19.000,249.910,9.378,1496.313356
3 Feb 2020 18:34:20.000,249.991,9.479,1489.761456
3 Feb 2020 18:34:21.000,250.073,9.582,1483.214060
3 Feb 2020 18:34:22.000,250.155,9.685,1476.671235
3 Feb 2020 18:34:23.000,250.239,9.788,1470.133046
3 Feb 2020 18:34:24.000,250.323,9.892,1463.599570
3 Feb 2020 18:34:25.000,250.408,9.997,1457.070874
3 Feb 2020 18:34:26.000,250.494,10.102,1450.547031
3 Feb 2020 18:34:27.000,250.580,10.208,1444.028113
3 Feb 2020 18:34:28.000,250.668,10.315,1437.514192
3 Feb 2020 18:34:29.000,250.756,10.422,1431.005350
3 Feb 2020 18:34:30.000,250.845,10.530,1424.501661
3 Feb 2020 18:34:31.000,250.935,10.639,1418.003203
3 Feb 2020 18:34:32.000,251.026,10.748,1411.510056
3 Feb 2020 18:34:33.000,251.118,10.858,1405.022301
3 Feb 2020 18:34:34.000,251.210,10.969,1398.540017
3 Feb 2020 18:34:35.000,251.304,11.080,1392.063295
3 Feb 2020 18:34:36.000,251.398,11.192,1385.592217
3 Feb 2020 18:34:37.000,251.493,11.305,1379.126869
3 Feb 2020 18:34:38.000,251.590,11.418,1372.667340
3 Feb 2020 18:34:39.000,251.687,11.533,1366.213720
3 Feb 2020 18:34:40.000,251.785,11.648,1359.766100
3 Feb 2020 18:34:41.000,251.884,11.763,1353.324571
3 Feb 2020 18:34:42.000,251.985,11.880,1346.889233
3 Feb 2020 18:34:43.000,252.086,11.997,1340.460180
3 Feb 2020 18:34:44.000,252.188,12.115,1334.037510
3 Feb 2020 18:34:45.000,252.292,12.234,1327.621323
3 Feb 2020 18:34:46.000,252.396,12.354,1321.211721
3 Feb 2020 18:34:47.000,252.502,12.474,1314.808808
3 Feb 2020 18:34:48.000,252.608,12.595,1308.412685
3 Feb 2020 18:34:49.000,252.716,12.717,1302.023467
3 Feb 2020 18:34:50.000,252.825,12.840,1295.641259
3 Feb 2020 18:34:51.000,252.935,12.964,1289.266174
3 Feb 2020 18:34:52.000,253.046,13.089,1282.898325
3 Feb 2020 18:34:53.000,253.159,13.214,1276.537826
3 Feb 2020 18:34:54.000,253.272,13.341,1270.184797
3 Feb 2020 18:34:55.000,253.387,13.468,1263.839356
3 Feb 2020 18:34:56.000,253.504,13.596,1257.501623
3 Feb 2020 18:34:57.000,253.621,13.725,1251.171729
3 Feb 2020 18:34:58.000,253.740,13.855,1244.849796
3 Feb 2020 18:34:59.000,253.860,13.986,1238.535955
3 Feb 2020 18:35:00.000,253.981,14.118,1232.230337
3 Feb 2020 18:35:01.000,254.104,14.251,1225.933075
3 Feb 2020 18:35:02.000,254.228,14.385,1219.644307
3 Feb 2020 18:35:03.000,254.354,14.520,1213.364171
3 Feb 2020 18:35:04.000,254.480,14.655,1207.092810
3 Feb 2020 18:35:05.000,254.609,14.792,1200.830365
3 Feb 2020 18:35:06.000,254.739,14.930,1194.576989
3 Feb 2020 18:35:07.000,254.870,15.069,1188.332831
3 Feb 2020 18:35:08.000,255.003,15.209,1182.098042
3 Feb 2020 18:35:09.000,255.138,15.350,1175.872780
3 Feb 2020 18:35:10.000,255.274,15.492,1169.657202
3 Feb 2020 18:35:11.000,255.412,15.635,1163.451473
3 Feb 2020 18:35:12.000,255.551,15.779,1157.255756
3 Feb 2020 18:35:13.000,255.692,15.924,1151.070221
3 Feb 2020 18:35:14.000,255.835,16.071,1144.895040
3 Feb 2020 18:35:15.000,255.979,16.218,1138.730387
3 Feb 2020 18:35:16.000,256.125,16.367,1132.576444
3 Feb 2020 18:35:17.000,256.273,16.517,1126.433390
3 Feb 2020 18:35:18.000,256.423,16.668,1120.301414
3 Feb 2020 18:35:19.000,256.575,16.820,1114.180704
3 Feb 2020 18:35:20.000,256.728,16.973,1108.071454
3 Feb 2020 18:35:21.000,256.884,17.128,1101.973858
3 Feb 2020 18:35:22.000,257.041,17.284,1095.888126
3 Feb 2020 18:35:23.000,257.201,17.441,1089.814458
3 Feb 2020 18:35:24.000,257.362,17.599,1083.753064
3 Feb 2020 18:35:25.000,257.526,17.759,1077.704159
3 Feb 2020 18:35:26.000,257.692,17.920,1071.667960
3 Feb 2020 18:35:27.000,257.859,18.082,1065.644692
3 Feb 2020 18:35:28.000,258.029,18.245,1059.634579
3 Feb 2020 18:35:29.000,258.202,18.410,1053.637856
3 Feb 2020 18:35:30.000,258.376,18.576,1047.654758
3 Feb 2020 18:35:31.000,258.553,18.744,1041.685527
3 Feb 2020 18:35:32.000,258.732,18.913,1035.730409
3 Feb 2020 18:35:33.000,258.914,19.083,1029.789657
3 Feb 2020 18:35:34.000,259.098,19.255,1023.863526
3 Feb 2020 18:35:35.000,259.284,19.428,1017.952278
3 Feb 2020 18:35:36.000,259.473,19.602,1012.056182
3 Feb 2020 18:35:37.000,259.665,19.778,1006.175510
3 Feb 2020 18:35:38.000,259.859,19.956,1000.310545
3 Feb 2020 18:35:39.000,260.056,20.134,994.461563
3 Feb 2020 18:35:40.000,260.256,20.315,988.628858
3 Feb 2020 18:35:41.000,260.459,20.497,982.812728
3 Feb 2020 18:35:42.000,260.664,20.680,977.013474
3 Feb 2020 18:35:43.000,260.873,20.865,971.231405
3 Feb 2020 18:35:44.000,261.084,21.052,965.466837
3 Feb 2020 18:35:45.000,261.298,21.240,959.720091
3 Feb 2020 18:35:46.000,261.516,21.429,953.991496
3 Feb 2020 18:35:47.000,261.736,21.620,948.281387
3 Feb 2020 18:35:48.000,261.960,21.813,942.590107
3 Feb 2020 18:35:49.000,262.187,22.008,936.918004
3 Feb 2020 18:35:50.000,262.418,22.204,931.265437
3 Feb 2020 18:35:51.000,262.652,22.401,925.632771
3 Feb 2020 18:35:52.000,262.889,22.601,920.020374
3 Feb 2020 18:35:53.000,263.130,22.802,914.428626
3 Feb 2020 18:35:54.000,263.375,23.004,908.857916
3 Feb 2020 18:35:55.000,263.623,23.209,903.308639
3 Feb 2020 18:35:56.000,263.875,23.415,897.781198
3 Feb 2020 18:35:57.000,264.131,23.622,892.276007
3 Feb 2020 18:35:58.000,264.391,23.832,886.793487
3 Feb 2020 18:35:59.000,264.656,24.043,881.334063
3 Feb 2020 18:36:00.000,264.924,24.256,875.898175
3 Feb 2020 18:36:01.000,265.196,24.471,870.486269
3 Feb 2020 18:36:02.000,265.473,24.687,865.098804
3 Feb 2020 18:36:03.000,265.754,24.905,859.736246
3 Feb 2020 18:36:04.000,266.039,25.125,854.399064
3 Feb 2020 18:36:05.000,266.330,25.346,849.087747
3 Feb 2020 18:36:06.000,266.625,25.570,843.802787
3 Feb 2020 18:36:07.000,266.924,25.795,838.544691
3 Feb 2020 18:36:08.000,267.229,26.022,833.313974
3 Feb 2020 18:36:09.000,267.538,26.250,828.111155
3 Feb 2020 18:36:10.000,267.853,26.481,822.936773
3 Feb 2020 18:36:11.000,268.173,26.713,817.791376
3 Feb 2020 18:36:12.000,268.498,26.947,812.675513
3 Feb 2020 18:36:13.000,268.828,27.182,807.589755
3 Feb 2020 18:36:14.000,269.165,27.419,802.534680
3 Feb 2020 18:36:15.000,269.506,27.658,797.510880
3 Feb 2020 18:36:16.000,269.854,27.899,792.518948
3 Feb 2020 18:36:17.000,270.208,28.141,787.559500
3 Feb 2020 18:36:18.000,270.567,28.385,782.633162
3 Feb 2020 18:36:19.000,270.933,28.631,777.740561
3 Feb 2020 18:36:20.000,271.305,28.878,772.882351
3 Feb 2020 18:36:21.000,271.684,29.127,768.059182
3 Feb 2020 18:36:22.000,272.069,29.378,763.271727
3 Feb 2020 18:36:23.000,272.461,29.630,758.520672
3 Feb 2020 18:36:24.000,272.859,29.883,753.806702
3 Feb 2020 18:36:25.000,273.265,30.138,749.130530
3 Feb 2020 18:36:26.000,273.678,30.395,744.492867
3 Feb 2020 18:36:27.000,274.098,30.652,739.894444
3 Feb 2020 18:36:28.000,274.526,30.911,735.336006
3 Feb 2020 18:36:29.000,274.961,31.172,730.818301
3 Feb 2020 18:36:30.000,275.404,31.433,726.342098
3 Feb 2020 18:36:31.000,275.855,31.696,721.908169
3 Feb 2020 18:36:32.000,276.315,31.960,717.517309
3 Feb 2020 18:36:33.000,276.782,32.225,713.170314
3 Feb 2020 18:36:34.000,277.258,32.491,708.867992
3 Feb 2020 18:36:35.000,277.742,32.758,704.611174
3 Feb 2020 18:36:36.000,278.235,33.026,700.400687
3 Feb 2020 18:36:37.000,278.737,33.294,696.237382
3 Feb 2020 18:36:38.000,279.249,33.563,692.122109
3 Feb 2020 18:36:39.000,279.769,33.833,688.055741
3 Feb 2020 18:36:40.000,280.299,34.103,684.039150
3 Feb 2020 18:36:41.000,280.839,34.373,680.073220
3 Feb 2020 18:36:42.000,281.388,34.644,676.158852
3 Feb 2020 18:36:43.000,281.947,34.915,672.296949
3 Feb 2020 18:36:44.000,282.516,35.186,668.488423
3 Feb 2020 18:36:45.000,283.096,35.456,664.734193
3 Feb 2020 18:36:46.000,283.686,35.726,661.035194
3 Feb 2020 18:36:47.000,284.287,35.996,657.392359
3 Feb 2020 18:36:48.000,284.898,36.266,653.806631
3 Feb 2020 18:36:49.000,285.521,36.534,650.278955
3 Feb 2020 18:36:50.000,286.154,36.802,646.810291
3 Feb 2020 18:36:51.000,286.799,37.068,643.401593
3 Feb 2020 18:36:52.000,287.455,37.334,640.053823
3 Feb 2020 18:36:53.000,288.122,37.597,636.767945
3 Feb 2020 18:36:54.000,288.801,37.860,633.544926
3 Feb 2020 18:36:55.000,289.492,38.120,630.385734
3 Feb 2020 18:36:56.000,290.194,38.378,627.291335
3 Feb 2020 18:36:57.000,290.909,38.634,624.262696
3 Feb 2020 18:36:58.000,291.635,38.888,621.300783
3 Feb 2020 18:36:59.000,292.374,39.139,618.406556
3 Feb 2020 18:37:00.000,293.124,39.387,615.580973
3 Feb 2020 18:37:01.000,293.887,39.632,612.824987
3 Feb 2020 18:37:02.000,294.662,39.873,610.139543
3 Feb 2020 18:37:03.000,295.449,40.111,607.525579
3 Feb 2020 18:37:04.000,296.249,40.344,604.984025
3 Feb 2020 18:37:05.000,297.060,40.574,602.515799
3 Feb 2020 18:37:06.000,297.884,40.799,600.121808
3 Feb 2020 18:37:07.000,298.720,41.020,597.802949
3 Feb 2020 18:37:08.000,299.567,41.235,595.560097
3 Feb 2020 18:37:09.000,300.427,41.446,593.394118
3 Feb 2020 18:37:10.000,301.298,41.650,591.305858
3 Feb 2020 18:37:11.000,302.181,41.849,589.296149
3 Feb 2020 18:37:12.000,303.075,42.042,587.365793
3 Feb 2020 18:37:13.000,303.980,42.229,585.515582
3 Feb 2020 18:37:14.000,304.896,42.409,583.746275
3 Feb 2020 18:37:15.000,305.823,42.582,582.058613
3 Feb 2020 18:37:16.000,306.760,42.749,580.453313
3 Feb 2020 18:37:17.000,307.707,42.908,578.931055
3 Feb 2020 18:37:18.000,308.663,43.059,577.492504
3 Feb 2020 18:37:19.000,309.629,43.202,576.138281
3 Feb 2020 18:37:20.000,310.604,43.338,574.868989
3 Feb 2020 18:37:21.000,311.587,43.465,573.685187
3 Feb 2020 18:37:22.000,312.578,43.583,572.587412
3 Feb 2020 18:37:23.000,313.576,43.693,571.576157
3 Feb 2020 18:37:24.000,314.582,43.794,570.651881
3 Feb 2020 18:37:25.000,315.594,43.886,569.815012
3 Feb 2020 18:37:26.000,316.611,43.969,569.065933
3 Feb 2020 18:37:27.000,317.634,44.042,568.404993
3 Feb 2020 18:37:28.000,318.661,44.106,567.832496
3 Feb 2020 18:37:29.000,319.692,44.160,567.348716
3 Feb 2020 18:37:30.000,320.727,44.205,566.953876
3 Feb 2020 18:37:31.000,321.764,44.239,566.648162
3 Feb 2020 18:37:32.000,322.803,44.264,566.431720
3 Feb 2020 18:37:33.000,323.843,44.279,566.304650
3 Feb 2020 18:37:34.000,324.885,44.284,566.267013
3 Feb 2020 18:37:35.000,325.926,44.279,566.318825
3 Feb 2020 18:37:36.000,326.966,44.264,566.460062
3 Feb 2020 18:37:37.000,328.005,44.239,566.690656
3 Feb 2020 18:37:38.000,329.042,44.205,567.010497
3 Feb 2020 18:37:39.000,330.077,44.160,567.419433
3 Feb 2020 18:37:40.000,331.107,44.106,567.917271
3 Feb 2020 18:37:41.000,332.134,44.042,568.503775
3 Feb 2020 18:37:42.000,333.157,43.969,569.178672
3 Feb 2020 18:37:43.000,334.174,43.886,569.941644
3 Feb 2020 18:37:44.000,335.185,43.794,570.792338
3 Feb 2020 18:37:45.000,336.190,43.693,571.730359
3 Feb 2020 18:37:46.000,337.187,43.583,572.755279
3 Feb 2020 18:37:47.000,338.178,43.465,573.866628
3 Feb 2020 18:37:48.000,339.160,43.338,575.063905
3 Feb 2020 18:37:49.000,340.134,43.203,576.346571
3 Feb 2020 18:37:50.000,341.100,43.059,577.714055
3 Feb 2020 18:37:51.000,342.055,42.908,579.165756
3 Feb 2020 18:37:52.000,343.002,42.749,580.701037
3 Feb 2020 18:37:53.000,343.938,42.583,582.319238
3 Feb 2020 18:37:54.000,344.864,42.410,584.019665
3 Feb 2020 18:37:55.000,345.779,42.231,585.801600
3 Feb 2020 18:37:56.000,346.683,42.044,587.664299
3 Feb 2020 18:37:57.000,347.577,41.851,589.606993
3 Feb 2020 18:37:58.000,348.459,41.653,591.628892
3 Feb 2020 18:37:59.000,349.329,41.448,593.729184
3 Feb 2020 18:38:00.000,350.187,41.238,595.907036
3 Feb 2020 18:38:01.000,351.034,41.023,598.161599
3 Feb 2020 18:38:02.000,351.869,40.803,600.492004
3 Feb 2020 18:38:03.000,352.692,40.578,602.897370
3 Feb 2020 18:38:04.000,353.502,40.349,605.376799
3 Feb 2020 18:38:05.000,354.301,40.116,607.929382
3 Feb 2020 18:38:06.000,355.087,39.878,610.554197
3 Feb 2020 18:38:07.000,355.861,39.638,613.250314
3 Feb 2020 18:38:08.000,356.623,39.393,616.016792
3 Feb 2020 18:38:09.000,357.373,39.146,618.852685
3 Feb 2020 18:38:10.000,358.110,38.895,621.757037
3 Feb 2020 18:38:11.000,358.836,38.642,624.728891
3 Feb 2020 18:38:12.000,359.549,38.387,627.767285
3 Feb 2020 18:38:13.000,0.251,38.129,630.871251
3 Feb 2020 18:38:14.000,0.941,37.869,634.039824
3 Feb 2020 18:38:15.000,1.619,37.608,637.272034
3 Feb 2020 18:38:16.000,2.286,37.345,640.566916
3 Feb 2020 18:38:17.000,2.941,37.080,643.923501
3 Feb 2020 18:38:18.000,3.585,36.814,647.340826
3 Feb 2020 18:38:19.000,4.217,36.547,650.817930
3 Feb 2020 18:38:20.000,4.839,36.279,654.353854
3 Feb 2020 18:38:21.000,5.449,36.010,657.947646
3 Feb 2020 18:38:22.000,6.049,35.741,661.598358
3 Feb 2020 18:38:23.000,6.639,35.472,665.305048
3 Feb 2020 18:38:24.000,7.218,35.202,669.066782
3 Feb 2020 18:38:25.000,7.786,34.932,672.882630
3 Feb 2020 18:38:26.000,8.345,34.662,676.751673
3 Feb 2020 18:38:27.000,8.894,34.392,680.672998
3 Feb 2020 18:38:28.000,9.432,34.122,684.645701
3 Feb 2020 18:38:29.000,9.962,33.852,688.668890
3 Feb 2020 18:38:30.000,10.482,33.583,692.741679
3 Feb 2020 18:38:31.000,10.992,33.315,696.863191
3 Feb 2020 18:38:32.000,11.494,33.047,701.032565
3 Feb 2020 18:38:33.000,11.986,32.780,705.248944
3 Feb 2020 18:38:34.000,12.470,32.514,709.511485
3 Feb 2020 18:38:35.000,12.945,32.249,713.819357
3 Feb 2020 18:38:36.000,13.412,31.985,718.171737
3 Feb 2020 18:38:37.000,13.871,31.721,722.567816
3 Feb 2020 18:38:38.000,14.321,31.459,727.006795
3 Feb 2020 18:38:39.000,14.764,31.198,731.487888
3 Feb 2020 18:38:40.000,15.199,30.938,736.010320
3 Feb 2020 18:38:41.000,15.626,30.680,740.573327
3 Feb 2020 18:38:42.000,16.046,30.423,745.176159
3 Feb 2020 18:38:43.000,16.459,30.167,749.818077
3 Feb 2020 18:38:44.000,16.864,29.913,754.498352
3 Feb 2020 18:38:45.000,17.262,29.660,759.216270
3 Feb 2020 18:38:46.000,17.654,29.409,763.971126
3 Feb 2020 18:38:47.000,18.039,29.159,768.762230
3 Feb 2020 18:38:48.000,18.417,28.911,773.588904
3 Feb 2020 18:38:49.000,18.789,28.664,778.450477
3 Feb 2020 18:38:50.000,19.154,28.419,783.346295
3 Feb 2020 18:38:51.000,19.513,28.176,788.275713
3 Feb 2020 18:38:52.000,19.867,27.934,793.238098
3 Feb 2020 18:38:53.000,20.214,27.694,798.232831
3 Feb 2020 18:38:54.000,20.556,27.456,803.259300
3 Feb 2020 18:38:55.000,20.891,27.219,808.316907
3 Feb 2020 18:38:56.000,21.222,26.984,813.405066
3 Feb 2020 18:38:57.000,21.547,26.751,818.523200
3 Feb 2020 18:38:58.000,21.866,26.519,823.670743
3 Feb 2020 18:38:59.000,22.181,26.290,828.847143
3 Feb 2020 18:39:00.000,22.490,26.062,834.051854
3 Feb 2020 18:39:01.000,22.795,25.835,839.284343
3 Feb 2020 18:39:02.000,23.094,25.611,844.544088
3 Feb 2020 18:39:03.000,23.389,25.388,849.830577
3 Feb 2020 18:39:04.000,23.679,25.167,855.143305
3 Feb 2020 18:39:05.000,23.964,24.948,860.481781
3 Feb 2020 18:39:06.000,24.245,24.730,865.845522
3 Feb 2020 18:39:07.000,24.522,24.514,871.234054
3 Feb 2020 18:39:08.000,24.794,24.300,876.646915
3 Feb 2020 18:39:09.000,25.062,24.088,882.083648
3 Feb 2020 18:39:10.000,25.326,23.877,887.543809
3 Feb 2020 18:39:11.000,25.586,23.668,893.026960
3 Feb 2020 18:39:12.000,25.842,23.461,898.532675
3 Feb 2020 18:39:13.000,26.094,23.256,904.060534
3 Feb 2020 18:39:14.000,26.343,23.052,909.610128
3 Feb 2020 18:39:15.000,26.587,22.850,915.181053
3 Feb 2020 18:39:16.000,26.828,22.649,920.772914
3 Feb 2020 18:39:17.000,27.066,22.450,926.385327
3 Feb 2020 18:39:18.000,27.300,22.253,932.017912
3 Feb 2020 18:39:19.000,27.530,22.058,937.670301
3 Feb 2020 18:39:20.000,27.757,21.864,943.342128
3 Feb 2020 18:39:21.000,27.981,21.671,949.033040
3 Feb 2020 18:39:22.000,28.202,21.481,954.742689
3 Feb 2020 18:39:23.000,28.419,21.291,960.470731
3 Feb 2020 18:39:24.000,28.634,21.104,966.216833
3 Feb 2020 18:39:25.000,28.845,20.918,971.980668
3 Feb 2020 18:39:26.000,29.054,20.733,977.761915
3 Feb 2020 18:39:27.000,29.259,20.550,983.560261
3 Feb 2020 18:39:28.000,29.462,20.369,989.375396
3 Feb 2020 18:39:29.000,29.662,20.189,995.207020
3 Feb 2020 18:39:30.000,29.859,20.010,1001.054838
3 Feb 2020 18:39:31.000,30.053,19.833,1006.918559
3 Feb 2020 18:39:32.000,30.245,19.658,1012.797902
3 Feb 2020 18:39:33.000,30.434,19.484,1018.692587
3 Feb 2020 18:39:34.000,30.621,19.311,1024.602343
3 Feb 2020 18:39:35.000,30.805,19.140,1030.526903
3 Feb 2020 18:39:36.000,30.987,18.970,1036.466007
3 Feb 2020 18:39:37.000,31.166,18.801,1042.419398
3 Feb 2020 18:39:38.000,31.343,18.634,1048.386825
3 Feb 2020 18:39:39.000,31.518,18.468,1054.368043
3 Feb 2020 18:39:40.000,31.690,18.304,1060.362812
3 Feb 2020 18:39:41.000,31.860,18.141,1066.370895
3 Feb 2020 18:39:42.000,32.028,17.979,1072.392061
3 Feb 2020 18:39:43.000,32.194,17.818,1078.426084
3 Feb 2020 18:39:44.000,32.358,17.659,1084.472741
3 Feb 2020 18:39:45.000,32.520,17.501,1090.531816
3 Feb 2020 18:39:46.000,32.679,17.344,1096.603094
3 Feb 2020 18:39:47.000,32.837,17.189,1102.686367
3 Feb 2020 18:39:48.000,32.993,17.035,1108.781431
3 Feb 2020 18:39:49.000,33.147,16.882,1114.888083
3 Feb 2020 18:39:50.000,33.299,16.730,1121.006128
3 Feb 2020 18:39:51.000,33.449,16.579,1127.135372
3 Feb 2020 18:39:52.000,33.597,16.430,1133.275626
3 Feb 2020 18:39:53.000,33.743,16.281,1139.426705
3 Feb 2020 18:39:54.000,33.888,16.134,1145.588426
3 Feb 2020 18:39:55.000,34.031,15.988,1151.760612
3 Feb 2020 18:39:56.000,34.172,15.843,1157.943088
3 Feb 2020 18:39:57.000,34.312,15.699,1164.135681
3 Feb 2020 18:39:58.000,34.450,15.556,1170.338225
3 Feb 2020 18:39:59.000,34.586,15.415,1176.550553
3 Feb 2020 18:40:00.000,34.721,15.274,1182.772505
3 Feb 2020 18:40:01.000,34.854,15.134,1189.003921
3 Feb 2020 18:40:02.000,34.986,14.996,1195.244644
3 Feb 2020 18:40:03.000,35.116,14.858,1201.494526
3 Feb 2020 18:40:04.000,35.245,14.722,1207.753414
3 Feb 2020 18:40:05.000,35.372,14.586,1214.021161
3 Feb 2020 18:40:06.000,35.498,14.452,1220.297625
3 Feb 2020 18:40:07.000,35.623,14.318,1226.582662
3 Feb 2020 18:40:08.000,35.746,14.185,1232.876134
3 Feb 2020 18:40:09.000,35.867,14.054,1239.177905
3 Feb 2020 18:40:10.000,35.988,13.923,1245.487842
3 Feb 2020 18:40:11.000,36.107,13.793,1251.805814
3 Feb 2020 18:40:12.000,36.225,13.665,1258.131690
3 Feb 2020 18:40:13.000,36.341,13.537,1264.465344
3 Feb 2020 18:40:14.000,36.456,13.410,1270.806656
3 Feb 2020 18:40:15.000,36.570,13.283,1277.155501
3 Feb 2020 18:40:16.000,36.683,13.158,1283.511759
3 Feb 2020 18:40:17.000,36.795,13.034,1289.875315
3 Feb 2020 18:40:18.000,36.905,12.910,1296.246052
3 Feb 2020 18:40:19.000,37.014,12.787,1302.623857
3 Feb 2020 18:40:20.000,37.123,12.666,1309.008620
3 Feb 2020 18:40:21.000,37.230,12.545,1315.400229
3 Feb 2020 18:40:22.000,37.336,12.424,1321.798582
3 Feb 2020 18:40:23.000,37.440,12.305,1328.203570
3 Feb 2020 18:40:24.000,37.544,12.186,1334.615091
3 Feb 2020 18:40:25.000,37.647,12.068,1341.033043
3 Feb 2020 18:40:26.000,37.749,11.951,1347.457327
3 Feb 2020 18:40:27.000,37.849,11.835,1353.887845
3 Feb 2020 18:40:28.000,37.949,11.720,1360.324498
3 Feb 2020 18:40:29.000,38.048,11.605,1366.767196
3 Feb 2020 18:40:30.000,38.145,11.491,1373.215844
3 Feb 2020 18:40:31.000,38.242,11.377,1379.670351
3 Feb 2020 18:40:32.000,38.338,11.265,1386.130627
3 Feb 2020 18:40:33.000,38.433,11.153,1392.596584
3 Feb 2020 18:40:34.000,38.527,11.042,1399.068136
3 Feb 2020 18:40:35.000,38.620,10.931,1405.545195
3 Feb 2020 18:40:36.000,38.712,10.822,1412.027682
3 Feb 2020 18:40:37.000,38.803,10.713,1418.515513
3 Feb 2020 18:40:38.000,38.893,10.604,1425.008606
3 Feb 2020 18:40:39.000,38.983,10.496,1431.506882
3 Feb 2020 18:40:40.000,39.072,10.389,1438.010264
3 Feb 2020 18:40:41.000,39.160,10.283,1444.518672
3 Feb 2020 18:40:42.000,39.247,10.177,1451.032035
3 Feb 2020 18:40:43.000,39.333,10.072,1457.550276
3 Feb 2020 18:40:44.000,39.418,9.967,1464.073323
3 Feb 2020 18:40:45.000,39.503,9.863,1470.601103
3 Feb 2020 18:40:46.000,39.587,9.760,1477.133545
3 Feb 2020 18:40:47.000,39.670,9.657,1483.670582
3 Feb 2020 18:40:48.000,39.752,9.555,1490.212144
3 Feb 2020 18:40:49.000,39.834,9.454,1496.758164
3 Feb 2020 18:40:50.000,39.915,9.353,1503.308576
3 Feb 2020 18:40:51.000,39.995,9.253,1509.863315
3 Feb 2020 18:40:52.000,40.075,9.153,1516.422315
3 Feb 2020 18:40:53.000,40.154,9.054,1522.985516
3 Feb 2020 18:40:54.000,40.232,8.955,1529.552856
3 Feb 2020 18:40:55.000,40.309,8.857,1536.124272
3 Feb 2020 18:40:56.000,40.386,8.759,1542.699705
3 Feb 2020 18:40:57.000,40.462,8.662,1549.279093
3 Feb 2020 18:40:58.000,40.537,8.566,1555.862384
3 Feb 2020 18:40:59.000,40.612,8.470,1562.449517
3 Feb 2020 18:41:00.000,40.686,8.375,1569.040435
3 Feb 2020 18:41:01.000,40.760,8.280,1575.635085
3 Feb 2020 18:41:02.000,40.833,8.185,1582.233408
3 Feb 2020 18:41:03.000,40.905,8.091,1588.835355
3 Feb 2020 18:41:04.000,40.977,7.998,1595.440872
3 Feb 2020 18:41:05.000,41.048,7.905,1602.049907
3 Feb 2020 18:41:06.000,41.118,7.813,1608.662407
3 Feb 2020 18:41:07.000,41.188,7.721,1615.278320
3 Feb 2020 18:41:08.000,41.258,7.629,1621.897601
3 Feb 2020 18:41:09.000,41.326,7.539,1628.520199
3 Feb 2020 18:41:10.000,41.395,7.448,1635.146065
3 Feb 2020 18:41:11.000,41.462,7.358,1641.775152
3 Feb 2020 18:41:12.000,41.529,7.268,1648.407411
3 Feb 2020 18:41:13.000,41.596,7.179,1655.042800
3 Feb 2020 18:41:14.000,41.662,7.091,1661.681271
3 Feb 2020 18:41:15.000,41.728,7.002,1668.322780
3 Feb 2020 18:41:16.000,41.793,6.915,1674.967283
3 Feb 2020 18:41:17.000,41.857,6.827,1681.614733
3 Feb 2020 18:41:18.000,41.921,6.740,1688.265093
3 Feb 2020 18:41:19.000,41.985,6.654,1694.918318
3 Feb 2020 18:41:20.000,42.048,6.568,1701.574366
3 Feb 2020 18:41:21.000,42.110,6.482,1708.233194
3 Feb 2020 18:41:22.000,42.172,6.397,1714.894767
3 Feb 2020 18:41:23.000,42.234,6.312,1721.559041
3 Feb 2020 18:41:24.000,42.295,6.228,1728.225979
3 Feb 2020 18:41:25.000,42.356,6.144,1734.895541
3 Feb 2020 18:41:26.000,42.416,6.060,1741.567686
3 Feb 2020 18:41:27.000,42.475,5.977,1748.242382
3 Feb 2020 18:41:28.000,42.535,5.894,1754.919590
3 Feb 2020 18:41:29.000,42.594,5.811,1761.599272
3 Feb 2020 18:41:30.000,42.652,5.729,1768.281390
3 Feb 2020 18:41:31.000,42.710,5.647,1774.965914
3 Feb 2020 18:41:32.000,42.768,5.566,1781.652806
3 Feb 2020 18:41:33.000,42.825,5.485,1788.342032
3 Feb 2020 18:41:34.000,42.881,5.404,1795.033554
3 Feb 2020 18:41:35.000,42.938,5.324,1801.727344
3 Feb 2020 18:41:36.000,42.994,5.244,1808.423367
3 Feb 2020 18:41:37.000,43.049,5.165,1815.121590
3 Feb 2020 18:41:38.000,43.104,5.085,1821.821980
3 Feb 2020 18:41:39.000,43.159,5.006,1828.524503
3 Feb 2020 18:41:40.000,43.213,4.928,1835.229133
3 Feb 2020 18:41:41.000,43.267,4.850,1841.935836
3 Feb 2020 18:41:42.000,43.321,4.772,1848.644582
3 Feb 2020 18:41:43.000,43.374,4.694,1855.355337
3 Feb 2020 18:41:44.000,43.427,4.617,1862.068078
3 Feb 2020 18:41:45.000,43.479,4.540,1868.782772
3 Feb 2020 18:41:46.000,43.531,4.464,1875.499389
3 Feb 2020 18:41:47.000,43.583,4.387,1882.217900
3 Feb 2020 18:41:48.000,43.634,4.311,1888.938280
3 Feb 2020 18:41:49.000,43.685,4.236,1895.660500
3 Feb 2020 18:41:50.000,43.736,4.160,1902.384531
3 Feb 2020 18:41:51.000,43.786,4.085,1909.110344
3 Feb 2020 18:41:52.000,43.836,4.011,1915.837918
3 Feb 2020 18:41:53.000,43.886,3.936,1922.567222
3 Feb 2020 18:41:54.000,43.935,3.862,1929.298232
3 Feb 2020 18:41:55.000,43.984,3.788,1936.030918
3 Feb 2020 18:41:56.000,44.033,3.715,1942.765261
3 Feb 2020 18:41:57.000,44.081,3.641,1949.501231
3 Feb 2020 18:41:58.000,44.129,3.568,1956.238806
3 Feb 2020 18:41:59.000,44.177,3.496,1962.977956
3 Feb 2020 18:42:00.000,44.224,3.423,1969.718664
3 Feb 2020 18:42:01.000,44.271,3.351,1976.460903
3 Feb 2020 18:42:02.000,44.318,3.279,1983.204649
3 Feb 2020 18:42:03.000,44.365,3.208,1989.949875
3 Feb 2020 18:42:04.000,44.411,3.136,1996.696565
3 Feb 2020 18:42:05.000,44.457,3.065,2003.444693
3 Feb 2020 18:42:06.000,44.502,2.994,2010.194235
3 Feb 2020 18:42:07.000,44.548,2.924,2016.945168
3 Feb 2020 18:42:08.000,44.593,2.854,2023.697475
3 Feb 2020 18:42:09.000,44.638,2.784,2030.451130
3 Feb 2020 18:42:10.000,44.682,2.714,2037.206113
3 Feb 2020 18:42:11.000,44.726,2.644,2043.962400
3 Feb 2020 18:42:12.000,44.770,2.575,2050.719975
3 Feb 2020 18:42:13.000,44.814,2.506,2057.478814
3 Feb 2020 18:42:14.000,44.857,2.437,2064.238898
3 Feb 2020 18:42:15.000,44.900,2.369,2071.000203
3 Feb 2020 18:42:16.000,44.943,2.300,2077.762714
3 Feb 2020 18:42:17.000,44.986,2.232,2084.526409
3 Feb 2020 18:42:18.000,45.028,2.164,2091.291269
3 Feb 2020 18:42:19.000,45.070,2.097,2098.057271
3 Feb 2020 18:42:20.000,45.112,2.029,2104.824402
3 Feb 2020 18:42:21.000,45.154,1.962,2111.592640
3 Feb 2020 18:42:22.000,45.195,1.895,2118.361966
3 Feb 2020 18:42:23.000,45.236,1.829,2125.132359
3 Feb 2020 18:42:24.000,45.277,1.762,2131.903807
3 Feb 2020 18:42:25.000,45.317,1.696,2138.676288
3 Feb 2020 18:42:26.000,45.358,1.630,2145.449785
3 Feb 2020 18:42:27.000,45.398,1.564,2152.224277
3 Feb 2020 18:42:28.000,45.438,1.498,2158.999752
3 Feb 2020 18:42:29.000,45.477,1.433,2165.776190
3 Feb 2020 18:42:30.000,45.517,1.368,2172.553575
3 Feb 2020 18:42:31.000,45.556,1.303,2179.331885
3 Feb 2020 18:42:32.000,45.595,1.238,2186.111111
3 Feb 2020 18:42:33.000,45.634,1.174,2192.891233
3 Feb 2020 18:42:34.000,45.672,1.109,2199.672234
3 Feb 2020 18:42:35.000,45.711,1.045,2206.454096
3 Feb 2020 18:42:36.000,45.749,0.981,2213.236808
3 Feb 2020 18:42:37.000,45.787,0.917,2220.020351
3 Feb 2020 18:42:38.000,45.824,0.854,2226.804707
3 Feb 2020 18:42:39.000,45.862,0.790,2233.589866
3 Feb 2020 18:42:40.000,45.899,0.727,2240.375810
