vcc_sched/network/input/aer_odugs_wj2xoh_vcc-b_44431.csv

"Time (UTCG)","Azimuth (deg)","Elevation (deg)","Range (km)"
7 Jan 2020 03:06:37.162,167.727,-0.124,2315.697846
7 Jan 2020 03:06:38.000,167.613,-0.089,2311.812350
7 Jan 2020 03:06:39.000,167.477,-0.048,2307.185205
7 Jan 2020 03:06:40.000,167.340,-0.006,2302.569858
7 Jan 2020 03:06:41.000,167.203,0.035,2297.966386
7 Jan 2020 03:06:42.000,167.065,0.077,2293.374869
7 Jan 2020 03:06:43.000,166.926,0.119,2288.795382
7 Jan 2020 03:06:44.000,166.787,0.160,2284.228005
7 Jan 2020 03:06:45.000,166.648,0.202,2279.672817
7 Jan 2020 03:06:46.000,166.508,0.243,2275.129897
7 Jan 2020 03:06:47.000,166.367,0.285,2270.599325
7 Jan 2020 03:06:48.000,166.226,0.326,2266.081179
7 Jan 2020 03:06:49.000,166.084,0.368,2261.575543
7 Jan 2020 03:06:50.000,165.942,0.409,2257.082495
7 Jan 2020 03:06:51.000,165.799,0.450,2252.602118
7 Jan 2020 03:06:52.000,165.655,0.492,2248.134493
7 Jan 2020 03:06:53.000,165.511,0.533,2243.679703
7 Jan 2020 03:06:54.000,165.367,0.574,2239.237829
7 Jan 2020 03:06:55.000,165.221,0.615,2234.808955
7 Jan 2020 03:06:56.000,165.076,0.657,2230.393164
7 Jan 2020 03:06:57.000,164.929,0.698,2225.990540
7 Jan 2020 03:06:58.000,164.782,0.739,2221.601168
7 Jan 2020 03:06:59.000,164.635,0.780,2217.225131
7 Jan 2020 03:07:00.000,164.486,0.821,2212.862515
7 Jan 2020 03:07:01.000,164.338,0.862,2208.513405
7 Jan 2020 03:07:02.000,164.188,0.903,2204.177887
7 Jan 2020 03:07:03.000,164.038,0.944,2199.856046
7 Jan 2020 03:07:04.000,163.888,0.985,2195.547971
7 Jan 2020 03:07:05.000,163.737,1.025,2191.253746
7 Jan 2020 03:07:06.000,163.585,1.066,2186.973462
7 Jan 2020 03:07:07.000,163.432,1.107,2182.707203
7 Jan 2020 03:07:08.000,163.279,1.147,2178.455059
7 Jan 2020 03:07:09.000,163.126,1.188,2174.217119
7 Jan 2020 03:07:10.000,162.972,1.229,2169.993470
7 Jan 2020 03:07:11.000,162.817,1.269,2165.784204
7 Jan 2020 03:07:12.000,162.661,1.310,2161.589409
7 Jan 2020 03:07:13.000,162.505,1.350,2157.409174
7 Jan 2020 03:07:14.000,162.349,1.390,2153.243593
7 Jan 2020 03:07:15.000,162.191,1.431,2149.092752
7 Jan 2020 03:07:16.000,162.034,1.471,2144.956747
7 Jan 2020 03:07:17.000,161.875,1.511,2140.835666
7 Jan 2020 03:07:18.000,161.716,1.551,2136.729602
7 Jan 2020 03:07:19.000,161.556,1.591,2132.638649
7 Jan 2020 03:07:20.000,161.396,1.631,2128.562897
7 Jan 2020 03:07:21.000,161.235,1.671,2124.502440
7 Jan 2020 03:07:22.000,161.073,1.711,2120.457373
7 Jan 2020 03:07:23.000,160.911,1.751,2116.427787
7 Jan 2020 03:07:24.000,160.748,1.790,2112.413778
7 Jan 2020 03:07:25.000,160.584,1.830,2108.415440
7 Jan 2020 03:07:26.000,160.420,1.870,2104.432867
7 Jan 2020 03:07:27.000,160.256,1.909,2100.466154
7 Jan 2020 03:07:28.000,160.090,1.948,2096.515398
7 Jan 2020 03:07:29.000,159.924,1.988,2092.580693
7 Jan 2020 03:07:30.000,159.757,2.027,2088.662136
7 Jan 2020 03:07:31.000,159.590,2.066,2084.759825
7 Jan 2020 03:07:32.000,159.422,2.105,2080.873853
7 Jan 2020 03:07:33.000,159.253,2.144,2077.004319
7 Jan 2020 03:07:34.000,159.084,2.183,2073.151321
7 Jan 2020 03:07:35.000,158.914,2.222,2069.314955
7 Jan 2020 03:07:36.000,158.744,2.261,2065.495320
7 Jan 2020 03:07:37.000,158.572,2.299,2061.692514
7 Jan 2020 03:07:38.000,158.401,2.338,2057.906637
7 Jan 2020 03:07:39.000,158.228,2.376,2054.137784
7 Jan 2020 03:07:40.000,158.055,2.415,2050.386057
7 Jan 2020 03:07:41.000,157.881,2.453,2046.651555
7 Jan 2020 03:07:42.000,157.707,2.491,2042.934379
7 Jan 2020 03:07:43.000,157.532,2.529,2039.234625
7 Jan 2020 03:07:44.000,157.356,2.567,2035.552395
7 Jan 2020 03:07:45.000,157.180,2.605,2031.887790
7 Jan 2020 03:07:46.000,157.002,2.643,2028.240911
7 Jan 2020 03:07:47.000,156.825,2.681,2024.611857
7 Jan 2020 03:07:48.000,156.646,2.718,2021.000729
7 Jan 2020 03:07:49.000,156.467,2.756,2017.407630
7 Jan 2020 03:07:50.000,156.288,2.793,2013.832660
7 Jan 2020 03:07:51.000,156.107,2.830,2010.275924
7 Jan 2020 03:07:52.000,155.926,2.868,2006.737518
7 Jan 2020 03:07:53.000,155.745,2.905,2003.217548
7 Jan 2020 03:07:54.000,155.563,2.941,1999.716116
7 Jan 2020 03:07:55.000,155.380,2.978,1996.233323
7 Jan 2020 03:07:56.000,155.196,3.015,1992.769273
7 Jan 2020 03:07:57.000,155.012,3.051,1989.324069
7 Jan 2020 03:07:58.000,154.827,3.088,1985.897811
7 Jan 2020 03:07:59.000,154.641,3.124,1982.490605
7 Jan 2020 03:08:00.000,154.455,3.160,1979.102552
7 Jan 2020 03:08:01.000,154.268,3.196,1975.733757
7 Jan 2020 03:08:02.000,154.081,3.232,1972.384323
7 Jan 2020 03:08:03.000,153.893,3.268,1969.054353
7 Jan 2020 03:08:04.000,153.704,3.303,1965.743950
7 Jan 2020 03:08:05.000,153.514,3.339,1962.453221
7 Jan 2020 03:08:06.000,153.324,3.374,1959.182265
7 Jan 2020 03:08:07.000,153.133,3.409,1955.931188
7 Jan 2020 03:08:08.000,152.942,3.444,1952.700094
7 Jan 2020 03:08:09.000,152.750,3.479,1949.489087
7 Jan 2020 03:08:10.000,152.557,3.514,1946.298270
7 Jan 2020 03:08:11.000,152.364,3.549,1943.127747
7 Jan 2020 03:08:12.000,152.170,3.583,1939.977624
7 Jan 2020 03:08:13.000,151.975,3.617,1936.848002
7 Jan 2020 03:08:14.000,151.780,3.651,1933.738987
7 Jan 2020 03:08:15.000,151.584,3.685,1930.650683
7 Jan 2020 03:08:16.000,151.387,3.719,1927.583193
7 Jan 2020 03:08:17.000,151.190,3.753,1924.536621
7 Jan 2020 03:08:18.000,150.992,3.786,1921.511071
7 Jan 2020 03:08:19.000,150.793,3.820,1918.506647
7 Jan 2020 03:08:20.000,150.594,3.853,1915.523452
7 Jan 2020 03:08:21.000,150.394,3.886,1912.561590
7 Jan 2020 03:08:22.000,150.194,3.918,1909.621165
7 Jan 2020 03:08:23.000,149.992,3.951,1906.702280
7 Jan 2020 03:08:24.000,149.791,3.983,1903.805037
7 Jan 2020 03:08:25.000,149.588,4.016,1900.929541
7 Jan 2020 03:08:26.000,149.385,4.048,1898.075894
7 Jan 2020 03:08:27.000,149.182,4.080,1895.244200
7 Jan 2020 03:08:28.000,148.977,4.111,1892.434559
7 Jan 2020 03:08:29.000,148.772,4.143,1889.647076
7 Jan 2020 03:08:30.000,148.567,4.174,1886.881852
7 Jan 2020 03:08:31.000,148.361,4.205,1884.138989
7 Jan 2020 03:08:32.000,148.154,4.236,1881.418589
7 Jan 2020 03:08:33.000,147.946,4.267,1878.720753
7 Jan 2020 03:08:34.000,147.738,4.297,1876.045583
7 Jan 2020 03:08:35.000,147.530,4.328,1873.393178
7 Jan 2020 03:08:36.000,147.321,4.358,1870.763642
7 Jan 2020 03:08:37.000,147.111,4.388,1868.157074
7 Jan 2020 03:08:38.000,146.900,4.417,1865.573574
7 Jan 2020 03:08:39.000,146.689,4.447,1863.013242
7 Jan 2020 03:08:40.000,146.477,4.476,1860.476176
7 Jan 2020 03:08:41.000,146.265,4.505,1857.962477
7 Jan 2020 03:08:42.000,146.052,4.534,1855.472240
7 Jan 2020 03:08:43.000,145.839,4.562,1853.005568
7 Jan 2020 03:08:44.000,145.625,4.591,1850.562557
7 Jan 2020 03:08:45.000,145.410,4.619,1848.143304
7 Jan 2020 03:08:46.000,145.195,4.647,1845.747907
7 Jan 2020 03:08:47.000,144.979,4.675,1843.376459
7 Jan 2020 03:08:48.000,144.763,4.702,1841.029061
7 Jan 2020 03:08:49.000,144.546,4.729,1838.705807
7 Jan 2020 03:08:50.000,144.329,4.756,1836.406791
7 Jan 2020 03:08:51.000,144.110,4.783,1834.132108
7 Jan 2020 03:08:52.000,143.892,4.809,1831.881851
7 Jan 2020 03:08:53.000,143.673,4.836,1829.656116
7 Jan 2020 03:08:54.000,143.453,4.862,1827.454995
7 Jan 2020 03:08:55.000,143.233,4.887,1825.278580
7 Jan 2020 03:08:56.000,143.012,4.913,1823.126960
7 Jan 2020 03:08:57.000,142.791,4.938,1821.000232
7 Jan 2020 03:08:58.000,142.569,4.963,1818.898483
7 Jan 2020 03:08:59.000,142.346,4.988,1816.821801
7 Jan 2020 03:09:00.000,142.123,5.012,1814.770280
7 Jan 2020 03:09:01.000,141.900,5.036,1812.744007
7 Jan 2020 03:09:02.000,141.676,5.060,1810.743066
7 Jan 2020 03:09:03.000,141.451,5.084,1808.767550
7 Jan 2020 03:09:04.000,141.226,5.107,1806.817542
7 Jan 2020 03:09:05.000,141.001,5.131,1804.893126
7 Jan 2020 03:09:06.000,140.775,5.153,1802.994392
7 Jan 2020 03:09:07.000,140.548,5.176,1801.121422
7 Jan 2020 03:09:08.000,140.321,5.198,1799.274295
7 Jan 2020 03:09:09.000,140.094,5.220,1797.453101
7 Jan 2020 03:09:10.000,139.866,5.242,1795.657916
7 Jan 2020 03:09:11.000,139.637,5.264,1793.888825
7 Jan 2020 03:09:12.000,139.408,5.285,1792.145906
7 Jan 2020 03:09:13.000,139.179,5.306,1790.429236
7 Jan 2020 03:09:14.000,138.949,5.326,1788.738899
7 Jan 2020 03:09:15.000,138.719,5.346,1787.074966
7 Jan 2020 03:09:16.000,138.488,5.366,1785.437519
7 Jan 2020 03:09:17.000,138.257,5.386,1783.826629
7 Jan 2020 03:09:18.000,138.026,5.406,1782.242376
7 Jan 2020 03:09:19.000,137.794,5.425,1780.684830
7 Jan 2020 03:09:20.000,137.561,5.444,1779.154062
7 Jan 2020 03:09:21.000,137.328,5.462,1777.650148
7 Jan 2020 03:09:22.000,137.095,5.480,1776.173154
7 Jan 2020 03:09:23.000,136.861,5.498,1774.723156
7 Jan 2020 03:09:24.000,136.627,5.516,1773.300215
7 Jan 2020 03:09:25.000,136.393,5.533,1771.904403
7 Jan 2020 03:09:26.000,136.158,5.550,1770.535789
7 Jan 2020 03:09:27.000,135.923,5.567,1769.194433
7 Jan 2020 03:09:28.000,135.687,5.583,1767.880404
7 Jan 2020 03:09:29.000,135.451,5.599,1766.593761
7 Jan 2020 03:09:30.000,135.215,5.615,1765.334570
7 Jan 2020 03:09:31.000,134.978,5.630,1764.102889
7 Jan 2020 03:09:32.000,134.742,5.645,1762.898780
7 Jan 2020 03:09:33.000,134.504,5.660,1761.722299
7 Jan 2020 03:09:34.000,134.267,5.674,1760.573505
7 Jan 2020 03:09:35.000,134.029,5.688,1759.452457
7 Jan 2020 03:09:36.000,133.790,5.702,1758.359205
7 Jan 2020 03:09:37.000,133.552,5.715,1757.293805
7 Jan 2020 03:09:38.000,133.313,5.728,1756.256313
7 Jan 2020 03:09:39.000,133.074,5.741,1755.246775
7 Jan 2020 03:09:40.000,132.834,5.753,1754.265243
7 Jan 2020 03:09:41.000,132.594,5.766,1753.311770
7 Jan 2020 03:09:42.000,132.354,5.777,1752.386397
7 Jan 2020 03:09:43.000,132.114,5.789,1751.489173
7 Jan 2020 03:09:44.000,131.874,5.800,1750.620147
7 Jan 2020 03:09:45.000,131.633,5.810,1749.779357
7 Jan 2020 03:09:46.000,131.392,5.821,1748.966847
7 Jan 2020 03:09:47.000,131.151,5.831,1748.182659
7 Jan 2020 03:09:48.000,130.909,5.840,1747.426835
7 Jan 2020 03:09:49.000,130.668,5.850,1746.699408
7 Jan 2020 03:09:50.000,130.426,5.859,1746.000418
7 Jan 2020 03:09:51.000,130.184,5.867,1745.329901
7 Jan 2020 03:09:52.000,129.941,5.876,1744.687893
7 Jan 2020 03:09:53.000,129.699,5.884,1744.074423
7 Jan 2020 03:09:54.000,129.456,5.891,1743.489524
7 Jan 2020 03:09:55.000,129.213,5.898,1742.933227
7 Jan 2020 03:09:56.000,128.971,5.905,1742.405560
7 Jan 2020 03:09:57.000,128.727,5.912,1741.906554
7 Jan 2020 03:09:58.000,128.484,5.918,1741.436228
7 Jan 2020 03:09:59.000,128.241,5.924,1740.994610
7 Jan 2020 03:10:00.000,127.997,5.929,1740.581724
7 Jan 2020 03:10:01.000,127.754,5.934,1740.197590
7 Jan 2020 03:10:02.000,127.510,5.939,1739.842229
7 Jan 2020 03:10:03.000,127.266,5.943,1739.515660
7 Jan 2020 03:10:04.000,127.022,5.947,1739.217903
7 Jan 2020 03:10:05.000,126.778,5.951,1738.948967
7 Jan 2020 03:10:06.000,126.534,5.954,1738.708871
7 Jan 2020 03:10:07.000,126.290,5.957,1738.497627
7 Jan 2020 03:10:08.000,126.046,5.960,1738.315246
7 Jan 2020 03:10:09.000,125.801,5.962,1738.161739
7 Jan 2020 03:10:10.000,125.557,5.964,1738.037113
7 Jan 2020 03:10:11.000,125.313,5.965,1737.941377
7 Jan 2020 03:10:12.000,125.068,5.967,1737.874536
7 Jan 2020 03:10:13.000,124.824,5.967,1737.836593
7 Jan 2020 03:10:14.000,124.580,5.968,1737.827551
7 Jan 2020 03:10:15.000,124.335,5.968,1737.847412
7 Jan 2020 03:10:16.000,124.091,5.968,1737.896175
7 Jan 2020 03:10:17.000,123.847,5.967,1737.973838
7 Jan 2020 03:10:18.000,123.602,5.966,1738.080398
7 Jan 2020 03:10:19.000,123.358,5.964,1738.215850
7 Jan 2020 03:10:20.000,123.114,5.963,1738.380188
7 Jan 2020 03:10:21.000,122.870,5.961,1738.573405
7 Jan 2020 03:10:22.000,122.625,5.958,1738.795490
7 Jan 2020 03:10:23.000,122.381,5.955,1739.046434
7 Jan 2020 03:10:24.000,122.137,5.952,1739.326224
7 Jan 2020 03:10:25.000,121.893,5.949,1739.634847
7 Jan 2020 03:10:26.000,121.650,5.945,1739.972284
7 Jan 2020 03:10:27.000,121.406,5.940,1740.338526
7 Jan 2020 03:10:28.000,121.162,5.936,1740.733550
7 Jan 2020 03:10:29.000,120.919,5.931,1741.157338
7 Jan 2020 03:10:30.000,120.676,5.926,1741.609870
7 Jan 2020 03:10:31.000,120.432,5.920,1742.091122
7 Jan 2020 03:10:32.000,120.189,5.914,1742.601070
7 Jan 2020 03:10:33.000,119.946,5.907,1743.139688
7 Jan 2020 03:10:34.000,119.704,5.901,1743.706953
7 Jan 2020 03:10:35.000,119.461,5.894,1744.302836
7 Jan 2020 03:10:36.000,119.219,5.886,1744.927307
7 Jan 2020 03:10:37.000,118.976,5.878,1745.580335
7 Jan 2020 03:10:38.000,118.734,5.870,1746.261885
7 Jan 2020 03:10:39.000,118.493,5.862,1746.971929
7 Jan 2020 03:10:40.000,118.251,5.853,1747.710430
7 Jan 2020 03:10:41.000,118.010,5.844,1748.477351
7 Jan 2020 03:10:42.000,117.768,5.834,1749.272651
7 Jan 2020 03:10:43.000,117.528,5.824,1750.096298
7 Jan 2020 03:10:44.000,117.287,5.814,1750.948248
7 Jan 2020 03:10:45.000,117.046,5.803,1751.828460
7 Jan 2020 03:10:46.000,116.806,5.793,1752.736887
7 Jan 2020 03:10:47.000,116.566,5.781,1753.673491
7 Jan 2020 03:10:48.000,116.327,5.770,1754.638225
7 Jan 2020 03:10:49.000,116.087,5.758,1755.631036
7 Jan 2020 03:10:50.000,115.848,5.746,1756.651885
7 Jan 2020 03:10:51.000,115.609,5.733,1757.700718
7 Jan 2020 03:10:52.000,115.371,5.720,1758.777481
7 Jan 2020 03:10:53.000,115.133,5.707,1759.882128
7 Jan 2020 03:10:54.000,114.895,5.693,1761.014605
7 Jan 2020 03:10:55.000,114.657,5.679,1762.174852
7 Jan 2020 03:10:56.000,114.420,5.665,1763.362821
7 Jan 2020 03:10:57.000,114.183,5.650,1764.578448
7 Jan 2020 03:10:58.000,113.947,5.635,1765.821683
7 Jan 2020 03:10:59.000,113.711,5.620,1767.092462
7 Jan 2020 03:11:00.000,113.475,5.605,1768.390722
7 Jan 2020 03:11:01.000,113.239,5.589,1769.716408
7 Jan 2020 03:11:02.000,113.004,5.573,1771.069452
7 Jan 2020 03:11:03.000,112.770,5.556,1772.449796
7 Jan 2020 03:11:04.000,112.535,5.539,1773.857368
7 Jan 2020 03:11:05.000,112.301,5.522,1775.292110
7 Jan 2020 03:11:06.000,112.068,5.505,1776.753948
7 Jan 2020 03:11:07.000,111.835,5.487,1778.242821
7 Jan 2020 03:11:08.000,111.602,5.469,1779.758653
7 Jan 2020 03:11:09.000,111.370,5.450,1781.301380
7 Jan 2020 03:11:10.000,111.138,5.432,1782.870926
7 Jan 2020 03:11:11.000,110.906,5.413,1784.467224
7 Jan 2020 03:11:12.000,110.675,5.394,1786.090195
7 Jan 2020 03:11:13.000,110.445,5.374,1787.739772
7 Jan 2020 03:11:14.000,110.215,5.354,1789.415872
7 Jan 2020 03:11:15.000,109.985,5.334,1791.118428
7 Jan 2020 03:11:16.000,109.756,5.313,1792.847355
7 Jan 2020 03:11:17.000,109.527,5.293,1794.602579
7 Jan 2020 03:11:18.000,109.299,5.272,1796.384025
7 Jan 2020 03:11:19.000,109.071,5.250,1798.191607
7 Jan 2020 03:11:20.000,108.844,5.229,1800.025250
7 Jan 2020 03:11:21.000,108.617,5.207,1801.884868
7 Jan 2020 03:11:22.000,108.391,5.185,1803.770382
7 Jan 2020 03:11:23.000,108.165,5.162,1805.681712
7 Jan 2020 03:11:24.000,107.939,5.140,1807.618768
7 Jan 2020 03:11:25.000,107.715,5.117,1809.581468
7 Jan 2020 03:11:26.000,107.490,5.093,1811.569733
7 Jan 2020 03:11:27.000,107.267,5.070,1813.583467
7 Jan 2020 03:11:28.000,107.043,5.046,1815.622589
7 Jan 2020 03:11:29.000,106.821,5.022,1817.687015
7 Jan 2020 03:11:30.000,106.598,4.998,1819.776650
7 Jan 2020 03:11:31.000,106.377,4.973,1821.891408
7 Jan 2020 03:11:32.000,106.155,4.948,1824.031204
7 Jan 2020 03:11:33.000,105.935,4.923,1826.195940
7 Jan 2020 03:11:34.000,105.715,4.898,1828.385531
7 Jan 2020 03:11:35.000,105.495,4.872,1830.599883
7 Jan 2020 03:11:36.000,105.276,4.846,1832.838910
7 Jan 2020 03:11:37.000,105.058,4.820,1835.102512
7 Jan 2020 03:11:38.000,104.840,4.794,1837.390599
7 Jan 2020 03:11:39.000,104.623,4.767,1839.703078
7 Jan 2020 03:11:40.000,104.406,4.740,1842.039858
7 Jan 2020 03:11:41.000,104.190,4.713,1844.400838
7 Jan 2020 03:11:42.000,103.975,4.686,1846.785926
7 Jan 2020 03:11:43.000,103.760,4.658,1849.195026
7 Jan 2020 03:11:44.000,103.545,4.631,1851.628047
7 Jan 2020 03:11:45.000,103.331,4.603,1854.084884
7 Jan 2020 03:11:46.000,103.118,4.575,1856.565445
7 Jan 2020 03:11:47.000,102.906,4.546,1859.069631
7 Jan 2020 03:11:48.000,102.694,4.517,1861.597345
7 Jan 2020 03:11:49.000,102.482,4.489,1864.148489
7 Jan 2020 03:11:50.000,102.272,4.459,1866.722968
7 Jan 2020 03:11:51.000,102.061,4.430,1869.320675
7 Jan 2020 03:11:52.000,101.852,4.401,1871.941516
7 Jan 2020 03:11:53.000,101.643,4.371,1874.585391
7 Jan 2020 03:11:54.000,101.434,4.341,1877.252199
7 Jan 2020 03:11:55.000,101.227,4.311,1879.941841
7 Jan 2020 03:11:56.000,101.020,4.280,1882.654215
7 Jan 2020 03:11:57.000,100.813,4.250,1885.389222
7 Jan 2020 03:11:58.000,100.607,4.219,1888.146760
7 Jan 2020 03:11:59.000,100.402,4.188,1890.926727
7 Jan 2020 03:12:00.000,100.197,4.157,1893.729026
7 Jan 2020 03:12:01.000,99.993,4.126,1896.553549
7 Jan 2020 03:12:02.000,99.790,4.094,1899.400195
7 Jan 2020 03:12:03.000,99.587,4.062,1902.268864
7 Jan 2020 03:12:04.000,99.385,4.030,1905.159453
7 Jan 2020 03:12:05.000,99.184,3.998,1908.071859
7 Jan 2020 03:12:06.000,98.983,3.966,1911.005980
7 Jan 2020 03:12:07.000,98.783,3.934,1913.961713
7 Jan 2020 03:12:08.000,98.583,3.901,1916.938955
7 Jan 2020 03:12:09.000,98.385,3.868,1919.937603
7 Jan 2020 03:12:10.000,98.186,3.835,1922.957554
7 Jan 2020 03:12:11.000,97.989,3.802,1925.998704
7 Jan 2020 03:12:12.000,97.792,3.769,1929.060950
7 Jan 2020 03:12:13.000,97.596,3.735,1932.144188
7 Jan 2020 03:12:14.000,97.400,3.701,1935.248316
7 Jan 2020 03:12:15.000,97.205,3.668,1938.373229
7 Jan 2020 03:12:16.000,97.011,3.634,1941.518825
7 Jan 2020 03:12:17.000,96.817,3.600,1944.684999
7 Jan 2020 03:12:18.000,96.624,3.565,1947.871648
7 Jan 2020 03:12:19.000,96.432,3.531,1951.078664
7 Jan 2020 03:12:20.000,96.240,3.496,1954.305952
7 Jan 2020 03:12:21.000,96.049,3.461,1957.553404
7 Jan 2020 03:12:22.000,95.858,3.427,1960.820916
7 Jan 2020 03:12:23.000,95.669,3.392,1964.108386
7 Jan 2020 03:12:24.000,95.480,3.356,1967.415709
7 Jan 2020 03:12:25.000,95.291,3.321,1970.742782
7 Jan 2020 03:12:26.000,95.103,3.286,1974.089503
7 Jan 2020 03:12:27.000,94.916,3.250,1977.455767
7 Jan 2020 03:12:28.000,94.730,3.214,1980.841471
7 Jan 2020 03:12:29.000,94.544,3.178,1984.246510
7 Jan 2020 03:12:30.000,94.359,3.142,1987.670787
7 Jan 2020 03:12:31.000,94.174,3.106,1991.114195
7 Jan 2020 03:12:32.000,93.991,3.070,1994.576633
7 Jan 2020 03:12:33.000,93.807,3.034,1998.057997
7 Jan 2020 03:12:34.000,93.625,2.997,2001.558185
7 Jan 2020 03:12:35.000,93.443,2.960,2005.077095
7 Jan 2020 03:12:36.000,93.262,2.924,2008.614621
7 Jan 2020 03:12:37.000,93.082,2.887,2012.170668
7 Jan 2020 03:12:38.000,92.902,2.850,2015.745132
7 Jan 2020 03:12:39.000,92.722,2.813,2019.337910
7 Jan 2020 03:12:40.000,92.544,2.775,2022.948901
7 Jan 2020 03:12:41.000,92.366,2.738,2026.578001
7 Jan 2020 03:12:42.000,92.189,2.701,2030.225115
7 Jan 2020 03:12:43.000,92.012,2.663,2033.890140
7 Jan 2020 03:12:44.000,91.836,2.626,2037.572974
7 Jan 2020 03:12:45.000,91.661,2.588,2041.273514
7 Jan 2020 03:12:46.000,91.487,2.550,2044.991667
7 Jan 2020 03:12:47.000,91.313,2.512,2048.727330
7 Jan 2020 03:12:48.000,91.139,2.474,2052.480402
7 Jan 2020 03:12:49.000,90.967,2.436,2056.250782
7 Jan 2020 03:12:50.000,90.795,2.397,2060.038376
7 Jan 2020 03:12:51.000,90.623,2.359,2063.843084
7 Jan 2020 03:12:52.000,90.453,2.321,2067.664805
7 Jan 2020 03:12:53.000,90.283,2.282,2071.503439
7 Jan 2020 03:12:54.000,90.113,2.244,2075.358895
7 Jan 2020 03:12:55.000,89.945,2.205,2079.231071
7 Jan 2020 03:12:56.000,89.777,2.166,2083.119870
7 Jan 2020 03:12:57.000,89.609,2.127,2087.025191
7 Jan 2020 03:12:58.000,89.442,2.088,2090.946945
7 Jan 2020 03:12:59.000,89.276,2.049,2094.885031
7 Jan 2020 03:13:00.000,89.111,2.010,2098.839350
7 Jan 2020 03:13:01.000,88.946,1.971,2102.809813
7 Jan 2020 03:13:02.000,88.782,1.931,2106.796322
7 Jan 2020 03:13:03.000,88.618,1.892,2110.798776
7 Jan 2020 03:13:04.000,88.455,1.853,2114.817089
7 Jan 2020 03:13:05.000,88.293,1.813,2118.851163
7 Jan 2020 03:13:06.000,88.131,1.774,2122.900899
7 Jan 2020 03:13:07.000,87.970,1.734,2126.966211
7 Jan 2020 03:13:08.000,87.810,1.694,2131.047002
7 Jan 2020 03:13:09.000,87.650,1.654,2135.143175
7 Jan 2020 03:13:10.000,87.491,1.615,2139.254644
7 Jan 2020 03:13:11.000,87.332,1.575,2143.381310
7 Jan 2020 03:13:12.000,87.174,1.535,2147.523088
7 Jan 2020 03:13:13.000,87.017,1.495,2151.679883
7 Jan 2020 03:13:14.000,86.860,1.454,2155.851599
7 Jan 2020 03:13:15.000,86.704,1.414,2160.038153
7 Jan 2020 03:13:16.000,86.549,1.374,2164.239451
7 Jan 2020 03:13:17.000,86.394,1.334,2168.455398
7 Jan 2020 03:13:18.000,86.240,1.293,2172.685912
7 Jan 2020 03:13:19.000,86.086,1.253,2176.930896
7 Jan 2020 03:13:20.000,85.933,1.213,2181.190269
7 Jan 2020 03:13:21.000,85.781,1.172,2185.463934
7 Jan 2020 03:13:22.000,85.629,1.132,2189.751811
7 Jan 2020 03:13:23.000,85.478,1.091,2194.053807
7 Jan 2020 03:13:24.000,85.328,1.050,2198.369831
7 Jan 2020 03:13:25.000,85.178,1.010,2202.699804
7 Jan 2020 03:13:26.000,85.029,0.969,2207.043631
7 Jan 2020 03:13:27.000,84.880,0.928,2211.401234
7 Jan 2020 03:13:28.000,84.732,0.887,2215.772518
7 Jan 2020 03:13:29.000,84.584,0.846,2220.157406
7 Jan 2020 03:13:30.000,84.437,0.805,2224.555805
7 Jan 2020 03:13:31.000,84.291,0.764,2228.967638
7 Jan 2020 03:13:32.000,84.145,0.723,2233.392817
7 Jan 2020 03:13:33.000,84.000,0.682,2237.831253
7 Jan 2020 03:13:34.000,83.856,0.641,2242.282870
7 Jan 2020 03:13:35.000,83.712,0.600,2246.747579
7 Jan 2020 03:13:36.000,83.568,0.559,2251.225303
7 Jan 2020 03:13:37.000,83.426,0.518,2255.715952
7 Jan 2020 03:13:38.000,83.283,0.477,2260.219453
7 Jan 2020 03:13:39.000,83.142,0.435,2264.735716
7 Jan 2020 03:13:40.000,83.001,0.394,2269.264667
7 Jan 2020 03:13:41.000,82.860,0.353,2273.806218
7 Jan 2020 03:13:42.000,82.720,0.311,2278.360296
7 Jan 2020 03:13:43.000,82.581,0.270,2282.926814
7 Jan 2020 03:13:44.000,82.442,0.229,2287.505696
7 Jan 2020 03:13:45.000,82.304,0.187,2292.096866
7 Jan 2020 03:13:46.000,82.167,0.146,2296.700239
7 Jan 2020 03:13:47.000,82.029,0.104,2301.315743
7 Jan 2020 03:13:48.000,81.893,0.063,2305.943293
7 Jan 2020 03:13:49.000,81.757,0.021,2310.582819
7 Jan 2020 03:13:50.000,81.622,-0.020,2315.234236
7 Jan 2020 03:13:51.000,81.487,-0.062,2319.897475
7 Jan 2020 03:13:52.000,81.352,-0.104,2324.572453
7 Jan 2020 03:13:52.490,81.287,-0.124,2326.868332
7 Jan 2020 04:40:47.047,225.729,-0.124,2318.650588
7 Jan 2020 04:40:48.000,225.725,-0.065,2312.043292
7 Jan 2020 04:40:49.000,225.722,-0.002,2305.113324
7 Jan 2020 04:40:50.000,225.718,0.060,2298.183382
7 Jan 2020 04:40:51.000,225.714,0.123,2291.253473
7 Jan 2020 04:40:52.000,225.711,0.186,2284.323609
7 Jan 2020 04:40:53.000,225.707,0.249,2277.393798
7 Jan 2020 04:40:54.000,225.703,0.312,2270.464045
7 Jan 2020 04:40:55.000,225.699,0.376,2263.534364
7 Jan 2020 04:40:56.000,225.696,0.439,2256.604761
7 Jan 2020 04:40:57.000,225.692,0.503,2249.675244
7 Jan 2020 04:40:58.000,225.688,0.567,2242.745825
7 Jan 2020 04:40:59.000,225.684,0.632,2235.816512
7 Jan 2020 04:41:00.000,225.680,0.696,2228.887314
7 Jan 2020 04:41:01.000,225.676,0.761,2221.958238
7 Jan 2020 04:41:02.000,225.672,0.826,2215.029298
7 Jan 2020 04:41:03.000,225.668,0.891,2208.100501
7 Jan 2020 04:41:04.000,225.664,0.956,2201.171854
7 Jan 2020 04:41:05.000,225.659,1.022,2194.243372
7 Jan 2020 04:41:06.000,225.655,1.088,2187.315062
7 Jan 2020 04:41:07.000,225.651,1.154,2180.386932
7 Jan 2020 04:41:08.000,225.647,1.220,2173.458997
7 Jan 2020 04:41:09.000,225.642,1.286,2166.531264
7 Jan 2020 04:41:10.000,225.638,1.353,2159.603741
7 Jan 2020 04:41:11.000,225.634,1.420,2152.676443
7 Jan 2020 04:41:12.000,225.629,1.487,2145.749379
7 Jan 2020 04:41:13.000,225.625,1.554,2138.822555
7 Jan 2020 04:41:14.000,225.620,1.622,2131.895988
7 Jan 2020 04:41:15.000,225.616,1.690,2124.969686
7 Jan 2020 04:41:16.000,225.611,1.758,2118.043660
7 Jan 2020 04:41:17.000,225.606,1.826,2111.117919
7 Jan 2020 04:41:18.000,225.602,1.895,2104.192477
7 Jan 2020 04:41:19.000,225.597,1.964,2097.267345
7 Jan 2020 04:41:20.000,225.592,2.033,2090.342531
7 Jan 2020 04:41:21.000,225.587,2.102,2083.418051
7 Jan 2020 04:41:22.000,225.583,2.172,2076.493914
7 Jan 2020 04:41:23.000,225.578,2.241,2069.570130
7 Jan 2020 04:41:24.000,225.573,2.311,2062.646716
7 Jan 2020 04:41:25.000,225.568,2.382,2055.723680
7 Jan 2020 04:41:26.000,225.563,2.452,2048.801033
7 Jan 2020 04:41:27.000,225.558,2.523,2041.878791
7 Jan 2020 04:41:28.000,225.552,2.594,2034.956965
7 Jan 2020 04:41:29.000,225.547,2.666,2028.035567
7 Jan 2020 04:41:30.000,225.542,2.738,2021.114607
7 Jan 2020 04:41:31.000,225.537,2.810,2014.194103
7 Jan 2020 04:41:32.000,225.531,2.882,2007.274065
7 Jan 2020 04:41:33.000,225.526,2.954,2000.354504
7 Jan 2020 04:41:34.000,225.521,3.027,1993.435439
7 Jan 2020 04:41:35.000,225.515,3.100,1986.516879
7 Jan 2020 04:41:36.000,225.510,3.174,1979.598836
7 Jan 2020 04:41:37.000,225.504,3.247,1972.681330
7 Jan 2020 04:41:38.000,225.498,3.321,1965.764370
7 Jan 2020 04:41:39.000,225.493,3.396,1958.847969
7 Jan 2020 04:41:40.000,225.487,3.470,1951.932146
7 Jan 2020 04:41:41.000,225.481,3.545,1945.016912
7 Jan 2020 04:41:42.000,225.475,3.621,1938.102283
7 Jan 2020 04:41:43.000,225.469,3.696,1931.188270
7 Jan 2020 04:41:44.000,225.464,3.772,1924.274894
7 Jan 2020 04:41:45.000,225.457,3.848,1917.362166
7 Jan 2020 04:41:46.000,225.451,3.925,1910.450101
7 Jan 2020 04:41:47.000,225.445,4.002,1903.538717
7 Jan 2020 04:41:48.000,225.439,4.079,1896.628029
7 Jan 2020 04:41:49.000,225.433,4.156,1889.718049
7 Jan 2020 04:41:50.000,225.427,4.234,1882.808800
7 Jan 2020 04:41:51.000,225.420,4.312,1875.900293
7 Jan 2020 04:41:52.000,225.414,4.391,1868.992544
7 Jan 2020 04:41:53.000,225.407,4.470,1862.085575
7 Jan 2020 04:41:54.000,225.401,4.549,1855.179399
7 Jan 2020 04:41:55.000,225.394,4.629,1848.274033
7 Jan 2020 04:41:56.000,225.387,4.709,1841.369493
7 Jan 2020 04:41:57.000,225.381,4.789,1834.465801
7 Jan 2020 04:41:58.000,225.374,4.870,1827.562972
7 Jan 2020 04:41:59.000,225.367,4.951,1820.661022
7 Jan 2020 04:42:00.000,225.360,5.032,1813.759974
7 Jan 2020 04:42:01.000,225.353,5.114,1806.859845
7 Jan 2020 04:42:02.000,225.346,5.196,1799.960649
7 Jan 2020 04:42:03.000,225.339,5.279,1793.062413
7 Jan 2020 04:42:04.000,225.331,5.362,1786.165151
7 Jan 2020 04:42:05.000,225.324,5.445,1779.268884
7 Jan 2020 04:42:06.000,225.317,5.529,1772.373629
7 Jan 2020 04:42:07.000,225.309,5.614,1765.479411
7 Jan 2020 04:42:08.000,225.302,5.698,1758.586249
7 Jan 2020 04:42:09.000,225.294,5.783,1751.694159
7 Jan 2020 04:42:10.000,225.286,5.869,1744.803169
7 Jan 2020 04:42:11.000,225.278,5.955,1737.913296
7 Jan 2020 04:42:12.000,225.271,6.041,1731.024560
7 Jan 2020 04:42:13.000,225.263,6.128,1724.136988
7 Jan 2020 04:42:14.000,225.255,6.215,1717.250599
7 Jan 2020 04:42:15.000,225.246,6.303,1710.365417
7 Jan 2020 04:42:16.000,225.238,6.391,1703.481460
7 Jan 2020 04:42:17.000,225.230,6.480,1696.598758
7 Jan 2020 04:42:18.000,225.222,6.569,1689.717330
7 Jan 2020 04:42:19.000,225.213,6.658,1682.837200
7 Jan 2020 04:42:20.000,225.205,6.749,1675.958395
7 Jan 2020 04:42:21.000,225.196,6.839,1669.080938
7 Jan 2020 04:42:22.000,225.187,6.930,1662.204852
7 Jan 2020 04:42:23.000,225.178,7.022,1655.330166
7 Jan 2020 04:42:24.000,225.170,7.114,1648.456903
7 Jan 2020 04:42:25.000,225.161,7.206,1641.585091
7 Jan 2020 04:42:26.000,225.151,7.299,1634.714751
7 Jan 2020 04:42:27.000,225.142,7.393,1627.845918
7 Jan 2020 04:42:28.000,225.133,7.487,1620.978615
7 Jan 2020 04:42:29.000,225.124,7.582,1614.112867
7 Jan 2020 04:42:30.000,225.114,7.677,1607.248708
7 Jan 2020 04:42:31.000,225.104,7.773,1600.386163
7 Jan 2020 04:42:32.000,225.095,7.869,1593.525262
7 Jan 2020 04:42:33.000,225.085,7.966,1586.666032
7 Jan 2020 04:42:34.000,225.075,8.063,1579.808508
7 Jan 2020 04:42:35.000,225.065,8.161,1572.952717
7 Jan 2020 04:42:36.000,225.055,8.260,1566.098687
7 Jan 2020 04:42:37.000,225.045,8.359,1559.246457
7 Jan 2020 04:42:38.000,225.034,8.459,1552.396054
7 Jan 2020 04:42:39.000,225.024,8.559,1545.547511
7 Jan 2020 04:42:40.000,225.013,8.660,1538.700859
7 Jan 2020 04:42:41.000,225.002,8.762,1531.856136
7 Jan 2020 04:42:42.000,224.992,8.864,1525.013374
7 Jan 2020 04:42:43.000,224.981,8.967,1518.172604
7 Jan 2020 04:42:44.000,224.970,9.070,1511.333868
7 Jan 2020 04:42:45.000,224.958,9.175,1504.497199
7 Jan 2020 04:42:46.000,224.947,9.279,1497.662632
7 Jan 2020 04:42:47.000,224.936,9.385,1490.830202
7 Jan 2020 04:42:48.000,224.924,9.491,1483.999953
7 Jan 2020 04:42:49.000,224.912,9.598,1477.171920
7 Jan 2020 04:42:50.000,224.900,9.706,1470.346138
7 Jan 2020 04:42:51.000,224.888,9.814,1463.522654
7 Jan 2020 04:42:52.000,224.876,9.923,1456.701505
7 Jan 2020 04:42:53.000,224.864,10.033,1449.882732
7 Jan 2020 04:42:54.000,224.851,10.143,1443.066374
7 Jan 2020 04:42:55.000,224.839,10.255,1436.252478
7 Jan 2020 04:42:56.000,224.826,10.367,1429.441086
7 Jan 2020 04:42:57.000,224.813,10.480,1422.632242
7 Jan 2020 04:42:58.000,224.800,10.593,1415.825987
7 Jan 2020 04:42:59.000,224.787,10.708,1409.022373
7 Jan 2020 04:43:00.000,224.774,10.823,1402.221443
7 Jan 2020 04:43:01.000,224.760,10.939,1395.423243
7 Jan 2020 04:43:02.000,224.747,11.056,1388.627825
7 Jan 2020 04:43:03.000,224.733,11.173,1381.835236
7 Jan 2020 04:43:04.000,224.719,11.292,1375.045526
7 Jan 2020 04:43:05.000,224.704,11.411,1368.258743
7 Jan 2020 04:43:06.000,224.690,11.532,1361.474945
7 Jan 2020 04:43:07.000,224.676,11.653,1354.694182
7 Jan 2020 04:43:08.000,224.661,11.775,1347.916507
7 Jan 2020 04:43:09.000,224.646,11.898,1341.141973
7 Jan 2020 04:43:10.000,224.631,12.022,1334.370641
7 Jan 2020 04:43:11.000,224.616,12.147,1327.602565
7 Jan 2020 04:43:12.000,224.600,12.273,1320.837803
7 Jan 2020 04:43:13.000,224.584,12.399,1314.076412
7 Jan 2020 04:43:14.000,224.569,12.527,1307.318458
7 Jan 2020 04:43:15.000,224.552,12.656,1300.563999
7 Jan 2020 04:43:16.000,224.536,12.786,1293.813099
7 Jan 2020 04:43:17.000,224.520,12.917,1287.065818
7 Jan 2020 04:43:18.000,224.503,13.049,1280.322227
7 Jan 2020 04:43:19.000,224.486,13.181,1273.582390
7 Jan 2020 04:43:20.000,224.469,13.316,1266.846376
7 Jan 2020 04:43:21.000,224.451,13.451,1260.114249
7 Jan 2020 04:43:22.000,224.434,13.587,1253.386088
7 Jan 2020 04:43:23.000,224.416,13.724,1246.661960
7 Jan 2020 04:43:24.000,224.398,13.863,1239.941940
7 Jan 2020 04:43:25.000,224.380,14.003,1233.226100
7 Jan 2020 04:43:26.000,224.361,14.143,1226.514523
7 Jan 2020 04:43:27.000,224.342,14.286,1219.807282
7 Jan 2020 04:43:28.000,224.323,14.429,1213.104460
7 Jan 2020 04:43:29.000,224.304,14.573,1206.406134
7 Jan 2020 04:43:30.000,224.284,14.719,1199.712393
7 Jan 2020 04:43:31.000,224.264,14.866,1193.023320
7 Jan 2020 04:43:32.000,224.244,15.015,1186.339001
7 Jan 2020 04:43:33.000,224.224,15.164,1179.659522
7 Jan 2020 04:43:34.000,224.203,15.316,1172.984980
7 Jan 2020 04:43:35.000,224.182,15.468,1166.315464
7 Jan 2020 04:43:36.000,224.160,15.622,1159.651069
7 Jan 2020 04:43:37.000,224.139,15.777,1152.991892
7 Jan 2020 04:43:38.000,224.117,15.934,1146.338029
7 Jan 2020 04:43:39.000,224.094,16.092,1139.689586
7 Jan 2020 04:43:40.000,224.072,16.252,1133.046664
7 Jan 2020 04:43:41.000,224.049,16.413,1126.409368
7 Jan 2020 04:43:42.000,224.026,16.575,1119.777803
7 Jan 2020 04:43:43.000,224.002,16.740,1113.152086
7 Jan 2020 04:43:44.000,223.978,16.906,1106.532326
7 Jan 2020 04:43:45.000,223.954,17.073,1099.918639
7 Jan 2020 04:43:46.000,223.929,17.242,1093.311142
7 Jan 2020 04:43:47.000,223.904,17.413,1086.709955
7 Jan 2020 04:43:48.000,223.878,17.585,1080.115205
7 Jan 2020 04:43:49.000,223.853,17.760,1073.527017
7 Jan 2020 04:43:50.000,223.826,17.936,1066.945519
7 Jan 2020 04:43:51.000,223.800,18.113,1060.370845
7 Jan 2020 04:43:52.000,223.773,18.293,1053.803126
7 Jan 2020 04:43:53.000,223.745,18.474,1047.242508
7 Jan 2020 04:43:54.000,223.717,18.658,1040.689129
7 Jan 2020 04:43:55.000,223.689,18.843,1034.143134
7 Jan 2020 04:43:56.000,223.660,19.030,1027.604673
7 Jan 2020 04:43:57.000,223.630,19.219,1021.073898
7 Jan 2020 04:43:58.000,223.601,19.411,1014.550963
7 Jan 2020 04:43:59.000,223.570,19.604,1008.036033
7 Jan 2020 04:44:00.000,223.539,19.799,1001.529268
7 Jan 2020 04:44:01.000,223.508,19.997,995.030837
7 Jan 2020 04:44:02.000,223.476,20.196,988.540912
7 Jan 2020 04:44:03.000,223.444,20.398,982.059669
7 Jan 2020 04:44:04.000,223.411,20.603,975.587287
7 Jan 2020 04:44:05.000,223.378,20.809,969.123955
7 Jan 2020 04:44:06.000,223.343,21.018,962.669862
7 Jan 2020 04:44:07.000,223.309,21.229,956.225200
7 Jan 2020 04:44:08.000,223.273,21.443,949.790172
7 Jan 2020 04:44:09.000,223.238,21.659,943.364980
7 Jan 2020 04:44:10.000,223.201,21.877,936.949832
7 Jan 2020 04:44:11.000,223.164,22.099,930.544950
7 Jan 2020 04:44:12.000,223.126,22.323,924.150550
7 Jan 2020 04:44:13.000,223.087,22.549,917.766861
7 Jan 2020 04:44:14.000,223.048,22.778,911.394114
7 Jan 2020 04:44:15.000,223.008,23.010,905.032548
7 Jan 2020 04:44:16.000,222.967,23.245,898.682408
7 Jan 2020 04:44:17.000,222.926,23.483,892.343946
7 Jan 2020 04:44:18.000,222.884,23.724,886.017417
7 Jan 2020 04:44:19.000,222.841,23.967,879.703091
7 Jan 2020 04:44:20.000,222.797,24.214,873.401238
7 Jan 2020 04:44:21.000,222.752,24.464,867.112137
7 Jan 2020 04:44:22.000,222.706,24.717,860.836074
7 Jan 2020 04:44:23.000,222.660,24.973,854.573345
7 Jan 2020 04:44:24.000,222.612,25.232,848.324253
7 Jan 2020 04:44:25.000,222.564,25.495,842.089108
7 Jan 2020 04:44:26.000,222.514,25.762,835.868229
7 Jan 2020 04:44:27.000,222.464,26.032,829.661945
7 Jan 2020 04:44:28.000,222.413,26.305,823.470594
7 Jan 2020 04:44:29.000,222.360,26.582,817.294521
7 Jan 2020 04:44:30.000,222.306,26.863,811.134081
7 Jan 2020 04:44:31.000,222.252,27.147,804.989645
7 Jan 2020 04:44:32.000,222.196,27.436,798.861586
7 Jan 2020 04:44:33.000,222.138,27.728,792.750293
7 Jan 2020 04:44:34.000,222.080,28.024,786.656162
7 Jan 2020 04:44:35.000,222.020,28.325,780.579603
7 Jan 2020 04:44:36.000,221.959,28.630,774.521036
7 Jan 2020 04:44:37.000,221.897,28.939,768.480895
7 Jan 2020 04:44:38.000,221.833,29.252,762.459624
7 Jan 2020 04:44:39.000,221.768,29.570,756.457681
7 Jan 2020 04:44:40.000,221.701,29.892,750.475536
7 Jan 2020 04:44:41.000,221.633,30.219,744.513675
7 Jan 2020 04:44:42.000,221.563,30.551,738.572594
7 Jan 2020 04:44:43.000,221.491,30.887,732.652808
7 Jan 2020 04:44:44.000,221.418,31.228,726.754842
7 Jan 2020 04:44:45.000,221.342,31.575,720.879239
7 Jan 2020 04:44:46.000,221.265,31.926,715.026559
7 Jan 2020 04:44:47.000,221.186,32.283,709.197374
7 Jan 2020 04:44:48.000,221.105,32.645,703.392276
7 Jan 2020 04:44:49.000,221.022,33.013,697.611875
7 Jan 2020 04:44:50.000,220.937,33.386,691.856793
7 Jan 2020 04:44:51.000,220.850,33.765,686.127676
7 Jan 2020 04:44:52.000,220.760,34.149,680.425186
7 Jan 2020 04:44:53.000,220.668,34.539,674.750005
7 Jan 2020 04:44:54.000,220.573,34.936,669.102835
7 Jan 2020 04:44:55.000,220.476,35.338,663.484397
7 Jan 2020 04:44:56.000,220.375,35.747,657.895434
7 Jan 2020 04:44:57.000,220.273,36.162,652.336710
7 Jan 2020 04:44:58.000,220.167,36.584,646.809013
7 Jan 2020 04:44:59.000,220.058,37.012,641.313149
7 Jan 2020 04:45:00.000,219.946,37.447,635.849951
7 Jan 2020 04:45:01.000,219.830,37.888,630.420274
7 Jan 2020 04:45:02.000,219.711,38.337,625.024998
7 Jan 2020 04:45:03.000,219.589,38.793,619.665029
7 Jan 2020 04:45:04.000,219.462,39.256,614.341298
7 Jan 2020 04:45:05.000,219.332,39.727,609.054759
7 Jan 2020 04:45:06.000,219.197,40.204,603.806396
7 Jan 2020 04:45:07.000,219.058,40.690,598.597219
7 Jan 2020 04:45:08.000,218.914,41.183,593.428269
7 Jan 2020 04:45:09.000,218.766,41.685,588.300607
7 Jan 2020 04:45:10.000,218.613,42.194,583.215331
7 Jan 2020 04:45:11.000,218.454,42.711,578.173567
7 Jan 2020 04:45:12.000,218.289,43.237,573.176466
7 Jan 2020 04:45:13.000,218.119,43.771,568.225212
7 Jan 2020 04:45:14.000,217.942,44.314,563.321024
7 Jan 2020 04:45:15.000,217.759,44.865,558.465142
7 Jan 2020 04:45:16.000,217.569,45.425,553.658845
7 Jan 2020 04:45:17.000,217.372,45.994,548.903443
7 Jan 2020 04:45:18.000,217.167,46.572,544.200272
7 Jan 2020 04:45:19.000,216.953,47.158,539.550707
7 Jan 2020 04:45:20.000,216.732,47.755,534.956148
7 Jan 2020 04:45:21.000,216.500,48.360,530.418033
7 Jan 2020 04:45:22.000,216.260,48.974,525.937824
7 Jan 2020 04:45:23.000,216.008,49.599,521.517023
7 Jan 2020 04:45:24.000,215.746,50.232,517.157154
7 Jan 2020 04:45:25.000,215.472,50.875,512.859781
7 Jan 2020 04:45:26.000,215.185,51.528,508.626489
7 Jan 2020 04:45:27.000,214.885,52.190,504.458898
7 Jan 2020 04:45:28.000,214.571,52.862,500.358654
7 Jan 2020 04:45:29.000,214.241,53.543,496.327431
7 Jan 2020 04:45:30.000,213.895,54.234,492.366930
7 Jan 2020 04:45:31.000,213.531,54.935,488.478872
7 Jan 2020 04:45:32.000,213.148,55.645,484.665009
7 Jan 2020 04:45:33.000,212.744,56.364,480.927110
7 Jan 2020 04:45:34.000,212.318,57.092,477.266962
7 Jan 2020 04:45:35.000,211.868,57.830,473.686371
7 Jan 2020 04:45:36.000,211.391,58.577,470.187162
7 Jan 2020 04:45:37.000,210.887,59.332,466.771167
7 Jan 2020 04:45:38.000,210.351,60.095,463.440230
7 Jan 2020 04:45:39.000,209.782,60.867,460.196202
7 Jan 2020 04:45:40.000,209.175,61.646,457.040938
7 Jan 2020 04:45:41.000,208.529,62.433,453.976291
7 Jan 2020 04:45:42.000,207.838,63.227,451.004113
7 Jan 2020 04:45:43.000,207.098,64.027,448.126246
7 Jan 2020 04:45:44.000,206.304,64.832,445.344523
7 Jan 2020 04:45:45.000,205.450,65.643,442.660758
7 Jan 2020 04:45:46.000,204.530,66.457,440.076747
7 Jan 2020 04:45:47.000,203.537,67.275,437.594261
7 Jan 2020 04:45:48.000,202.461,68.095,435.215038
7 Jan 2020 04:45:49.000,201.293,68.915,432.940785
7 Jan 2020 04:45:50.000,200.021,69.735,430.773166
7 Jan 2020 04:45:51.000,198.634,70.553,428.713800
7 Jan 2020 04:45:52.000,197.115,71.366,426.764259
7 Jan 2020 04:45:53.000,195.449,72.173,424.926054
7 Jan 2020 04:45:54.000,193.615,72.970,423.200640
7 Jan 2020 04:45:55.000,191.593,73.755,421.589402
7 Jan 2020 04:45:56.000,189.355,74.525,420.093656
7 Jan 2020 04:45:57.000,186.876,75.274,418.714641
7 Jan 2020 04:45:58.000,184.124,75.998,417.453516
7 Jan 2020 04:45:59.000,181.067,76.692,416.311354
7 Jan 2020 04:46:00.000,177.672,77.348,415.289136
7 Jan 2020 04:46:01.000,173.907,77.959,414.387752
7 Jan 2020 04:46:02.000,169.748,78.517,413.607992
7 Jan 2020 04:46:03.000,165.179,79.011,412.950546
7 Jan 2020 04:46:04.000,160.204,79.431,412.416001
7 Jan 2020 04:46:05.000,154.852,79.769,412.004833
7 Jan 2020 04:46:06.000,149.181,80.013,411.717415
7 Jan 2020 04:46:07.000,143.281,80.157,411.554004
7 Jan 2020 04:46:08.000,137.268,80.196,411.514748
7 Jan 2020 04:46:09.000,131.273,80.129,411.599684
7 Jan 2020 04:46:10.000,125.423,79.958,411.808733
7 Jan 2020 04:46:11.000,119.829,79.689,412.141707
7 Jan 2020 04:46:12.000,114.572,79.329,412.598304
7 Jan 2020 04:46:13.000,109.703,78.888,413.178115
7 Jan 2020 04:46:14.000,105.244,78.377,413.880620
7 Jan 2020 04:46:15.000,101.191,77.805,414.705195
7 Jan 2020 04:46:16.000,97.527,77.182,415.651113
7 Jan 2020 04:46:17.000,94.224,76.515,416.717545
7 Jan 2020 04:46:18.000,91.251,75.814,417.903568
7 Jan 2020 04:46:19.000,88.575,75.083,419.208165
7 Jan 2020 04:46:20.000,86.163,74.328,420.630229
7 Jan 2020 04:46:21.000,83.985,73.555,422.168575
7 Jan 2020 04:46:22.000,82.015,72.767,423.821932
7 Jan 2020 04:46:23.000,80.227,71.968,425.588957
7 Jan 2020 04:46:24.000,78.602,71.160,427.468241
7 Jan 2020 04:46:25.000,77.120,70.346,429.458304
7 Jan 2020 04:46:26.000,75.765,69.529,431.557615
7 Jan 2020 04:46:27.000,74.522,68.710,433.764582
7 Jan 2020 04:46:28.000,73.379,67.890,436.077568
7 Jan 2020 04:46:29.000,72.326,67.072,438.494894
7 Jan 2020 04:46:30.000,71.353,66.256,441.014839
7 Jan 2020 04:46:31.000,70.451,65.444,443.635654
7 Jan 2020 04:46:32.000,69.614,64.635,446.355556
7 Jan 2020 04:46:33.000,68.835,63.832,449.172743
7 Jan 2020 04:46:34.000,68.109,63.035,452.085392
7 Jan 2020 04:46:35.000,67.430,62.245,455.091668
7 Jan 2020 04:46:36.000,66.795,61.461,458.189722
7 Jan 2020 04:46:37.000,66.199,60.685,461.377703
7 Jan 2020 04:46:38.000,65.638,59.916,464.653755
7 Jan 2020 04:46:39.000,65.111,59.156,468.016025
7 Jan 2020 04:46:40.000,64.615,58.404,471.462663
7 Jan 2020 04:46:41.000,64.145,57.661,474.991831
7 Jan 2020 04:46:42.000,63.702,56.927,478.601697
7 Jan 2020 04:46:43.000,63.282,56.202,482.290444
7 Jan 2020 04:46:44.000,62.884,55.487,486.056273
7 Jan 2020 04:46:45.000,62.506,54.780,489.897399
7 Jan 2020 04:46:46.000,62.147,54.083,493.812064
7 Jan 2020 04:46:47.000,61.805,53.396,497.798526
7 Jan 2020 04:46:48.000,61.480,52.719,501.855067
7 Jan 2020 04:46:49.000,61.170,52.050,505.980001
7 Jan 2020 04:46:50.000,60.873,51.392,510.171662
7 Jan 2020 04:46:51.000,60.590,50.743,514.428412
7 Jan 2020 04:46:52.000,60.320,50.103,518.748647
7 Jan 2020 04:46:53.000,60.060,49.474,523.130784
7 Jan 2020 04:46:54.000,59.812,48.853,527.573280
7 Jan 2020 04:46:55.000,59.574,48.242,532.074614
7 Jan 2020 04:46:56.000,59.346,47.640,536.633303
7 Jan 2020 04:46:57.000,59.126,47.048,541.247888
7 Jan 2020 04:46:58.000,58.915,46.464,545.916951
7 Jan 2020 04:46:59.000,58.713,45.890,550.639096
7 Jan 2020 04:47:00.000,58.517,45.324,555.412967
7 Jan 2020 04:47:01.000,58.329,44.768,560.237232
7 Jan 2020 04:47:02.000,58.148,44.220,565.110596
7 Jan 2020 04:47:03.000,57.973,43.680,570.031797
7 Jan 2020 04:47:04.000,57.805,43.149,574.999595
7 Jan 2020 04:47:05.000,57.642,42.627,580.012793
7 Jan 2020 04:47:06.000,57.485,42.113,585.070211
7 Jan 2020 04:47:07.000,57.333,41.606,590.170710
7 Jan 2020 04:47:08.000,57.186,41.108,595.313176
7 Jan 2020 04:47:09.000,57.044,40.618,600.496526
7 Jan 2020 04:47:10.000,56.906,40.135,605.719701
7 Jan 2020 04:47:11.000,56.773,39.660,610.981674
7 Jan 2020 04:47:12.000,56.644,39.192,616.281446
7 Jan 2020 04:47:13.000,56.519,38.732,621.618045
7 Jan 2020 04:47:14.000,56.397,38.279,626.990521
7 Jan 2020 04:47:15.000,56.279,37.833,632.397954
7 Jan 2020 04:47:16.000,56.165,37.393,637.839449
7 Jan 2020 04:47:17.000,56.054,36.961,643.314135
7 Jan 2020 04:47:18.000,55.946,36.535,648.821168
7 Jan 2020 04:47:19.000,55.841,36.116,654.359718
7 Jan 2020 04:47:20.000,55.739,35.704,659.928990
7 Jan 2020 04:47:21.000,55.640,35.297,665.528203
7 Jan 2020 04:47:22.000,55.544,34.897,671.156603
7 Jan 2020 04:47:23.000,55.450,34.503,676.813454
7 Jan 2020 04:47:24.000,55.359,34.115,682.498042
7 Jan 2020 04:47:25.000,55.270,33.733,688.209676
7 Jan 2020 04:47:26.000,55.183,33.356,693.947675
7 Jan 2020 04:47:27.000,55.099,32.985,699.711386
7 Jan 2020 04:47:28.000,55.017,32.620,705.500173
7 Jan 2020 04:47:29.000,54.937,32.259,711.313416
7 Jan 2020 04:47:30.000,54.858,31.905,717.150513
7 Jan 2020 04:47:31.000,54.782,31.555,723.010879
7 Jan 2020 04:47:32.000,54.708,31.211,728.893947
7 Jan 2020 04:47:33.000,54.635,30.871,734.799163
7 Jan 2020 04:47:34.000,54.564,30.536,740.725991
7 Jan 2020 04:47:35.000,54.495,30.206,746.673910
7 Jan 2020 04:47:36.000,54.427,29.881,752.642411
7 Jan 2020 04:47:37.000,54.361,29.561,758.631002
7 Jan 2020 04:47:38.000,54.296,29.245,764.639203
7 Jan 2020 04:47:39.000,54.233,28.933,770.666550
7 Jan 2020 04:47:40.000,54.172,28.626,776.712588
7 Jan 2020 04:47:41.000,54.111,28.323,782.776877
7 Jan 2020 04:47:42.000,54.052,28.024,788.858989
7 Jan 2020 04:47:43.000,53.994,27.729,794.958508
7 Jan 2020 04:47:44.000,53.938,27.438,801.075029
7 Jan 2020 04:47:45.000,53.883,27.151,807.208157
7 Jan 2020 04:47:46.000,53.828,26.868,813.357511
7 Jan 2020 04:47:47.000,53.775,26.588,819.522716
7 Jan 2020 04:47:48.000,53.724,26.313,825.703410
7 Jan 2020 04:47:49.000,53.673,26.041,831.899242
7 Jan 2020 04:47:50.000,53.623,25.772,838.109867
7 Jan 2020 04:47:51.000,53.574,25.507,844.334952
7 Jan 2020 04:47:52.000,53.526,25.246,850.574169
7 Jan 2020 04:47:53.000,53.479,24.987,856.827207
7 Jan 2020 04:47:54.000,53.433,24.732,863.093756
7 Jan 2020 04:47:55.000,53.388,24.480,869.373516
7 Jan 2020 04:47:56.000,53.344,24.232,875.666195
7 Jan 2020 04:47:57.000,53.301,23.986,881.971508
7 Jan 2020 04:47:58.000,53.258,23.744,888.289181
7 Jan 2020 04:47:59.000,53.217,23.504,894.618942
7 Jan 2020 04:48:00.000,53.176,23.268,900.960529
7 Jan 2020 04:48:01.000,53.136,23.034,907.313688
7 Jan 2020 04:48:02.000,53.096,22.803,913.678165
7 Jan 2020 04:48:03.000,53.057,22.575,920.053725
7 Jan 2020 04:48:04.000,53.020,22.349,926.440127
7 Jan 2020 04:48:05.000,52.982,22.126,932.837142
7 Jan 2020 04:48:06.000,52.946,21.906,939.244545
7 Jan 2020 04:48:07.000,52.910,21.688,945.662117
7 Jan 2020 04:48:08.000,52.874,21.473,952.089645
7 Jan 2020 04:48:09.000,52.840,21.260,958.526918
7 Jan 2020 04:48:10.000,52.805,21.050,964.973739
7 Jan 2020 04:48:11.000,52.772,20.842,971.429906
7 Jan 2020 04:48:12.000,52.739,20.637,977.895228
7 Jan 2020 04:48:13.000,52.707,20.433,984.369516
7 Jan 2020 04:48:14.000,52.675,20.232,990.852587
7 Jan 2020 04:48:15.000,52.644,20.033,997.344261
7 Jan 2020 04:48:16.000,52.613,19.837,1003.844361
7 Jan 2020 04:48:17.000,52.583,19.642,1010.352723
7 Jan 2020 04:48:18.000,52.553,19.450,1016.869176
7 Jan 2020 04:48:19.000,52.524,19.259,1023.393559
7 Jan 2020 04:48:20.000,52.495,19.071,1029.925713
7 Jan 2020 04:48:21.000,52.467,18.884,1036.465480
7 Jan 2020 04:48:22.000,52.439,18.700,1043.012715
7 Jan 2020 04:48:23.000,52.411,18.517,1049.567268
7 Jan 2020 04:48:24.000,52.384,18.336,1056.128994
7 Jan 2020 04:48:25.000,52.358,18.158,1062.697753
7 Jan 2020 04:48:26.000,52.332,17.980,1069.273408
7 Jan 2020 04:48:27.000,52.306,17.805,1075.855820
7 Jan 2020 04:48:28.000,52.281,17.632,1082.444865
7 Jan 2020 04:48:29.000,52.256,17.460,1089.040411
7 Jan 2020 04:48:30.000,52.231,17.290,1095.642334
7 Jan 2020 04:48:31.000,52.207,17.121,1102.250510
7 Jan 2020 04:48:32.000,52.183,16.954,1108.864817
7 Jan 2020 04:48:33.000,52.160,16.789,1115.485144
7 Jan 2020 04:48:34.000,52.137,16.625,1122.111373
7 Jan 2020 04:48:35.000,52.114,16.463,1128.743392
7 Jan 2020 04:48:36.000,52.092,16.303,1135.381093
7 Jan 2020 04:48:37.000,52.070,16.144,1142.024365
7 Jan 2020 04:48:38.000,52.048,15.986,1148.673110
7 Jan 2020 04:48:39.000,52.027,15.830,1155.327221
7 Jan 2020 04:48:40.000,52.006,15.675,1161.986599
7 Jan 2020 04:48:41.000,51.985,15.522,1168.651143
7 Jan 2020 04:48:42.000,51.965,15.370,1175.320763
7 Jan 2020 04:48:43.000,51.944,15.219,1181.995362
7 Jan 2020 04:48:44.000,51.925,15.070,1188.674848
7 Jan 2020 04:48:45.000,51.905,14.922,1195.359131
7 Jan 2020 04:48:46.000,51.886,14.776,1202.048121
7 Jan 2020 04:48:47.000,51.867,14.630,1208.741737
7 Jan 2020 04:48:48.000,51.848,14.486,1215.439891
7 Jan 2020 04:48:49.000,51.829,14.343,1222.142501
7 Jan 2020 04:48:50.000,51.811,14.202,1228.849483
7 Jan 2020 04:48:51.000,51.793,14.061,1235.560764
7 Jan 2020 04:48:52.000,51.776,13.922,1242.276263
7 Jan 2020 04:48:53.000,51.758,13.784,1248.995904
7 Jan 2020 04:48:54.000,51.741,13.647,1255.719610
7 Jan 2020 04:48:55.000,51.724,13.511,1262.447313
7 Jan 2020 04:48:56.000,51.707,13.377,1269.178939
7 Jan 2020 04:48:57.000,51.691,13.243,1275.914417
7 Jan 2020 04:48:58.000,51.674,13.110,1282.653677
7 Jan 2020 04:48:59.000,51.658,12.979,1289.396656
7 Jan 2020 04:49:00.000,51.642,12.848,1296.143285
7 Jan 2020 04:49:01.000,51.627,12.719,1302.893500
7 Jan 2020 04:49:02.000,51.611,12.591,1309.647235
7 Jan 2020 04:49:03.000,51.596,12.463,1316.404432
7 Jan 2020 04:49:04.000,51.581,12.337,1323.165028
7 Jan 2020 04:49:05.000,51.566,12.211,1329.928963
7 Jan 2020 04:49:06.000,51.551,12.087,1336.696175
7 Jan 2020 04:49:07.000,51.537,11.963,1343.466612
7 Jan 2020 04:49:08.000,51.523,11.841,1350.240216
7 Jan 2020 04:49:09.000,51.509,11.719,1357.016929
7 Jan 2020 04:49:10.000,51.495,11.598,1363.796696
7 Jan 2020 04:49:11.000,51.481,11.478,1370.579468
7 Jan 2020 04:49:12.000,51.468,11.359,1377.365189
7 Jan 2020 04:49:13.000,51.454,11.241,1384.153810
7 Jan 2020 04:49:14.000,51.441,11.124,1390.945275
7 Jan 2020 04:49:15.000,51.428,11.007,1397.739541
7 Jan 2020 04:49:16.000,51.415,10.891,1404.536557
7 Jan 2020 04:49:17.000,51.403,10.776,1411.336274
7 Jan 2020 04:49:18.000,51.390,10.662,1418.138644
7 Jan 2020 04:49:19.000,51.378,10.549,1424.943624
7 Jan 2020 04:49:20.000,51.365,10.437,1431.751168
7 Jan 2020 04:49:21.000,51.353,10.325,1438.561228
7 Jan 2020 04:49:22.000,51.342,10.214,1445.373766
7 Jan 2020 04:49:23.000,51.330,10.104,1452.188735
7 Jan 2020 04:49:24.000,51.318,9.994,1459.006094
7 Jan 2020 04:49:25.000,51.307,9.885,1465.825798
7 Jan 2020 04:49:26.000,51.295,9.777,1472.647813
7 Jan 2020 04:49:27.000,51.284,9.670,1479.472095
7 Jan 2020 04:49:28.000,51.273,9.563,1486.298606
7 Jan 2020 04:49:29.000,51.262,9.457,1493.127302
7 Jan 2020 04:49:30.000,51.252,9.352,1499.958153
7 Jan 2020 04:49:31.000,51.241,9.247,1506.791117
7 Jan 2020 04:49:32.000,51.230,9.144,1513.626156
7 Jan 2020 04:49:33.000,51.220,9.040,1520.463238
7 Jan 2020 04:49:34.000,51.210,8.938,1527.302325
7 Jan 2020 04:49:35.000,51.200,8.836,1534.143383
7 Jan 2020 04:49:36.000,51.190,8.734,1540.986374
7 Jan 2020 04:49:37.000,51.180,8.634,1547.831269
7 Jan 2020 04:49:38.000,51.170,8.533,1554.678033
7 Jan 2020 04:49:39.000,51.161,8.434,1561.526631
7 Jan 2020 04:49:40.000,51.151,8.335,1568.377035
7 Jan 2020 04:49:41.000,51.142,8.237,1575.229210
7 Jan 2020 04:49:42.000,51.132,8.139,1582.083127
7 Jan 2020 04:49:43.000,51.123,8.042,1588.938751
7 Jan 2020 04:49:44.000,51.114,7.945,1595.796057
7 Jan 2020 04:49:45.000,51.105,7.849,1602.655014
7 Jan 2020 04:49:46.000,51.096,7.753,1609.515588
7 Jan 2020 04:49:47.000,51.088,7.658,1616.377757
7 Jan 2020 04:49:48.000,51.079,7.564,1623.241490
7 Jan 2020 04:49:49.000,51.070,7.470,1630.106759
7 Jan 2020 04:49:50.000,51.062,7.377,1636.973533
7 Jan 2020 04:49:51.000,51.054,7.284,1643.841790
7 Jan 2020 04:49:52.000,51.046,7.192,1650.711502
7 Jan 2020 04:49:53.000,51.037,7.100,1657.582639
7 Jan 2020 04:49:54.000,51.029,7.008,1664.455181
7 Jan 2020 04:49:55.000,51.021,6.918,1671.329100
7 Jan 2020 04:49:56.000,51.014,6.827,1678.204367
7 Jan 2020 04:49:57.000,51.006,6.737,1685.080964
7 Jan 2020 04:49:58.000,50.998,6.648,1691.958864
7 Jan 2020 04:49:59.000,50.991,6.559,1698.838042
7 Jan 2020 04:50:00.000,50.983,6.471,1705.718471
7 Jan 2020 04:50:01.000,50.976,6.383,1712.600135
7 Jan 2020 04:50:02.000,50.968,6.295,1719.483007
7 Jan 2020 04:50:03.000,50.961,6.208,1726.367062
7 Jan 2020 04:50:04.000,50.954,6.121,1733.252283
7 Jan 2020 04:50:05.000,50.947,6.035,1740.138646
7 Jan 2020 04:50:06.000,50.940,5.950,1747.026128
7 Jan 2020 04:50:07.000,50.933,5.864,1753.914705
7 Jan 2020 04:50:08.000,50.926,5.779,1760.804362
7 Jan 2020 04:50:09.000,50.920,5.695,1767.695076
7 Jan 2020 04:50:10.000,50.913,5.611,1774.586822
7 Jan 2020 04:50:11.000,50.907,5.527,1781.479587
7 Jan 2020 04:50:12.000,50.900,5.444,1788.373347
7 Jan 2020 04:50:13.000,50.894,5.361,1795.268080
7 Jan 2020 04:50:14.000,50.887,5.278,1802.163773
7 Jan 2020 04:50:15.000,50.881,5.196,1809.060402
7 Jan 2020 04:50:16.000,50.875,5.115,1815.957950
7 Jan 2020 04:50:17.000,50.869,5.033,1822.856395
7 Jan 2020 04:50:18.000,50.863,4.952,1829.755724
7 Jan 2020 04:50:19.000,50.857,4.872,1836.655916
7 Jan 2020 04:50:20.000,50.851,4.792,1843.556950
7 Jan 2020 04:50:21.000,50.845,4.712,1850.458815
7 Jan 2020 04:50:22.000,50.839,4.632,1857.361490
7 Jan 2020 04:50:23.000,50.834,4.553,1864.264954
7 Jan 2020 04:50:24.000,50.828,4.475,1871.169198
7 Jan 2020 04:50:25.000,50.822,4.396,1878.074200
7 Jan 2020 04:50:26.000,50.817,4.318,1884.979945
7 Jan 2020 04:50:27.000,50.812,4.240,1891.886412
7 Jan 2020 04:50:28.000,50.806,4.163,1898.793593
7 Jan 2020 04:50:29.000,50.801,4.086,1905.701468
7 Jan 2020 04:50:30.000,50.796,4.009,1912.610018
7 Jan 2020 04:50:31.000,50.790,3.933,1919.519233
7 Jan 2020 04:50:32.000,50.785,3.857,1926.429096
7 Jan 2020 04:50:33.000,50.780,3.781,1933.339587
7 Jan 2020 04:50:34.000,50.775,3.706,1940.250699
7 Jan 2020 04:50:35.000,50.770,3.631,1947.162413
7 Jan 2020 04:50:36.000,50.765,3.556,1954.074712
7 Jan 2020 04:50:37.000,50.761,3.481,1960.987587
7 Jan 2020 04:50:38.000,50.756,3.407,1967.901021
7 Jan 2020 04:50:39.000,50.751,3.333,1974.814999
7 Jan 2020 04:50:40.000,50.747,3.260,1981.729506
7 Jan 2020 04:50:41.000,50.742,3.187,1988.644532
7 Jan 2020 04:50:42.000,50.737,3.114,1995.560062
7 Jan 2020 04:50:43.000,50.733,3.041,2002.476079
7 Jan 2020 04:50:44.000,50.729,2.968,2009.392575
7 Jan 2020 04:50:45.000,50.724,2.896,2016.309535
7 Jan 2020 04:50:46.000,50.720,2.824,2023.226943
7 Jan 2020 04:50:47.000,50.716,2.753,2030.144791
7 Jan 2020 04:50:48.000,50.711,2.682,2037.063064
7 Jan 2020 04:50:49.000,50.707,2.611,2043.981747
7 Jan 2020 04:50:50.000,50.703,2.540,2050.900832
7 Jan 2020 04:50:51.000,50.699,2.469,2057.820305
7 Jan 2020 04:50:52.000,50.695,2.399,2064.740154
7 Jan 2020 04:50:53.000,50.691,2.329,2071.660364
7 Jan 2020 04:50:54.000,50.687,2.259,2078.580927
7 Jan 2020 04:50:55.000,50.683,2.190,2085.501831
7 Jan 2020 04:50:56.000,50.679,2.121,2092.423061
7 Jan 2020 04:50:57.000,50.676,2.052,2099.344609
7 Jan 2020 04:50:58.000,50.672,1.983,2106.266464
7 Jan 2020 04:50:59.000,50.668,1.915,2113.188609
7 Jan 2020 04:51:00.000,50.665,1.846,2120.111041
7 Jan 2020 04:51:01.000,50.661,1.779,2127.033744
7 Jan 2020 04:51:02.000,50.657,1.711,2133.956706
7 Jan 2020 04:51:03.000,50.654,1.643,2140.879921
7 Jan 2020 04:51:04.000,50.650,1.576,2147.803376
7 Jan 2020 04:51:05.000,50.647,1.509,2154.727060
7 Jan 2020 04:51:06.000,50.644,1.442,2161.650959
7 Jan 2020 04:51:07.000,50.640,1.376,2168.575070
7 Jan 2020 04:51:08.000,50.637,1.309,2175.499379
7 Jan 2020 04:51:09.000,50.634,1.243,2182.423873
7 Jan 2020 04:51:10.000,50.631,1.177,2189.348548
7 Jan 2020 04:51:11.000,50.627,1.112,2196.273391
7 Jan 2020 04:51:12.000,50.624,1.046,2203.198389
7 Jan 2020 04:51:13.000,50.621,0.981,2210.123538
7 Jan 2020 04:51:14.000,50.618,0.916,2217.048826
7 Jan 2020 04:51:15.000,50.615,0.851,2223.974240
7 Jan 2020 04:51:16.000,50.612,0.786,2230.899777
7 Jan 2020 04:51:17.000,50.609,0.722,2237.825425
7 Jan 2020 04:51:18.000,50.606,0.658,2244.751173
7 Jan 2020 04:51:19.000,50.604,0.594,2251.677011
7 Jan 2020 04:51:20.000,50.601,0.530,2258.602934
7 Jan 2020 04:51:21.000,50.598,0.467,2265.528932
7 Jan 2020 04:51:22.000,50.595,0.403,2272.454991
7 Jan 2020 04:51:23.000,50.593,0.340,2279.381109
7 Jan 2020 04:51:24.000,50.590,0.277,2286.307275
7 Jan 2020 04:51:25.000,50.587,0.214,2293.233476
7 Jan 2020 04:51:26.000,50.585,0.151,2300.159710
7 Jan 2020 04:51:27.000,50.582,0.089,2307.085966
7 Jan 2020 04:51:28.000,50.580,0.027,2314.012232
7 Jan 2020 04:51:29.000,50.577,-0.035,2320.938506
7 Jan 2020 04:51:30.000,50.575,-0.097,2327.864776
7 Jan 2020 04:51:30.440,50.574,-0.124,2330.912599
7 Jan 2020 06:18:12.991,272.582,-0.124,2325.919964
7 Jan 2020 06:18:13.000,272.583,-0.123,2325.866847
7 Jan 2020 06:18:14.000,272.676,-0.070,2319.910327
7 Jan 2020 06:18:15.000,272.769,-0.017,2313.958919
7 Jan 2020 06:18:16.000,272.863,0.037,2308.012669
7 Jan 2020 06:18:17.000,272.957,0.091,2302.071624
7 Jan 2020 06:18:18.000,273.052,0.144,2296.135830
7 Jan 2020 06:18:19.000,273.147,0.198,2290.205336
7 Jan 2020 06:18:20.000,273.243,0.252,2284.280188
7 Jan 2020 06:18:21.000,273.339,0.306,2278.360437
7 Jan 2020 06:18:22.000,273.436,0.360,2272.446129
7 Jan 2020 06:18:23.000,273.533,0.414,2266.537315
7 Jan 2020 06:18:24.000,273.630,0.469,2260.634045
7 Jan 2020 06:18:25.000,273.729,0.523,2254.736368
7 Jan 2020 06:18:26.000,273.827,0.578,2248.844335
7 Jan 2020 06:18:27.000,273.926,0.632,2242.957998
7 Jan 2020 06:18:28.000,274.026,0.687,2237.077407
7 Jan 2020 06:18:29.000,274.126,0.742,2231.202616
7 Jan 2020 06:18:30.000,274.227,0.797,2225.333676
7 Jan 2020 06:18:31.000,274.328,0.851,2219.470640
7 Jan 2020 06:18:32.000,274.430,0.907,2213.613562
7 Jan 2020 06:18:33.000,274.532,0.962,2207.762496
7 Jan 2020 06:18:34.000,274.635,1.017,2201.917497
7 Jan 2020 06:18:35.000,274.738,1.072,2196.078623
7 Jan 2020 06:18:36.000,274.842,1.128,2190.245922
7 Jan 2020 06:18:37.000,274.946,1.183,2184.419455
7 Jan 2020 06:18:38.000,275.051,1.239,2178.599276
7 Jan 2020 06:18:39.000,275.157,1.295,2172.785445
7 Jan 2020 06:18:40.000,275.263,1.351,2166.978018
7 Jan 2020 06:18:41.000,275.369,1.406,2161.177053
7 Jan 2020 06:18:42.000,275.476,1.463,2155.382609
7 Jan 2020 06:18:43.000,275.584,1.519,2149.594746
7 Jan 2020 06:18:44.000,275.692,1.575,2143.813522
7 Jan 2020 06:18:45.000,275.801,1.631,2138.038999
7 Jan 2020 06:18:46.000,275.911,1.688,2132.271238
7 Jan 2020 06:18:47.000,276.021,1.744,2126.510299
7 Jan 2020 06:18:48.000,276.132,1.801,2120.756245
7 Jan 2020 06:18:49.000,276.243,1.858,2115.009139
7 Jan 2020 06:18:50.000,276.355,1.914,2109.269047
7 Jan 2020 06:18:51.000,276.467,1.971,2103.536027
7 Jan 2020 06:18:52.000,276.580,2.028,2097.810145
7 Jan 2020 06:18:53.000,276.694,2.086,2092.091467
7 Jan 2020 06:18:54.000,276.808,2.143,2086.380059
7 Jan 2020 06:18:55.000,276.923,2.200,2080.675987
7 Jan 2020 06:18:56.000,277.039,2.258,2074.979318
7 Jan 2020 06:18:57.000,277.155,2.315,2069.290119
7 Jan 2020 06:18:58.000,277.271,2.373,2063.608458
7 Jan 2020 06:18:59.000,277.389,2.431,2057.934405
7 Jan 2020 06:19:00.000,277.507,2.488,2052.268033
7 Jan 2020 06:19:01.000,277.626,2.546,2046.609403
7 Jan 2020 06:19:02.000,277.745,2.604,2040.958591
7 Jan 2020 06:19:03.000,277.865,2.663,2035.315668
7 Jan 2020 06:19:04.000,277.986,2.721,2029.680706
7 Jan 2020 06:19:05.000,278.107,2.779,2024.053778
7 Jan 2020 06:19:06.000,278.229,2.838,2018.434958
7 Jan 2020 06:19:07.000,278.352,2.896,2012.824319
7 Jan 2020 06:19:08.000,278.475,2.955,2007.221940
7 Jan 2020 06:19:09.000,278.599,3.014,2001.627889
7 Jan 2020 06:19:10.000,278.724,3.073,1996.042247
7 Jan 2020 06:19:11.000,278.850,3.132,1990.465090
7 Jan 2020 06:19:12.000,278.976,3.191,1984.896496
7 Jan 2020 06:19:13.000,279.103,3.250,1979.336544
7 Jan 2020 06:19:14.000,279.230,3.309,1973.785312
7 Jan 2020 06:19:15.000,279.359,3.369,1968.242881
7 Jan 2020 06:19:16.000,279.488,3.428,1962.709335
7 Jan 2020 06:19:17.000,279.618,3.488,1957.184749
7 Jan 2020 06:19:18.000,279.748,3.548,1951.669208
7 Jan 2020 06:19:19.000,279.879,3.607,1946.162795
7 Jan 2020 06:19:20.000,280.011,3.667,1940.665594
7 Jan 2020 06:19:21.000,280.144,3.727,1935.177690
7 Jan 2020 06:19:22.000,280.278,3.787,1929.699172
7 Jan 2020 06:19:23.000,280.412,3.848,1924.230119
7 Jan 2020 06:19:24.000,280.547,3.908,1918.770621
7 Jan 2020 06:19:25.000,280.683,3.968,1913.320766
7 Jan 2020 06:19:26.000,280.819,4.029,1907.880643
7 Jan 2020 06:19:27.000,280.957,4.089,1902.450346
7 Jan 2020 06:19:28.000,281.095,4.150,1897.029957
7 Jan 2020 06:19:29.000,281.234,4.211,1891.619570
7 Jan 2020 06:19:30.000,281.374,4.272,1886.219280
7 Jan 2020 06:19:31.000,281.514,4.333,1880.829177
7 Jan 2020 06:19:32.000,281.655,4.394,1875.449360
7 Jan 2020 06:19:33.000,281.798,4.455,1870.079916
7 Jan 2020 06:19:34.000,281.941,4.517,1864.720945
7 Jan 2020 06:19:35.000,282.085,4.578,1859.372542
7 Jan 2020 06:19:36.000,282.229,4.640,1854.034805
7 Jan 2020 06:19:37.000,282.375,4.701,1848.707837
7 Jan 2020 06:19:38.000,282.521,4.763,1843.391729
7 Jan 2020 06:19:39.000,282.669,4.825,1838.086584
7 Jan 2020 06:19:40.000,282.817,4.887,1832.792505
7 Jan 2020 06:19:41.000,282.966,4.949,1827.509596
7 Jan 2020 06:19:42.000,283.115,5.011,1822.237954
7 Jan 2020 06:19:43.000,283.266,5.073,1816.977685
7 Jan 2020 06:19:44.000,283.418,5.135,1811.728896
7 Jan 2020 06:19:45.000,283.570,5.198,1806.491690
7 Jan 2020 06:19:46.000,283.724,5.260,1801.266180
7 Jan 2020 06:19:47.000,283.878,5.323,1796.052466
7 Jan 2020 06:19:48.000,284.033,5.385,1790.850660
7 Jan 2020 06:19:49.000,284.190,5.448,1785.660875
7 Jan 2020 06:19:50.000,284.347,5.511,1780.483216
7 Jan 2020 06:19:51.000,284.505,5.574,1775.317797
7 Jan 2020 06:19:52.000,284.664,5.637,1770.164731
7 Jan 2020 06:19:53.000,284.823,5.700,1765.024137
7 Jan 2020 06:19:54.000,284.984,5.763,1759.896121
7 Jan 2020 06:19:55.000,285.146,5.826,1754.780803
7 Jan 2020 06:19:56.000,285.309,5.890,1749.678304
7 Jan 2020 06:19:57.000,285.473,5.953,1744.588735
7 Jan 2020 06:19:58.000,285.637,6.016,1739.512218
7 Jan 2020 06:19:59.000,285.803,6.080,1734.448874
7 Jan 2020 06:20:00.000,285.970,6.144,1729.398828
7 Jan 2020 06:20:01.000,286.138,6.207,1724.362193
7 Jan 2020 06:20:02.000,286.306,6.271,1719.339099
7 Jan 2020 06:20:03.000,286.476,6.335,1714.329673
7 Jan 2020 06:20:04.000,286.647,6.399,1709.334032
7 Jan 2020 06:20:05.000,286.818,6.463,1704.352309
7 Jan 2020 06:20:06.000,286.991,6.527,1699.384633
7 Jan 2020 06:20:07.000,287.165,6.591,1694.431127
7 Jan 2020 06:20:08.000,287.340,6.656,1689.491925
7 Jan 2020 06:20:09.000,287.516,6.720,1684.567161
7 Jan 2020 06:20:10.000,287.693,6.784,1679.656961
7 Jan 2020 06:20:11.000,287.871,6.849,1674.761461
7 Jan 2020 06:20:12.000,288.050,6.913,1669.880800
7 Jan 2020 06:20:13.000,288.230,6.978,1665.015107
