vcc_sched/network/input/aer_odugs_wj2xoh_vcc-c_44430.csv

"Time (UTCG)","Azimuth (deg)","Elevation (deg)","Range (km)"
16 Dec 2019 16:47:57.962,314.398,-0.124,2329.555676
16 Dec 2019 16:47:58.000,314.403,-0.123,2329.383720
16 Dec 2019 16:47:59.000,314.541,-0.082,2324.855648
16 Dec 2019 16:48:00.000,314.678,-0.042,2320.338811
16 Dec 2019 16:48:01.000,314.817,-0.001,2315.833287
16 Dec 2019 16:48:02.000,314.955,0.039,2311.339140
16 Dec 2019 16:48:03.000,315.095,0.080,2306.856448
16 Dec 2019 16:48:04.000,315.234,0.120,2302.385277
16 Dec 2019 16:48:05.000,315.375,0.161,2297.925706
16 Dec 2019 16:48:06.000,315.516,0.201,2293.477800
16 Dec 2019 16:48:07.000,315.657,0.241,2289.041640
16 Dec 2019 16:48:08.000,315.799,0.282,2284.617292
16 Dec 2019 16:48:09.000,315.942,0.322,2280.204837
16 Dec 2019 16:48:10.000,316.085,0.362,2275.804342
16 Dec 2019 16:48:11.000,316.228,0.402,2271.415888
16 Dec 2019 16:48:12.000,316.372,0.443,2267.039544
16 Dec 2019 16:48:13.000,316.517,0.483,2262.675392
16 Dec 2019 16:48:14.000,316.662,0.523,2258.323500
16 Dec 2019 16:48:15.000,316.808,0.563,2253.983951
16 Dec 2019 16:48:16.000,316.954,0.603,2249.656816
16 Dec 2019 16:48:17.000,317.101,0.643,2245.342175
16 Dec 2019 16:48:18.000,317.249,0.683,2241.040105
16 Dec 2019 16:48:19.000,317.397,0.723,2236.750680
16 Dec 2019 16:48:20.000,317.545,0.763,2232.473982
16 Dec 2019 16:48:21.000,317.694,0.803,2228.210085
16 Dec 2019 16:48:22.000,317.844,0.843,2223.959072
16 Dec 2019 16:48:23.000,317.994,0.882,2219.721017
16 Dec 2019 16:48:24.000,318.145,0.922,2215.496004
16 Dec 2019 16:48:25.000,318.296,0.962,2211.284110
16 Dec 2019 16:48:26.000,318.448,1.002,2207.085413
16 Dec 2019 16:48:27.000,318.601,1.041,2202.899998
16 Dec 2019 16:48:28.000,318.754,1.081,2198.727940
16 Dec 2019 16:48:29.000,318.908,1.120,2194.569326
16 Dec 2019 16:48:30.000,319.062,1.160,2190.424234
16 Dec 2019 16:48:31.000,319.217,1.199,2186.292743
16 Dec 2019 16:48:32.000,319.372,1.239,2182.174940
16 Dec 2019 16:48:33.000,319.528,1.278,2178.070903
16 Dec 2019 16:48:34.000,319.684,1.317,2173.980719
16 Dec 2019 16:48:35.000,319.842,1.356,2169.904469
16 Dec 2019 16:48:36.000,319.999,1.395,2165.842233
16 Dec 2019 16:48:37.000,320.157,1.435,2161.794099
16 Dec 2019 16:48:38.000,320.316,1.474,2157.760151
16 Dec 2019 16:48:39.000,320.476,1.513,2153.740468
16 Dec 2019 16:48:40.000,320.636,1.551,2149.735142
16 Dec 2019 16:48:41.000,320.796,1.590,2145.744253
16 Dec 2019 16:48:42.000,320.958,1.629,2141.767886
16 Dec 2019 16:48:43.000,321.119,1.668,2137.806130
16 Dec 2019 16:48:44.000,321.282,1.707,2133.859069
16 Dec 2019 16:48:45.000,321.445,1.745,2129.926787
16 Dec 2019 16:48:46.000,321.608,1.784,2126.009375
16 Dec 2019 16:48:47.000,321.773,1.822,2122.106917
16 Dec 2019 16:48:48.000,321.937,1.860,2118.219498
16 Dec 2019 16:48:49.000,322.103,1.899,2114.347210
16 Dec 2019 16:48:50.000,322.269,1.937,2110.490138
16 Dec 2019 16:48:51.000,322.435,1.975,2106.648371
16 Dec 2019 16:48:52.000,322.602,2.013,2102.821995
16 Dec 2019 16:48:53.000,322.770,2.051,2099.011101
16 Dec 2019 16:48:54.000,322.939,2.089,2095.215778
16 Dec 2019 16:48:55.000,323.108,2.127,2091.436113
16 Dec 2019 16:48:56.000,323.277,2.165,2087.672195
16 Dec 2019 16:48:57.000,323.447,2.203,2083.924117
16 Dec 2019 16:48:58.000,323.618,2.240,2080.191966
16 Dec 2019 16:48:59.000,323.790,2.278,2076.475833
16 Dec 2019 16:49:00.000,323.962,2.315,2072.775807
16 Dec 2019 16:49:01.000,324.134,2.352,2069.091981
16 Dec 2019 16:49:02.000,324.308,2.390,2065.424445
16 Dec 2019 16:49:03.000,324.482,2.427,2061.773290
16 Dec 2019 16:49:04.000,324.656,2.464,2058.138605
16 Dec 2019 16:49:05.000,324.831,2.501,2054.520485
16 Dec 2019 16:49:06.000,325.007,2.538,2050.919021
16 Dec 2019 16:49:07.000,325.183,2.575,2047.334305
16 Dec 2019 16:49:08.000,325.360,2.611,2043.766427
16 Dec 2019 16:49:09.000,325.538,2.648,2040.215480
16 Dec 2019 16:49:10.000,325.716,2.684,2036.681559
16 Dec 2019 16:49:11.000,325.895,2.721,2033.164755
16 Dec 2019 16:49:12.000,326.074,2.757,2029.665162
16 Dec 2019 16:49:13.000,326.254,2.793,2026.182872
16 Dec 2019 16:49:14.000,326.435,2.829,2022.717979
16 Dec 2019 16:49:15.000,326.616,2.865,2019.270573
16 Dec 2019 16:49:16.000,326.798,2.901,2015.840754
16 Dec 2019 16:49:17.000,326.980,2.937,2012.428612
16 Dec 2019 16:49:18.000,327.163,2.972,2009.034242
16 Dec 2019 16:49:19.000,327.347,3.008,2005.657737
16 Dec 2019 16:49:20.000,327.531,3.043,2002.299192
16 Dec 2019 16:49:21.000,327.716,3.078,1998.958701
16 Dec 2019 16:49:22.000,327.902,3.113,1995.636356
16 Dec 2019 16:49:23.000,328.088,3.148,1992.332256
16 Dec 2019 16:49:24.000,328.275,3.183,1989.046495
16 Dec 2019 16:49:25.000,328.462,3.218,1985.779165
16 Dec 2019 16:49:26.000,328.651,3.253,1982.530363
16 Dec 2019 16:49:27.000,328.839,3.287,1979.300183
16 Dec 2019 16:49:28.000,329.029,3.321,1976.088721
16 Dec 2019 16:49:29.000,329.218,3.356,1972.896070
16 Dec 2019 16:49:30.000,329.409,3.390,1969.722327
16 Dec 2019 16:49:31.000,329.600,3.424,1966.567586
16 Dec 2019 16:49:32.000,329.792,3.457,1963.431942
16 Dec 2019 16:49:33.000,329.984,3.491,1960.315492
16 Dec 2019 16:49:34.000,330.177,3.524,1957.218329
16 Dec 2019 16:49:35.000,330.371,3.558,1954.140549
16 Dec 2019 16:49:36.000,330.565,3.591,1951.082248
16 Dec 2019 16:49:37.000,330.760,3.624,1948.043520
16 Dec 2019 16:49:38.000,330.955,3.657,1945.024461
16 Dec 2019 16:49:39.000,331.151,3.690,1942.025166
16 Dec 2019 16:49:40.000,331.348,3.722,1939.045730
16 Dec 2019 16:49:41.000,331.545,3.755,1936.086248
16 Dec 2019 16:49:42.000,331.743,3.787,1933.146815
16 Dec 2019 16:49:43.000,331.941,3.819,1930.227525
16 Dec 2019 16:49:44.000,332.140,3.851,1927.328474
16 Dec 2019 16:49:45.000,332.340,3.883,1924.449757
16 Dec 2019 16:49:46.000,332.540,3.914,1921.591468
16 Dec 2019 16:49:47.000,332.741,3.946,1918.753702
16 Dec 2019 16:49:48.000,332.943,3.977,1915.936552
16 Dec 2019 16:49:49.000,333.145,4.008,1913.140114
16 Dec 2019 16:49:50.000,333.347,4.039,1910.364481
16 Dec 2019 16:49:51.000,333.551,4.070,1907.609747
16 Dec 2019 16:49:52.000,333.755,4.100,1904.876007
16 Dec 2019 16:49:53.000,333.959,4.131,1902.163353
16 Dec 2019 16:49:54.000,334.164,4.161,1899.471879
16 Dec 2019 16:49:55.000,334.370,4.191,1896.801678
16 Dec 2019 16:49:56.000,334.576,4.221,1894.152845
16 Dec 2019 16:49:57.000,334.783,4.250,1891.525470
16 Dec 2019 16:49:58.000,334.990,4.280,1888.919646
16 Dec 2019 16:49:59.000,335.198,4.309,1886.335466
16 Dec 2019 16:50:00.000,335.406,4.338,1883.773021
16 Dec 2019 16:50:01.000,335.615,4.367,1881.232404
16 Dec 2019 16:50:02.000,335.825,4.396,1878.713706
16 Dec 2019 16:50:03.000,336.035,4.424,1876.217019
16 Dec 2019 16:50:04.000,336.246,4.452,1873.742431
16 Dec 2019 16:50:05.000,336.457,4.480,1871.290035
16 Dec 2019 16:50:06.000,336.669,4.508,1868.859920
16 Dec 2019 16:50:07.000,336.882,4.536,1866.452176
16 Dec 2019 16:50:08.000,337.095,4.563,1864.066892
16 Dec 2019 16:50:09.000,337.308,4.590,1861.704160
16 Dec 2019 16:50:10.000,337.522,4.617,1859.364064
16 Dec 2019 16:50:11.000,337.737,4.644,1857.046694
16 Dec 2019 16:50:12.000,337.952,4.671,1854.752138
16 Dec 2019 16:50:13.000,338.168,4.697,1852.480486
16 Dec 2019 16:50:14.000,338.384,4.723,1850.231820
16 Dec 2019 16:50:15.000,338.601,4.749,1848.006229
16 Dec 2019 16:50:16.000,338.818,4.774,1845.803799
16 Dec 2019 16:50:17.000,339.036,4.800,1843.624616
16 Dec 2019 16:50:18.000,339.254,4.825,1841.468763
16 Dec 2019 16:50:19.000,339.473,4.850,1839.336326
16 Dec 2019 16:50:20.000,339.693,4.875,1837.227389
16 Dec 2019 16:50:21.000,339.912,4.899,1835.142035
16 Dec 2019 16:50:22.000,340.133,4.923,1833.080347
16 Dec 2019 16:50:23.000,340.354,4.947,1831.042406
16 Dec 2019 16:50:24.000,340.575,4.971,1829.028296
16 Dec 2019 16:50:25.000,340.797,4.994,1827.038096
16 Dec 2019 16:50:26.000,341.019,5.018,1825.071887
16 Dec 2019 16:50:27.000,341.242,5.040,1823.129751
16 Dec 2019 16:50:28.000,341.466,5.063,1821.211763
16 Dec 2019 16:50:29.000,341.689,5.086,1819.318004
16 Dec 2019 16:50:30.000,341.914,5.108,1817.448553
16 Dec 2019 16:50:31.000,342.138,5.130,1815.603485
16 Dec 2019 16:50:32.000,342.364,5.151,1813.782878
16 Dec 2019 16:50:33.000,342.589,5.173,1811.986806
16 Dec 2019 16:50:34.000,342.816,5.194,1810.215345
16 Dec 2019 16:50:35.000,343.042,5.215,1808.468571
16 Dec 2019 16:50:36.000,343.269,5.235,1806.746554
16 Dec 2019 16:50:37.000,343.497,5.256,1805.049371
16 Dec 2019 16:50:38.000,343.725,5.276,1803.377090
16 Dec 2019 16:50:39.000,343.953,5.296,1801.729785
16 Dec 2019 16:50:40.000,344.182,5.315,1800.107524
16 Dec 2019 16:50:41.000,344.411,5.334,1798.510378
16 Dec 2019 16:50:42.000,344.640,5.353,1796.938417
16 Dec 2019 16:50:43.000,344.870,5.372,1795.391706
16 Dec 2019 16:50:44.000,345.101,5.390,1793.870315
16 Dec 2019 16:50:45.000,345.331,5.408,1792.374308
16 Dec 2019 16:50:46.000,345.563,5.426,1790.903752
16 Dec 2019 16:50:47.000,345.794,5.444,1789.458709
16 Dec 2019 16:50:48.000,346.026,5.461,1788.039245
16 Dec 2019 16:50:49.000,346.258,5.478,1786.645421
16 Dec 2019 16:50:50.000,346.491,5.494,1785.277299
16 Dec 2019 16:50:51.000,346.724,5.511,1783.934940
16 Dec 2019 16:50:52.000,346.958,5.527,1782.618403
16 Dec 2019 16:50:53.000,347.191,5.542,1781.327748
16 Dec 2019 16:50:54.000,347.425,5.558,1780.063031
16 Dec 2019 16:50:55.000,347.660,5.573,1778.824310
16 Dec 2019 16:50:56.000,347.895,5.588,1777.611639
16 Dec 2019 16:50:57.000,348.130,5.602,1776.425076
16 Dec 2019 16:50:58.000,348.365,5.617,1775.264672
16 Dec 2019 16:50:59.000,348.601,5.631,1774.130479
16 Dec 2019 16:51:00.000,348.837,5.644,1773.022551
16 Dec 2019 16:51:01.000,349.073,5.657,1771.940937
16 Dec 2019 16:51:02.000,349.310,5.670,1770.885686
16 Dec 2019 16:51:03.000,349.546,5.683,1769.856848
16 Dec 2019 16:51:04.000,349.784,5.695,1768.854468
16 Dec 2019 16:51:05.000,350.021,5.707,1767.878595
16 Dec 2019 16:51:06.000,350.259,5.719,1766.929271
16 Dec 2019 16:51:07.000,350.497,5.731,1766.006542
16 Dec 2019 16:51:08.000,350.735,5.742,1765.110449
16 Dec 2019 16:51:09.000,350.973,5.752,1764.241036
16 Dec 2019 16:51:10.000,351.212,5.763,1763.398341
16 Dec 2019 16:51:11.000,351.451,5.773,1762.582403
16 Dec 2019 16:51:12.000,351.690,5.783,1761.793262
16 Dec 2019 16:51:13.000,351.929,5.792,1761.030955
16 Dec 2019 16:51:14.000,352.169,5.801,1760.295516
16 Dec 2019 16:51:15.000,352.409,5.810,1759.586979
16 Dec 2019 16:51:16.000,352.649,5.819,1758.905380
16 Dec 2019 16:51:17.000,352.889,5.827,1758.250749
16 Dec 2019 16:51:18.000,353.129,5.835,1757.623118
16 Dec 2019 16:51:19.000,353.370,5.842,1757.022515
16 Dec 2019 16:51:20.000,353.610,5.849,1756.448971
16 Dec 2019 16:51:21.000,353.851,5.856,1755.902510
16 Dec 2019 16:51:22.000,354.092,5.863,1755.383160
16 Dec 2019 16:51:23.000,354.333,5.869,1754.890945
16 Dec 2019 16:51:24.000,354.575,5.875,1754.425888
16 Dec 2019 16:51:25.000,354.816,5.880,1753.988012
16 Dec 2019 16:51:26.000,355.057,5.885,1753.577337
16 Dec 2019 16:51:27.000,355.299,5.890,1753.193882
16 Dec 2019 16:51:28.000,355.541,5.895,1752.837667
16 Dec 2019 16:51:29.000,355.783,5.899,1752.508708
16 Dec 2019 16:51:30.000,356.024,5.902,1752.207021
16 Dec 2019 16:51:31.000,356.266,5.906,1751.932620
16 Dec 2019 16:51:32.000,356.508,5.909,1751.685517
16 Dec 2019 16:51:33.000,356.751,5.912,1751.465726
16 Dec 2019 16:51:34.000,356.993,5.914,1751.273257
16 Dec 2019 16:51:35.000,357.235,5.916,1751.108118
16 Dec 2019 16:51:36.000,357.477,5.918,1750.970317
16 Dec 2019 16:51:37.000,357.720,5.920,1750.859862
16 Dec 2019 16:51:38.000,357.962,5.921,1750.776757
16 Dec 2019 16:51:39.000,358.204,5.921,1750.721007
16 Dec 2019 16:51:40.000,358.447,5.922,1750.692613
16 Dec 2019 16:51:41.000,358.689,5.922,1750.691578
16 Dec 2019 16:51:42.000,358.931,5.922,1750.717901
16 Dec 2019 16:51:43.000,359.174,5.921,1750.771581
16 Dec 2019 16:51:44.000,359.416,5.920,1750.852615
16 Dec 2019 16:51:45.000,359.658,5.919,1750.961000
16 Dec 2019 16:51:46.000,359.901,5.917,1751.096730
16 Dec 2019 16:51:47.000,0.143,5.915,1751.259798
16 Dec 2019 16:51:48.000,0.385,5.913,1751.450198
16 Dec 2019 16:51:49.000,0.627,5.910,1751.667919
16 Dec 2019 16:51:50.000,0.869,5.907,1751.912951
16 Dec 2019 16:51:51.000,1.111,5.904,1752.185282
16 Dec 2019 16:51:52.000,1.353,5.900,1752.484900
16 Dec 2019 16:51:53.000,1.595,5.896,1752.811790
16 Dec 2019 16:51:54.000,1.837,5.892,1753.165935
16 Dec 2019 16:51:55.000,2.078,5.887,1753.547320
16 Dec 2019 16:51:56.000,2.320,5.882,1753.955927
16 Dec 2019 16:51:57.000,2.561,5.877,1754.391734
16 Dec 2019 16:51:58.000,2.802,5.871,1754.854722
16 Dec 2019 16:51:59.000,3.043,5.865,1755.344869
16 Dec 2019 16:52:00.000,3.284,5.859,1755.862151
16 Dec 2019 16:52:01.000,3.525,5.852,1756.406544
16 Dec 2019 16:52:02.000,3.766,5.845,1756.978022
16 Dec 2019 16:52:03.000,4.006,5.838,1757.576557
16 Dec 2019 16:52:04.000,4.247,5.830,1758.202121
16 Dec 2019 16:52:05.000,4.487,5.822,1758.854686
16 Dec 2019 16:52:06.000,4.727,5.814,1759.534219
16 Dec 2019 16:52:07.000,4.967,5.805,1760.240689
16 Dec 2019 16:52:08.000,5.206,5.796,1760.974063
16 Dec 2019 16:52:09.000,5.446,5.787,1761.734305
16 Dec 2019 16:52:10.000,5.685,5.777,1762.521382
16 Dec 2019 16:52:11.000,5.924,5.767,1763.335255
16 Dec 2019 16:52:12.000,6.162,5.757,1764.175886
16 Dec 2019 16:52:13.000,6.401,5.747,1765.043236
16 Dec 2019 16:52:14.000,6.639,5.736,1765.937266
16 Dec 2019 16:52:15.000,6.877,5.724,1766.857933
16 Dec 2019 16:52:16.000,7.115,5.713,1767.805194
16 Dec 2019 16:52:17.000,7.352,5.701,1768.779006
16 Dec 2019 16:52:18.000,7.589,5.689,1769.779324
16 Dec 2019 16:52:19.000,7.826,5.676,1770.806101
16 Dec 2019 16:52:20.000,8.063,5.663,1771.859292
16 Dec 2019 16:52:21.000,8.299,5.650,1772.938846
16 Dec 2019 16:52:22.000,8.535,5.637,1774.044715
16 Dec 2019 16:52:23.000,8.771,5.623,1775.176848
16 Dec 2019 16:52:24.000,9.007,5.609,1776.335194
16 Dec 2019 16:52:25.000,9.242,5.595,1777.519700
16 Dec 2019 16:52:26.000,9.476,5.580,1778.730313
16 Dec 2019 16:52:27.000,9.711,5.565,1779.966977
16 Dec 2019 16:52:28.000,9.945,5.550,1781.229638
16 Dec 2019 16:52:29.000,10.179,5.534,1782.518237
16 Dec 2019 16:52:30.000,10.412,5.518,1783.832719
16 Dec 2019 16:52:31.000,10.645,5.502,1785.173023
16 Dec 2019 16:52:32.000,10.878,5.485,1786.539091
16 Dec 2019 16:52:33.000,11.110,5.469,1787.930861
16 Dec 2019 16:52:34.000,11.342,5.452,1789.348272
16 Dec 2019 16:52:35.000,11.574,5.434,1790.791262
16 Dec 2019 16:52:36.000,11.805,5.417,1792.259766
16 Dec 2019 16:52:37.000,12.036,5.399,1793.753722
16 Dec 2019 16:52:38.000,12.266,5.380,1795.273062
16 Dec 2019 16:52:39.000,12.496,5.362,1796.817722
16 Dec 2019 16:52:40.000,12.726,5.343,1798.387633
16 Dec 2019 16:52:41.000,12.955,5.324,1799.982730
16 Dec 2019 16:52:42.000,13.184,5.305,1801.602941
16 Dec 2019 16:52:43.000,13.412,5.285,1803.248199
16 Dec 2019 16:52:44.000,13.640,5.265,1804.918431
16 Dec 2019 16:52:45.000,13.868,5.245,1806.613568
16 Dec 2019 16:52:46.000,14.095,5.224,1808.333538
16 Dec 2019 16:52:47.000,14.321,5.204,1810.078266
16 Dec 2019 16:52:48.000,14.548,5.183,1811.847681
16 Dec 2019 16:52:49.000,14.773,5.161,1813.641707
16 Dec 2019 16:52:50.000,14.999,5.140,1815.460270
16 Dec 2019 16:52:51.000,15.223,5.118,1817.303294
16 Dec 2019 16:52:52.000,15.448,5.096,1819.170702
16 Dec 2019 16:52:53.000,15.672,5.074,1821.062417
16 Dec 2019 16:52:54.000,15.895,5.051,1822.978361
16 Dec 2019 16:52:55.000,16.118,5.028,1824.918456
16 Dec 2019 16:52:56.000,16.340,5.005,1826.882624
16 Dec 2019 16:52:57.000,16.562,4.982,1828.870782
16 Dec 2019 16:52:58.000,16.784,4.958,1830.882851
16 Dec 2019 16:52:59.000,17.005,4.935,1832.918751
16 Dec 2019 16:53:00.000,17.225,4.911,1834.978399
16 Dec 2019 16:53:01.000,17.445,4.886,1837.061714
16 Dec 2019 16:53:02.000,17.665,4.862,1839.168612
16 Dec 2019 16:53:03.000,17.883,4.837,1841.299010
16 Dec 2019 16:53:04.000,18.102,4.812,1843.452824
16 Dec 2019 16:53:05.000,18.320,4.787,1845.629969
16 Dec 2019 16:53:06.000,18.537,4.761,1847.830362
16 Dec 2019 16:53:07.000,18.754,4.735,1850.053915
16 Dec 2019 16:53:08.000,18.970,4.710,1852.300543
16 Dec 2019 16:53:09.000,19.186,4.683,1854.570160
16 Dec 2019 16:53:10.000,19.401,4.657,1856.862680
16 Dec 2019 16:53:11.000,19.616,4.630,1859.178013
16 Dec 2019 16:53:12.000,19.830,4.603,1861.516073
16 Dec 2019 16:53:13.000,20.044,4.576,1863.876771
16 Dec 2019 16:53:14.000,20.257,4.549,1866.260020
16 Dec 2019 16:53:15.000,20.469,4.522,1868.665728
16 Dec 2019 16:53:16.000,20.681,4.494,1871.093808
16 Dec 2019 16:53:17.000,20.893,4.466,1873.544170
16 Dec 2019 16:53:18.000,21.103,4.438,1876.016722
16 Dec 2019 16:53:19.000,21.314,4.410,1878.511377
16 Dec 2019 16:53:20.000,21.523,4.381,1881.028041
16 Dec 2019 16:53:21.000,21.732,4.352,1883.566624
16 Dec 2019 16:53:22.000,21.941,4.323,1886.127034
16 Dec 2019 16:53:23.000,22.149,4.294,1888.709180
16 Dec 2019 16:53:24.000,22.356,4.265,1891.312970
16 Dec 2019 16:53:25.000,22.563,4.236,1893.938311
16 Dec 2019 16:53:26.000,22.769,4.206,1896.585113
16 Dec 2019 16:53:27.000,22.975,4.176,1899.253280
16 Dec 2019 16:53:28.000,23.180,4.146,1901.942720
16 Dec 2019 16:53:29.000,23.385,4.116,1904.653340
16 Dec 2019 16:53:30.000,23.588,4.085,1907.385047
16 Dec 2019 16:53:31.000,23.792,4.055,1910.137746
16 Dec 2019 16:53:32.000,23.994,4.024,1912.911345
16 Dec 2019 16:53:33.000,24.197,3.993,1915.705749
16 Dec 2019 16:53:34.000,24.398,3.962,1918.520865
16 Dec 2019 16:53:35.000,24.599,3.930,1921.356597
16 Dec 2019 16:53:36.000,24.799,3.899,1924.212851
16 Dec 2019 16:53:37.000,24.999,3.867,1927.089534
16 Dec 2019 16:53:38.000,25.198,3.835,1929.986549
16 Dec 2019 16:53:39.000,25.397,3.803,1932.903803
16 Dec 2019 16:53:40.000,25.595,3.771,1935.841201
16 Dec 2019 16:53:41.000,25.792,3.739,1938.798649
16 Dec 2019 16:53:42.000,25.989,3.706,1941.776049
16 Dec 2019 16:53:43.000,26.185,3.674,1944.773308
16 Dec 2019 16:53:44.000,26.380,3.641,1947.790330
16 Dec 2019 16:53:45.000,26.575,3.608,1950.827021
16 Dec 2019 16:53:46.000,26.769,3.575,1953.883282
16 Dec 2019 16:53:47.000,26.963,3.542,1956.959024
16 Dec 2019 16:53:48.000,27.156,3.508,1960.054148
16 Dec 2019 16:53:49.000,27.348,3.475,1963.168560
16 Dec 2019 16:53:50.000,27.540,3.441,1966.302164
16 Dec 2019 16:53:51.000,27.731,3.407,1969.454865
16 Dec 2019 16:53:52.000,27.922,3.373,1972.626567
16 Dec 2019 16:53:53.000,28.112,3.339,1975.817177
16 Dec 2019 16:53:54.000,28.301,3.305,1979.026597
16 Dec 2019 16:53:55.000,28.490,3.271,1982.254735
16 Dec 2019 16:53:56.000,28.678,3.236,1985.501494
16 Dec 2019 16:53:57.000,28.866,3.201,1988.766779
16 Dec 2019 16:53:58.000,29.053,3.167,1992.050496
16 Dec 2019 16:53:59.000,29.239,3.132,1995.352550
16 Dec 2019 16:54:00.000,29.425,3.097,1998.672847
16 Dec 2019 16:54:01.000,29.610,3.062,2002.011289
16 Dec 2019 16:54:02.000,29.794,3.026,2005.367786
16 Dec 2019 16:54:03.000,29.978,2.991,2008.742242
16 Dec 2019 16:54:04.000,30.161,2.955,2012.134563
16 Dec 2019 16:54:05.000,30.344,2.920,2015.544654
16 Dec 2019 16:54:06.000,30.525,2.884,2018.972422
16 Dec 2019 16:54:07.000,30.707,2.848,2022.417773
16 Dec 2019 16:54:08.000,30.887,2.812,2025.880612
16 Dec 2019 16:54:09.000,31.068,2.776,2029.360846
16 Dec 2019 16:54:10.000,31.247,2.740,2032.858383
16 Dec 2019 16:54:11.000,31.426,2.704,2036.373130
16 Dec 2019 16:54:12.000,31.604,2.667,2039.904993
16 Dec 2019 16:54:13.000,31.782,2.631,2043.453879
16 Dec 2019 16:54:14.000,31.959,2.594,2047.019695
16 Dec 2019 16:54:15.000,32.135,2.558,2050.602348
16 Dec 2019 16:54:16.000,32.311,2.521,2054.201750
16 Dec 2019 16:54:17.000,32.486,2.484,2057.817805
16 Dec 2019 16:54:18.000,32.661,2.447,2061.450422
16 Dec 2019 16:54:19.000,32.835,2.410,2065.099508
16 Dec 2019 16:54:20.000,33.008,2.373,2068.764976
16 Dec 2019 16:54:21.000,33.181,2.336,2072.446732
16 Dec 2019 16:54:22.000,33.353,2.298,2076.144685
16 Dec 2019 16:54:23.000,33.524,2.261,2079.858745
16 Dec 2019 16:54:24.000,33.695,2.223,2083.588819
16 Dec 2019 16:54:25.000,33.865,2.186,2087.334821
16 Dec 2019 16:54:26.000,34.035,2.148,2091.096660
16 Dec 2019 16:54:27.000,34.204,2.110,2094.874246
16 Dec 2019 16:54:28.000,34.373,2.072,2098.667486
16 Dec 2019 16:54:29.000,34.540,2.034,2102.476297
16 Dec 2019 16:54:30.000,34.708,1.996,2106.300588
16 Dec 2019 16:54:31.000,34.874,1.958,2110.140269
16 Dec 2019 16:54:32.000,35.040,1.920,2113.995251
16 Dec 2019 16:54:33.000,35.206,1.882,2117.865450
16 Dec 2019 16:54:34.000,35.371,1.844,2121.750775
16 Dec 2019 16:54:35.000,35.535,1.805,2125.651138
16 Dec 2019 16:54:36.000,35.699,1.767,2129.566456
16 Dec 2019 16:54:37.000,35.862,1.728,2133.496639
16 Dec 2019 16:54:38.000,36.024,1.690,2137.441599
16 Dec 2019 16:54:39.000,36.186,1.651,2141.401254
16 Dec 2019 16:54:40.000,36.347,1.612,2145.375516
16 Dec 2019 16:54:41.000,36.508,1.574,2149.364297
16 Dec 2019 16:54:42.000,36.668,1.535,2153.367517
16 Dec 2019 16:54:43.000,36.827,1.496,2157.385088
16 Dec 2019 16:54:44.000,36.986,1.457,2161.416923
16 Dec 2019 16:54:45.000,37.145,1.418,2165.462943
16 Dec 2019 16:54:46.000,37.302,1.379,2169.523062
16 Dec 2019 16:54:47.000,37.460,1.340,2173.597192
16 Dec 2019 16:54:48.000,37.616,1.301,2177.685256
16 Dec 2019 16:54:49.000,37.772,1.261,2181.787169
16 Dec 2019 16:54:50.000,37.928,1.222,2185.902845
16 Dec 2019 16:54:51.000,38.082,1.183,2190.032206
16 Dec 2019 16:54:52.000,38.237,1.143,2194.175169
16 Dec 2019 16:54:53.000,38.390,1.104,2198.331650
16 Dec 2019 16:54:54.000,38.544,1.064,2202.501571
16 Dec 2019 16:54:55.000,38.696,1.025,2206.684847
16 Dec 2019 16:54:56.000,38.848,0.985,2210.881403
16 Dec 2019 16:54:57.000,39.000,0.946,2215.091155
16 Dec 2019 16:54:58.000,39.150,0.906,2219.314021
16 Dec 2019 16:54:59.000,39.301,0.866,2223.549927
16 Dec 2019 16:55:00.000,39.450,0.826,2227.798788
16 Dec 2019 16:55:01.000,39.600,0.787,2232.060531
16 Dec 2019 16:55:02.000,39.748,0.747,2236.335072
16 Dec 2019 16:55:03.000,39.896,0.707,2240.622338
16 Dec 2019 16:55:04.000,40.044,0.667,2244.922248
16 Dec 2019 16:55:05.000,40.191,0.627,2249.234723
16 Dec 2019 16:55:06.000,40.337,0.587,2253.559691
16 Dec 2019 16:55:07.000,40.483,0.547,2257.897069
16 Dec 2019 16:55:08.000,40.628,0.507,2262.246787
16 Dec 2019 16:55:09.000,40.773,0.467,2266.608763
16 Dec 2019 16:55:10.000,40.917,0.427,2270.982927
16 Dec 2019 16:55:11.000,41.061,0.387,2275.369199
16 Dec 2019 16:55:12.000,41.204,0.346,2279.767508
16 Dec 2019 16:55:13.000,41.347,0.306,2284.177778
16 Dec 2019 16:55:14.000,41.489,0.266,2288.599931
16 Dec 2019 16:55:15.000,41.630,0.226,2293.033900
16 Dec 2019 16:55:16.000,41.771,0.185,2297.479605
16 Dec 2019 16:55:17.000,41.912,0.145,2301.936979
16 Dec 2019 16:55:18.000,42.051,0.105,2306.405944
16 Dec 2019 16:55:19.000,42.191,0.064,2310.886431
16 Dec 2019 16:55:20.000,42.330,0.024,2315.378366
16 Dec 2019 16:55:21.000,42.468,-0.017,2319.881680
16 Dec 2019 16:55:22.000,42.606,-0.057,2324.396297
16 Dec 2019 16:55:23.000,42.743,-0.098,2328.922152
16 Dec 2019 16:55:23.658,42.833,-0.124,2331.905915
16 Dec 2019 18:25:03.836,323.683,-0.124,2331.789543
16 Dec 2019 18:25:04.000,323.701,-0.116,2330.891284
16 Dec 2019 18:25:05.000,323.812,-0.067,2325.421034
16 Dec 2019 18:25:06.000,323.924,-0.018,2319.958044
16 Dec 2019 18:25:07.000,324.036,0.031,2314.502370
16 Dec 2019 18:25:08.000,324.149,0.080,2309.054073
16 Dec 2019 18:25:09.000,324.262,0.129,2303.613210
16 Dec 2019 18:25:10.000,324.375,0.178,2298.179844
16 Dec 2019 18:25:11.000,324.490,0.227,2292.754029
16 Dec 2019 18:25:12.000,324.604,0.276,2287.335828
16 Dec 2019 18:25:13.000,324.720,0.326,2281.925301
16 Dec 2019 18:25:14.000,324.835,0.375,2276.522511
16 Dec 2019 18:25:15.000,324.952,0.424,2271.127520
16 Dec 2019 18:25:16.000,325.069,0.474,2265.740387
16 Dec 2019 18:25:17.000,325.186,0.523,2260.361176
16 Dec 2019 18:25:18.000,325.304,0.573,2254.989950
16 Dec 2019 18:25:19.000,325.422,0.622,2249.626774
16 Dec 2019 18:25:20.000,325.541,0.672,2244.271713
16 Dec 2019 18:25:21.000,325.661,0.722,2238.924828
16 Dec 2019 18:25:22.000,325.781,0.771,2233.586186
16 Dec 2019 18:25:23.000,325.902,0.821,2228.255852
16 Dec 2019 18:25:24.000,326.023,0.871,2222.933894
16 Dec 2019 18:25:25.000,326.145,0.921,2217.620379
16 Dec 2019 18:25:26.000,326.268,0.971,2212.315370
16 Dec 2019 18:25:27.000,326.391,1.021,2207.018938
16 Dec 2019 18:25:28.000,326.514,1.071,2201.731150
16 Dec 2019 18:25:29.000,326.638,1.121,2196.452078
16 Dec 2019 18:25:30.000,326.763,1.171,2191.181787
16 Dec 2019 18:25:31.000,326.888,1.221,2185.920348
16 Dec 2019 18:25:32.000,327.014,1.271,2180.667832
16 Dec 2019 18:25:33.000,327.141,1.321,2175.424312
16 Dec 2019 18:25:34.000,327.268,1.372,2170.189855
16 Dec 2019 18:25:35.000,327.396,1.422,2164.964536
16 Dec 2019 18:25:36.000,327.524,1.472,2159.748427
16 Dec 2019 18:25:37.000,327.653,1.523,2154.541603
16 Dec 2019 18:25:38.000,327.782,1.573,2149.344133
16 Dec 2019 18:25:39.000,327.913,1.623,2144.156095
16 Dec 2019 18:25:40.000,328.043,1.674,2138.977563
16 Dec 2019 18:25:41.000,328.175,1.724,2133.808615
16 Dec 2019 18:25:42.000,328.307,1.775,2128.649321
16 Dec 2019 18:25:43.000,328.439,1.826,2123.499762
16 Dec 2019 18:25:44.000,328.573,1.876,2118.360016
16 Dec 2019 18:25:45.000,328.707,1.927,2113.230157
16 Dec 2019 18:25:46.000,328.841,1.978,2108.110266
16 Dec 2019 18:25:47.000,328.977,2.028,2103.000421
16 Dec 2019 18:25:48.000,329.112,2.079,2097.900703
16 Dec 2019 18:25:49.000,329.249,2.130,2092.811190
16 Dec 2019 18:25:50.000,329.386,2.181,2087.731964
16 Dec 2019 18:25:51.000,329.524,2.232,2082.663107
16 Dec 2019 18:25:52.000,329.662,2.283,2077.604699
16 Dec 2019 18:25:53.000,329.802,2.334,2072.556824
16 Dec 2019 18:25:54.000,329.942,2.385,2067.519566
16 Dec 2019 18:25:55.000,330.082,2.436,2062.493007
16 Dec 2019 18:25:56.000,330.223,2.487,2057.477232
16 Dec 2019 18:25:57.000,330.365,2.538,2052.472328
16 Dec 2019 18:25:58.000,330.508,2.589,2047.478377
16 Dec 2019 18:25:59.000,330.651,2.640,2042.495468
16 Dec 2019 18:26:00.000,330.795,2.691,2037.523690
16 Dec 2019 18:26:01.000,330.940,2.742,2032.563126
16 Dec 2019 18:26:02.000,331.085,2.794,2027.613866
16 Dec 2019 18:26:03.000,331.231,2.845,2022.676002
16 Dec 2019 18:26:04.000,331.378,2.896,2017.749619
16 Dec 2019 18:26:05.000,331.525,2.948,2012.834810
16 Dec 2019 18:26:06.000,331.674,2.999,2007.931667
16 Dec 2019 18:26:07.000,331.822,3.050,2003.040277
16 Dec 2019 18:26:08.000,331.972,3.102,1998.160736
16 Dec 2019 18:26:09.000,332.123,3.153,1993.293138
16 Dec 2019 18:26:10.000,332.274,3.204,1988.437572
16 Dec 2019 18:26:11.000,332.426,3.256,1983.594138
16 Dec 2019 18:26:12.000,332.578,3.307,1978.762925
16 Dec 2019 18:26:13.000,332.731,3.359,1973.944032
16 Dec 2019 18:26:14.000,332.886,3.410,1969.137556
16 Dec 2019 18:26:15.000,333.040,3.462,1964.343590
16 Dec 2019 18:26:16.000,333.196,3.513,1959.562237
16 Dec 2019 18:26:17.000,333.352,3.565,1954.793591
16 Dec 2019 18:26:18.000,333.509,3.616,1950.037752
16 Dec 2019 18:26:19.000,333.667,3.668,1945.294823
16 Dec 2019 18:26:20.000,333.826,3.719,1940.564899
16 Dec 2019 18:26:21.000,333.985,3.771,1935.848086
16 Dec 2019 18:26:22.000,334.146,3.822,1931.144482
16 Dec 2019 18:26:23.000,334.307,3.874,1926.454190
16 Dec 2019 18:26:24.000,334.469,3.925,1921.777317
16 Dec 2019 18:26:25.000,334.631,3.977,1917.113961
16 Dec 2019 18:26:26.000,334.794,4.029,1912.464233
16 Dec 2019 18:26:27.000,334.959,4.080,1907.828232
16 Dec 2019 18:26:28.000,335.124,4.132,1903.206069
16 Dec 2019 18:26:29.000,335.289,4.183,1898.597846
16 Dec 2019 18:26:30.000,335.456,4.235,1894.003675
16 Dec 2019 18:26:31.000,335.623,4.286,1889.423661
16 Dec 2019 18:26:32.000,335.792,4.338,1884.857914
16 Dec 2019 18:26:33.000,335.961,4.389,1880.306543
16 Dec 2019 18:26:34.000,336.131,4.441,1875.769659
16 Dec 2019 18:26:35.000,336.301,4.493,1871.247371
16 Dec 2019 18:26:36.000,336.473,4.544,1866.739793
16 Dec 2019 18:26:37.000,336.645,4.595,1862.247035
16 Dec 2019 18:26:38.000,336.818,4.647,1857.769213
16 Dec 2019 18:26:39.000,336.992,4.698,1853.306437
16 Dec 2019 18:26:40.000,337.167,4.750,1848.858825
16 Dec 2019 18:26:41.000,337.343,4.801,1844.426488
16 Dec 2019 18:26:42.000,337.520,4.853,1840.009546
16 Dec 2019 18:26:43.000,337.697,4.904,1835.608113
16 Dec 2019 18:26:44.000,337.876,4.955,1831.222308
16 Dec 2019 18:26:45.000,338.055,5.007,1826.852246
16 Dec 2019 18:26:46.000,338.235,5.058,1822.498049
16 Dec 2019 18:26:47.000,338.416,5.109,1818.159834
16 Dec 2019 18:26:48.000,338.598,5.160,1813.837722
16 Dec 2019 18:26:49.000,338.780,5.211,1809.531833
16 Dec 2019 18:26:50.000,338.964,5.262,1805.242289
16 Dec 2019 18:26:51.000,339.148,5.314,1800.969212
16 Dec 2019 18:26:52.000,339.334,5.365,1796.712724
16 Dec 2019 18:26:53.000,339.520,5.416,1792.472949
16 Dec 2019 18:26:54.000,339.707,5.466,1788.250010
16 Dec 2019 18:26:55.000,339.895,5.517,1784.044034
16 Dec 2019 18:26:56.000,340.084,5.568,1779.855146
16 Dec 2019 18:26:57.000,340.274,5.619,1775.683469
16 Dec 2019 18:26:58.000,340.465,5.670,1771.529133
16 Dec 2019 18:26:59.000,340.656,5.720,1767.392263
16 Dec 2019 18:27:00.000,340.849,5.771,1763.272989
16 Dec 2019 18:27:01.000,341.043,5.821,1759.171440
16 Dec 2019 18:27:02.000,341.237,5.872,1755.087742
16 Dec 2019 18:27:03.000,341.432,5.922,1751.022029
16 Dec 2019 18:27:04.000,341.629,5.973,1746.974430
16 Dec 2019 18:27:05.000,341.826,6.023,1742.945074
16 Dec 2019 18:27:06.000,342.024,6.073,1738.934096
16 Dec 2019 18:27:07.000,342.223,6.123,1734.941626
16 Dec 2019 18:27:08.000,342.423,6.173,1730.967799
16 Dec 2019 18:27:09.000,342.624,6.223,1727.012748
16 Dec 2019 18:27:10.000,342.826,6.273,1723.076606
16 Dec 2019 18:27:11.000,343.029,6.323,1719.159508
16 Dec 2019 18:27:12.000,343.233,6.372,1715.261591
16 Dec 2019 18:27:13.000,343.437,6.422,1711.382989
16 Dec 2019 18:27:14.000,343.643,6.471,1707.523839
16 Dec 2019 18:27:15.000,343.850,6.521,1703.684279
16 Dec 2019 18:27:16.000,344.057,6.570,1699.864445
16 Dec 2019 18:27:17.000,344.266,6.619,1696.064475
16 Dec 2019 18:27:18.000,344.475,6.668,1692.284509
16 Dec 2019 18:27:19.000,344.686,6.717,1688.524686
16 Dec 2019 18:27:20.000,344.897,6.766,1684.785143
16 Dec 2019 18:27:21.000,345.110,6.814,1681.066022
16 Dec 2019 18:27:22.000,345.323,6.863,1677.367463
16 Dec 2019 18:27:23.000,345.537,6.911,1673.689608
16 Dec 2019 18:27:24.000,345.753,6.960,1670.032597
16 Dec 2019 18:27:25.000,345.969,7.008,1666.396572
16 Dec 2019 18:27:26.000,346.186,7.056,1662.781674
16 Dec 2019 18:27:27.000,346.405,7.104,1659.188048
16 Dec 2019 18:27:28.000,346.624,7.151,1655.615836
16 Dec 2019 18:27:29.000,346.844,7.199,1652.065182
16 Dec 2019 18:27:30.000,347.065,7.246,1648.536228
16 Dec 2019 18:27:31.000,347.287,7.294,1645.029119
16 Dec 2019 18:27:32.000,347.510,7.341,1641.543999
16 Dec 2019 18:27:33.000,347.735,7.388,1638.081014
16 Dec 2019 18:27:34.000,347.960,7.434,1634.640308
16 Dec 2019 18:27:35.000,348.186,7.481,1631.222027
16 Dec 2019 18:27:36.000,348.413,7.527,1627.826315
16 Dec 2019 18:27:37.000,348.641,7.574,1624.453319
16 Dec 2019 18:27:38.000,348.870,7.620,1621.103184
16 Dec 2019 18:27:39.000,349.100,7.666,1617.776058
16 Dec 2019 18:27:40.000,349.331,7.711,1614.472086
16 Dec 2019 18:27:41.000,349.563,7.757,1611.191415
16 Dec 2019 18:27:42.000,349.796,7.802,1607.934192
16 Dec 2019 18:27:43.000,350.029,7.847,1604.700564
16 Dec 2019 18:27:44.000,350.264,7.892,1601.490677
16 Dec 2019 18:27:45.000,350.500,7.937,1598.304679
16 Dec 2019 18:27:46.000,350.737,7.981,1595.142717
16 Dec 2019 18:27:47.000,350.975,8.026,1592.004938
16 Dec 2019 18:27:48.000,351.214,8.070,1588.891490
16 Dec 2019 18:27:49.000,351.453,8.113,1585.802518
16 Dec 2019 18:27:50.000,351.694,8.157,1582.738172
16 Dec 2019 18:27:51.000,351.936,8.200,1579.698598
16 Dec 2019 18:27:52.000,352.178,8.244,1576.683942
16 Dec 2019 18:27:53.000,352.422,8.286,1573.694353
16 Dec 2019 18:27:54.000,352.667,8.329,1570.729977
16 Dec 2019 18:27:55.000,352.912,8.371,1567.790961
16 Dec 2019 18:27:56.000,353.159,8.413,1564.877451
16 Dec 2019 18:27:57.000,353.406,8.455,1561.989594
16 Dec 2019 18:27:58.000,353.655,8.497,1559.127536
16 Dec 2019 18:27:59.000,353.904,8.538,1556.291423
16 Dec 2019 18:28:00.000,354.154,8.579,1553.481401
16 Dec 2019 18:28:01.000,354.406,8.620,1550.697616
16 Dec 2019 18:28:02.000,354.658,8.661,1547.940211
16 Dec 2019 18:28:03.000,354.911,8.701,1545.209333
16 Dec 2019 18:28:04.000,355.165,8.741,1542.505126
16 Dec 2019 18:28:05.000,355.420,8.780,1539.827733
16 Dec 2019 18:28:06.000,355.676,8.820,1537.177298
16 Dec 2019 18:28:07.000,355.933,8.859,1534.553964
16 Dec 2019 18:28:08.000,356.190,8.897,1531.957875
16 Dec 2019 18:28:09.000,356.449,8.936,1529.389170
16 Dec 2019 18:28:10.000,356.709,8.974,1526.847994
16 Dec 2019 18:28:11.000,356.969,9.011,1524.334486
16 Dec 2019 18:28:12.000,357.231,9.049,1521.848786
16 Dec 2019 18:28:13.000,357.493,9.086,1519.391035
16 Dec 2019 18:28:14.000,357.756,9.123,1516.961372
16 Dec 2019 18:28:15.000,358.020,9.159,1514.559934
16 Dec 2019 18:28:16.000,358.285,9.195,1512.186860
16 Dec 2019 18:28:17.000,358.551,9.231,1509.842286
16 Dec 2019 18:28:18.000,358.818,9.266,1507.526348
16 Dec 2019 18:28:19.000,359.085,9.301,1505.239182
16 Dec 2019 18:28:20.000,359.354,9.336,1502.980921
16 Dec 2019 18:28:21.000,359.623,9.370,1500.751700
16 Dec 2019 18:28:22.000,359.893,9.404,1498.551651
16 Dec 2019 18:28:23.000,0.164,9.437,1496.380906
16 Dec 2019 18:28:24.000,0.435,9.470,1494.239594
16 Dec 2019 18:28:25.000,0.708,9.503,1492.127846
16 Dec 2019 18:28:26.000,0.981,9.535,1490.045790
16 Dec 2019 18:28:27.000,1.255,9.567,1487.993554
16 Dec 2019 18:28:28.000,1.530,9.599,1485.971263
16 Dec 2019 18:28:29.000,1.806,9.630,1483.979044
16 Dec 2019 18:28:30.000,2.083,9.660,1482.017019
16 Dec 2019 18:28:31.000,2.360,9.691,1480.085311
16 Dec 2019 18:28:32.000,2.638,9.721,1478.184043
16 Dec 2019 18:28:33.000,2.917,9.750,1476.313334
16 Dec 2019 18:28:34.000,3.196,9.779,1474.473303
16 Dec 2019 18:28:35.000,3.476,9.808,1472.664067
16 Dec 2019 18:28:36.000,3.757,9.836,1470.885743
16 Dec 2019 18:28:37.000,4.039,9.863,1469.138446
16 Dec 2019 18:28:38.000,4.322,9.891,1467.422287
16 Dec 2019 18:28:39.000,4.605,9.917,1465.737381
16 Dec 2019 18:28:40.000,4.888,9.944,1464.083835
16 Dec 2019 18:28:41.000,5.173,9.969,1462.461760
16 Dec 2019 18:28:42.000,5.458,9.995,1460.871262
16 Dec 2019 18:28:43.000,5.744,10.020,1459.312446
16 Dec 2019 18:28:44.000,6.030,10.044,1457.785417
16 Dec 2019 18:28:45.000,6.317,10.068,1456.290277
16 Dec 2019 18:28:46.000,6.605,10.092,1454.827125
16 Dec 2019 18:28:47.000,6.893,10.115,1453.396062
16 Dec 2019 18:28:48.000,7.182,10.137,1451.997183
16 Dec 2019 18:28:49.000,7.471,10.159,1450.630584
16 Dec 2019 18:28:50.000,7.761,10.181,1449.296357
16 Dec 2019 18:28:51.000,8.052,10.202,1447.994595
16 Dec 2019 18:28:52.000,8.343,10.223,1446.725387
16 Dec 2019 18:28:53.000,8.635,10.243,1445.488820
16 Dec 2019 18:28:54.000,8.927,10.262,1444.284981
16 Dec 2019 18:28:55.000,9.220,10.281,1443.113952
16 Dec 2019 18:28:56.000,9.513,10.300,1441.975816
16 Dec 2019 18:28:57.000,9.807,10.318,1440.870652
16 Dec 2019 18:28:58.000,10.101,10.335,1439.798537
16 Dec 2019 18:28:59.000,10.395,10.352,1438.759548
16 Dec 2019 18:29:00.000,10.690,10.369,1437.753757
16 Dec 2019 18:29:01.000,10.986,10.384,1436.781236
16 Dec 2019 18:29:02.000,11.282,10.400,1435.842055
16 Dec 2019 18:29:03.000,11.578,10.415,1434.936279
16 Dec 2019 18:29:04.000,11.875,10.429,1434.063973
16 Dec 2019 18:29:05.000,12.172,10.443,1433.225202
16 Dec 2019 18:29:06.000,12.469,10.456,1432.420023
16 Dec 2019 18:29:07.000,12.767,10.469,1431.648495
16 Dec 2019 18:29:08.000,13.065,10.481,1430.910675
16 Dec 2019 18:29:09.000,13.364,10.492,1430.206616
16 Dec 2019 18:29:10.000,13.662,10.503,1429.536368
16 Dec 2019 18:29:11.000,13.961,10.514,1428.899980
16 Dec 2019 18:29:12.000,14.261,10.524,1428.297498
16 Dec 2019 18:29:13.000,14.560,10.533,1427.728969
16 Dec 2019 18:29:14.000,14.860,10.542,1427.194430
16 Dec 2019 18:29:15.000,15.160,10.550,1426.693924
16 Dec 2019 18:29:16.000,15.461,10.558,1426.227485
16 Dec 2019 18:29:17.000,15.761,10.565,1425.795150
16 Dec 2019 18:29:18.000,16.062,10.571,1425.396948
16 Dec 2019 18:29:19.000,16.363,10.577,1425.032911
16 Dec 2019 18:29:20.000,16.664,10.583,1424.703066
16 Dec 2019 18:29:21.000,16.965,10.588,1424.407436
16 Dec 2019 18:29:22.000,17.266,10.592,1424.146043
16 Dec 2019 18:29:23.000,17.567,10.595,1423.918908
16 Dec 2019 18:29:24.000,17.869,10.599,1423.726047
16 Dec 2019 18:29:25.000,18.170,10.601,1423.567474
16 Dec 2019 18:29:26.000,18.472,10.603,1423.443202
16 Dec 2019 18:29:27.000,18.774,10.605,1423.353241
16 Dec 2019 18:29:28.000,19.075,10.605,1423.297597
16 Dec 2019 18:29:29.000,19.377,10.606,1423.276274
16 Dec 2019 18:29:30.000,19.679,10.605,1423.289276
16 Dec 2019 18:29:31.000,19.980,10.604,1423.336600
16 Dec 2019 18:29:32.000,20.282,10.603,1423.418245
16 Dec 2019 18:29:33.000,20.584,10.601,1423.534204
16 Dec 2019 18:29:34.000,20.885,10.598,1423.684469
16 Dec 2019 18:29:35.000,21.187,10.595,1423.869030
16 Dec 2019 18:29:36.000,21.488,10.592,1424.087874
16 Dec 2019 18:29:37.000,21.789,10.587,1424.340985
16 Dec 2019 18:29:38.000,22.090,10.582,1424.628344
16 Dec 2019 18:29:39.000,22.392,10.577,1424.949931
16 Dec 2019 18:29:40.000,22.692,10.571,1425.305724
16 Dec 2019 18:29:41.000,22.993,10.564,1425.695694
16 Dec 2019 18:29:42.000,23.294,10.557,1426.119816
16 Dec 2019 18:29:43.000,23.594,10.549,1426.578060
16 Dec 2019 18:29:44.000,23.894,10.541,1427.070391
16 Dec 2019 18:29:45.000,24.194,10.532,1427.596774
16 Dec 2019 18:29:46.000,24.494,10.523,1428.157171
16 Dec 2019 18:29:47.000,24.793,10.513,1428.751541
16 Dec 2019 18:29:48.000,25.092,10.502,1429.379844
16 Dec 2019 18:29:49.000,25.391,10.491,1430.042033
16 Dec 2019 18:29:50.000,25.689,10.480,1430.738060
16 Dec 2019 18:29:51.000,25.988,10.468,1431.467877
16 Dec 2019 18:29:52.000,26.286,10.455,1432.231429
16 Dec 2019 18:29:53.000,26.583,10.442,1433.028666
16 Dec 2019 18:29:54.000,26.880,10.428,1433.859528
16 Dec 2019 18:29:55.000,27.177,10.414,1434.723955
16 Dec 2019 18:29:56.000,27.473,10.399,1435.621890
16 Dec 2019 18:29:57.000,27.769,10.383,1436.553266
16 Dec 2019 18:29:58.000,28.065,10.367,1437.518020
16 Dec 2019 18:29:59.000,28.360,10.351,1438.516079
16 Dec 2019 18:30:00.000,28.655,10.334,1439.547380
16 Dec 2019 18:30:01.000,28.949,10.316,1440.611846
16 Dec 2019 18:30:02.000,29.243,10.298,1441.709403
16 Dec 2019 18:30:03.000,29.536,10.280,1442.839977
16 Dec 2019 18:30:04.000,29.829,10.261,1444.003486
16 Dec 2019 18:30:05.000,30.121,10.241,1445.199854
16 Dec 2019 18:30:06.000,30.413,10.221,1446.428996
16 Dec 2019 18:30:07.000,30.704,10.200,1447.690826
16 Dec 2019 18:30:08.000,30.995,10.179,1448.985260
16 Dec 2019 18:30:09.000,31.285,10.158,1450.312208
16 Dec 2019 18:30:10.000,31.575,10.135,1451.671582
16 Dec 2019 18:30:11.000,31.864,10.113,1453.063286
16 Dec 2019 18:30:12.000,32.152,10.090,1454.487230
16 Dec 2019 18:30:13.000,32.440,10.066,1455.943314
16 Dec 2019 18:30:14.000,32.727,10.042,1457.431446
16 Dec 2019 18:30:15.000,33.014,10.018,1458.951520
16 Dec 2019 18:30:16.000,33.300,9.993,1460.503441
16 Dec 2019 18:30:17.000,33.585,9.967,1462.087101
16 Dec 2019 18:30:18.000,33.870,9.941,1463.702400
16 Dec 2019 18:30:19.000,34.153,9.915,1465.349228
16 Dec 2019 18:30:20.000,34.437,9.888,1467.027481
16 Dec 2019 18:30:21.000,34.719,9.861,1468.737046
16 Dec 2019 18:30:22.000,35.001,9.833,1470.477815
16 Dec 2019 18:30:23.000,35.282,9.805,1472.249674
16 Dec 2019 18:30:24.000,35.563,9.776,1474.052509
16 Dec 2019 18:30:25.000,35.842,9.747,1475.886208
16 Dec 2019 18:30:26.000,36.121,9.718,1477.750650
16 Dec 2019 18:30:27.000,36.400,9.688,1479.645722
16 Dec 2019 18:30:28.000,36.677,9.657,1481.571299
16 Dec 2019 18:30:29.000,36.954,9.627,1483.527263
16 Dec 2019 18:30:30.000,37.230,9.595,1485.513494
16 Dec 2019 18:30:31.000,37.505,9.564,1487.529866
16 Dec 2019 18:30:32.000,37.779,9.532,1489.576255
16 Dec 2019 18:30:33.000,38.053,9.499,1491.652538
16 Dec 2019 18:30:34.000,38.325,9.467,1493.758585
16 Dec 2019 18:30:35.000,38.597,9.433,1495.894269
16 Dec 2019 18:30:36.000,38.868,9.400,1498.059465
16 Dec 2019 18:30:37.000,39.138,9.366,1500.254037
16 Dec 2019 18:30:38.000,39.408,9.332,1502.477857
16 Dec 2019 18:30:39.000,39.676,9.297,1504.730794
16 Dec 2019 18:30:40.000,39.944,9.262,1507.012716
16 Dec 2019 18:30:41.000,40.211,9.227,1509.323486
16 Dec 2019 18:30:42.000,40.477,9.191,1511.662971
16 Dec 2019 18:30:43.000,40.742,9.155,1514.031035
16 Dec 2019 18:30:44.000,41.006,9.118,1516.427543
16 Dec 2019 18:30:45.000,41.270,9.081,1518.852360
16 Dec 2019 18:30:46.000,41.532,9.044,1521.305342
16 Dec 2019 18:30:47.000,41.794,9.007,1523.786355
16 Dec 2019 18:30:48.000,42.054,8.969,1526.295259
16 Dec 2019 18:30:49.000,42.314,8.931,1528.831914
16 Dec 2019 18:30:50.000,42.573,8.892,1531.396180
16 Dec 2019 18:30:51.000,42.831,8.853,1533.987917
16 Dec 2019 18:30:52.000,43.088,8.814,1536.606980
16 Dec 2019 18:30:53.000,43.344,8.775,1539.253229
16 Dec 2019 18:30:54.000,43.599,8.735,1541.926521
16 Dec 2019 18:30:55.000,43.854,8.695,1544.626713
16 Dec 2019 18:30:56.000,44.107,8.655,1547.353661
16 Dec 2019 18:30:57.000,44.359,8.614,1550.107222
16 Dec 2019 18:30:58.000,44.611,8.573,1552.887250
16 Dec 2019 18:30:59.000,44.861,8.532,1555.693602
16 Dec 2019 18:31:00.000,45.111,8.491,1558.526133
16 Dec 2019 18:31:01.000,45.359,8.449,1561.384699
16 Dec 2019 18:31:02.000,45.607,8.407,1564.269149
16 Dec 2019 18:31:03.000,45.854,8.365,1567.179340
16 Dec 2019 18:31:04.000,46.100,8.323,1570.115127
16 Dec 2019 18:31:05.000,46.344,8.280,1573.076363
16 Dec 2019 18:31:06.000,46.588,8.237,1576.062901
16 Dec 2019 18:31:07.000,46.831,8.194,1579.074594
16 Dec 2019 18:31:08.000,47.073,8.150,1582.111297
16 Dec 2019 18:31:09.000,47.314,8.106,1585.172861
16 Dec 2019 18:31:10.000,47.554,8.063,1588.259141
16 Dec 2019 18:31:11.000,47.793,8.018,1591.369989
16 Dec 2019 18:31:12.000,48.031,7.974,1594.505257
16 Dec 2019 18:31:13.000,48.268,7.929,1597.664797
16 Dec 2019 18:31:14.000,48.504,7.885,1600.848467
16 Dec 2019 18:31:15.000,48.739,7.840,1604.056117
16 Dec 2019 18:31:16.000,48.973,7.794,1607.287599
16 Dec 2019 18:31:17.000,49.206,7.749,1610.542768
16 Dec 2019 18:31:18.000,49.438,7.703,1613.821477
16 Dec 2019 18:31:19.000,49.669,7.657,1617.123578
16 Dec 2019 18:31:20.000,49.899,7.611,1620.448926
16 Dec 2019 18:31:21.000,50.128,7.565,1623.797374
16 Dec 2019 18:31:22.000,50.356,7.519,1627.168776
16 Dec 2019 18:31:23.000,50.584,7.472,1630.562986
16 Dec 2019 18:31:24.000,50.810,7.426,1633.979855
16 Dec 2019 18:31:25.000,51.035,7.379,1637.419244
16 Dec 2019 18:31:26.000,51.259,7.332,1640.881005
16 Dec 2019 18:31:27.000,51.483,7.284,1644.364993
16 Dec 2019 18:31:28.000,51.705,7.237,1647.871063
16 Dec 2019 18:31:29.000,51.926,7.189,1651.399070
16 Dec 2019 18:31:30.000,52.147,7.142,1654.948869
16 Dec 2019 18:31:31.000,52.366,7.094,1658.520320
16 Dec 2019 18:31:32.000,52.584,7.046,1662.113278
16 Dec 2019 18:31:33.000,52.802,6.998,1665.727599
16 Dec 2019 18:31:34.000,53.018,6.949,1669.363142
16 Dec 2019 18:31:35.000,53.234,6.901,1673.019761
16 Dec 2019 18:31:36.000,53.448,6.853,1676.697319
16 Dec 2019 18:31:37.000,53.662,6.804,1680.395674
16 Dec 2019 18:31:38.000,53.874,6.755,1684.114683
16 Dec 2019 18:31:39.000,54.086,6.706,1687.854207
16 Dec 2019 18:31:40.000,54.296,6.657,1691.614102
16 Dec 2019 18:31:41.000,54.506,6.608,1695.394234
16 Dec 2019 18:31:42.000,54.715,6.559,1699.194463
16 Dec 2019 18:31:43.000,54.922,6.509,1703.014645
16 Dec 2019 18:31:44.000,55.129,6.460,1706.854650
16 Dec 2019 18:31:45.000,55.335,6.410,1710.714336
16 Dec 2019 18:31:46.000,55.540,6.361,1714.593566
16 Dec 2019 18:31:47.000,55.744,6.311,1718.492201
16 Dec 2019 18:31:48.000,55.947,6.261,1722.410111
16 Dec 2019 18:31:49.000,56.149,6.211,1726.347158
16 Dec 2019 18:31:50.000,56.350,6.161,1730.303203
16 Dec 2019 18:31:51.000,56.550,6.111,1734.278119
16 Dec 2019 18:31:52.000,56.749,6.061,1738.271769
16 Dec 2019 18:31:53.000,56.947,6.010,1742.284016
16 Dec 2019 18:31:54.000,57.144,5.960,1746.314735
16 Dec 2019 18:31:55.000,57.341,5.909,1750.363789
16 Dec 2019 18:31:56.000,57.536,5.859,1754.431046
16 Dec 2019 18:31:57.000,57.731,5.808,1758.516380
16 Dec 2019 18:31:58.000,57.924,5.758,1762.619658
16 Dec 2019 18:31:59.000,58.117,5.707,1766.740747
16 Dec 2019 18:32:00.000,58.309,5.656,1770.879526
16 Dec 2019 18:32:01.000,58.500,5.605,1775.035859
16 Dec 2019 18:32:02.000,58.689,5.554,1779.209626
16 Dec 2019 18:32:03.000,58.878,5.503,1783.400696
16 Dec 2019 18:32:04.000,59.067,5.452,1787.608940
16 Dec 2019 18:32:05.000,59.254,5.401,1791.834238
16 Dec 2019 18:32:06.000,59.440,5.350,1796.076460
16 Dec 2019 18:32:07.000,59.625,5.299,1800.335488
16 Dec 2019 18:32:08.000,59.810,5.248,1804.611195
16 Dec 2019 18:32:09.000,59.994,5.197,1808.903454
16 Dec 2019 18:32:10.000,60.176,5.145,1813.212151
16 Dec 2019 18:32:11.000,60.358,5.094,1817.537156
16 Dec 2019 18:32:12.000,60.539,5.043,1821.878356
16 Dec 2019 18:32:13.000,60.719,4.991,1826.235624
16 Dec 2019 18:32:14.000,60.899,4.940,1830.608847
16 Dec 2019 18:32:15.000,61.077,4.888,1834.997903
16 Dec 2019 18:32:16.000,61.254,4.837,1839.402670
16 Dec 2019 18:32:17.000,61.431,4.785,1843.823039
16 Dec 2019 18:32:18.000,61.607,4.734,1848.258884
16 Dec 2019 18:32:19.000,61.782,4.682,1852.710098
16 Dec 2019 18:32:20.000,61.956,4.631,1857.176558
16 Dec 2019 18:32:21.000,62.129,4.579,1861.658156
16 Dec 2019 18:32:22.000,62.301,4.527,1866.154772
16 Dec 2019 18:32:23.000,62.473,4.476,1870.666298
16 Dec 2019 18:32:24.000,62.644,4.424,1875.192617
16 Dec 2019 18:32:25.000,62.813,4.372,1879.733622
16 Dec 2019 18:32:26.000,62.983,4.321,1884.289197
16 Dec 2019 18:32:27.000,63.151,4.269,1888.859236
16 Dec 2019 18:32:28.000,63.318,4.217,1893.443625
16 Dec 2019 18:32:29.000,63.485,4.166,1898.042260
16 Dec 2019 18:32:30.000,63.650,4.114,1902.655027
16 Dec 2019 18:32:31.000,63.815,4.062,1907.281821
16 Dec 2019 18:32:32.000,63.980,4.010,1911.922539
16 Dec 2019 18:32:33.000,64.143,3.959,1916.577068
16 Dec 2019 18:32:34.000,64.305,3.907,1921.245309
16 Dec 2019 18:32:35.000,64.467,3.855,1925.927151
16 Dec 2019 18:32:36.000,64.628,3.804,1930.622497
16 Dec 2019 18:32:37.000,64.788,3.752,1935.331235
16 Dec 2019 18:32:38.000,64.948,3.700,1940.053271
16 Dec 2019 18:32:39.000,65.106,3.649,1944.788496
16 Dec 2019 18:32:40.000,65.264,3.597,1949.536811
16 Dec 2019 18:32:41.000,65.421,3.545,1954.298120
16 Dec 2019 18:32:42.000,65.578,3.494,1959.072315
16 Dec 2019 18:32:43.000,65.733,3.442,1963.859304
16 Dec 2019 18:32:44.000,65.888,3.390,1968.658983
16 Dec 2019 18:32:45.000,66.042,3.339,1973.471256
16 Dec 2019 18:32:46.000,66.195,3.287,1978.296030
16 Dec 2019 18:32:47.000,66.348,3.236,1983.133201
16 Dec 2019 18:32:48.000,66.500,3.184,1987.982681
16 Dec 2019 18:32:49.000,66.651,3.132,1992.844367
16 Dec 2019 18:32:50.000,66.801,3.081,1997.718168
16 Dec 2019 18:32:51.000,66.950,3.029,2002.603995
16 Dec 2019 18:32:52.000,67.099,2.978,2007.501746
16 Dec 2019 18:32:53.000,67.247,2.926,2012.411334
16 Dec 2019 18:32:54.000,67.395,2.875,2017.332669
16 Dec 2019 18:32:55.000,67.542,2.824,2022.265654
16 Dec 2019 18:32:56.000,67.688,2.772,2027.210205
16 Dec 2019 18:32:57.000,67.833,2.721,2032.166225
16 Dec 2019 18:32:58.000,67.977,2.669,2037.133629
16 Dec 2019 18:32:59.000,68.121,2.618,2042.112332
16 Dec 2019 18:33:00.000,68.264,2.567,2047.102238
16 Dec 2019 18:33:01.000,68.407,2.516,2052.103264
16 Dec 2019 18:33:02.000,68.549,2.464,2057.115327
16 Dec 2019 18:33:03.000,68.690,2.413,2062.138334
16 Dec 2019 18:33:04.000,68.830,2.362,2067.172202
16 Dec 2019 18:33:05.000,68.970,2.311,2072.216852
16 Dec 2019 18:33:06.000,69.109,2.260,2077.272192
16 Dec 2019 18:33:07.000,69.247,2.209,2082.338141
16 Dec 2019 18:33:08.000,69.385,2.158,2087.414618
16 Dec 2019 18:33:09.000,69.522,2.107,2092.501543
16 Dec 2019 18:33:10.000,69.658,2.056,2097.598827
16 Dec 2019 18:33:11.000,69.794,2.005,2102.706394
16 Dec 2019 18:33:12.000,69.929,1.954,2107.824166
16 Dec 2019 18:33:13.000,70.064,1.903,2112.952057
16 Dec 2019 18:33:14.000,70.197,1.852,2118.089991
16 Dec 2019 18:33:15.000,70.331,1.801,2123.237893
16 Dec 2019 18:33:16.000,70.463,1.751,2128.395678
16 Dec 2019 18:33:17.000,70.595,1.700,2133.563272
16 Dec 2019 18:33:18.000,70.726,1.649,2138.740598
16 Dec 2019 18:33:19.000,70.857,1.598,2143.927583
16 Dec 2019 18:33:20.000,70.987,1.548,2149.124146
16 Dec 2019 18:33:21.000,71.116,1.497,2154.330213
16 Dec 2019 18:33:22.000,71.245,1.447,2159.545712
16 Dec 2019 18:33:23.000,71.373,1.396,2164.770571
16 Dec 2019 18:33:24.000,71.501,1.346,2170.004710
16 Dec 2019 18:33:25.000,71.627,1.296,2175.248060
16 Dec 2019 18:33:26.000,71.754,1.245,2180.500548
16 Dec 2019 18:33:27.000,71.880,1.195,2185.762107
16 Dec 2019 18:33:28.000,72.005,1.145,2191.032658
16 Dec 2019 18:33:29.000,72.129,1.094,2196.312134
16 Dec 2019 18:33:30.000,72.253,1.044,2201.600465
16 Dec 2019 18:33:31.000,72.377,0.994,2206.897585
16 Dec 2019 18:33:32.000,72.499,0.944,2212.203418
16 Dec 2019 18:33:33.000,72.622,0.894,2217.517900
16 Dec 2019 18:33:34.000,72.743,0.844,2222.840961
16 Dec 2019 18:33:35.000,72.864,0.794,2228.172540
16 Dec 2019 18:33:36.000,72.985,0.744,2233.512560
16 Dec 2019 18:33:37.000,73.105,0.694,2238.860960
16 Dec 2019 18:33:38.000,73.224,0.644,2244.217674
16 Dec 2019 18:33:39.000,73.343,0.595,2249.582637
16 Dec 2019 18:33:40.000,73.461,0.545,2254.955787
16 Dec 2019 18:33:41.000,73.579,0.495,2260.337053
16 Dec 2019 18:33:42.000,73.696,0.446,2265.726374
16 Dec 2019 18:33:43.000,73.813,0.396,2271.123687
16 Dec 2019 18:33:44.000,73.929,0.347,2276.528930
16 Dec 2019 18:33:45.000,74.044,0.297,2281.942044
16 Dec 2019 18:33:46.000,74.159,0.248,2287.362959
16 Dec 2019 18:33:47.000,74.274,0.198,2292.791618
16 Dec 2019 18:33:48.000,74.388,0.149,2298.227960
16 Dec 2019 18:33:49.000,74.501,0.100,2303.671925
16 Dec 2019 18:33:50.000,74.614,0.050,2309.123455
16 Dec 2019 18:33:51.000,74.726,0.001,2314.582486
16 Dec 2019 18:33:52.000,74.838,-0.048,2320.048960
16 Dec 2019 18:33:53.000,74.950,-0.097,2325.522820
16 Dec 2019 18:33:53.556,75.011,-0.124,2328.568322
16 Dec 2019 20:01:13.271,314.404,-0.124,2331.720333
16 Dec 2019 20:01:14.000,314.426,-0.080,2326.737281
16 Dec 2019 20:01:15.000,314.456,-0.019,2319.906067
16 Dec 2019 20:01:16.000,314.486,0.043,2313.075269
16 Dec 2019 20:01:17.000,314.516,0.104,2306.244898
16 Dec 2019 20:01:18.000,314.546,0.166,2299.414970
16 Dec 2019 20:01:19.000,314.576,0.227,2292.585496
16 Dec 2019 20:01:20.000,314.607,0.289,2285.756484
16 Dec 2019 20:01:21.000,314.637,0.352,2278.927952
16 Dec 2019 20:01:22.000,314.668,0.414,2272.099911
16 Dec 2019 20:01:23.000,314.699,0.477,2265.272372
16 Dec 2019 20:01:24.000,314.731,0.539,2258.445347
16 Dec 2019 20:01:25.000,314.762,0.602,2251.618853
16 Dec 2019 20:01:26.000,314.794,0.665,2244.792901
16 Dec 2019 20:01:27.000,314.825,0.729,2237.967504
16 Dec 2019 20:01:28.000,314.857,0.792,2231.142673
16 Dec 2019 20:01:29.000,314.889,0.856,2224.318425
16 Dec 2019 20:01:30.000,314.921,0.920,2217.494774
16 Dec 2019 20:01:31.000,314.954,0.984,2210.671729
16 Dec 2019 20:01:32.000,314.987,1.048,2203.849309
16 Dec 2019 20:01:33.000,315.019,1.113,2197.027527
16 Dec 2019 20:01:34.000,315.052,1.178,2190.206395
16 Dec 2019 20:01:35.000,315.085,1.243,2183.385927
16 Dec 2019 20:01:36.000,315.119,1.308,2176.566141
16 Dec 2019 20:01:37.000,315.152,1.373,2169.747050
16 Dec 2019 20:01:38.000,315.186,1.439,2162.928669
16 Dec 2019 20:01:39.000,315.220,1.504,2156.111010
16 Dec 2019 20:01:40.000,315.254,1.570,2149.294093
16 Dec 2019 20:01:41.000,315.288,1.637,2142.477930
16 Dec 2019 20:01:42.000,315.323,1.703,2135.662536
16 Dec 2019 20:01:43.000,315.358,1.770,2128.847930
16 Dec 2019 20:01:44.000,315.393,1.837,2122.034126
16 Dec 2019 20:01:45.000,315.428,1.904,2115.221140
16 Dec 2019 20:01:46.000,315.463,1.971,2108.408985
16 Dec 2019 20:01:47.000,315.499,2.039,2101.597683
16 Dec 2019 20:01:48.000,315.534,2.107,2094.787248
16 Dec 2019 20:01:49.000,315.570,2.175,2087.977697
16 Dec 2019 20:01:50.000,315.607,2.243,2081.169043
16 Dec 2019 20:01:51.000,315.643,2.311,2074.361310
16 Dec 2019 20:01:52.000,315.680,2.380,2067.554512
16 Dec 2019 20:01:53.000,315.717,2.449,2060.748663
16 Dec 2019 20:01:54.000,315.754,2.518,2053.943787
16 Dec 2019 20:01:55.000,315.791,2.588,2047.139899
16 Dec 2019 20:01:56.000,315.829,2.658,2040.337018
16 Dec 2019 20:01:57.000,315.866,2.728,2033.535158
16 Dec 2019 20:01:58.000,315.904,2.798,2026.734343
16 Dec 2019 20:01:59.000,315.943,2.869,2019.934591
16 Dec 2019 20:02:00.000,315.981,2.939,2013.135919
16 Dec 2019 20:02:01.000,316.020,3.011,2006.338345
16 Dec 2019 20:02:02.000,316.059,3.082,1999.541892
16 Dec 2019 20:02:03.000,316.098,3.154,1992.746579
16 Dec 2019 20:02:04.000,316.138,3.225,1985.952422
16 Dec 2019 20:02:05.000,316.177,3.298,1979.159447
16 Dec 2019 20:02:06.000,316.217,3.370,1972.367672
16 Dec 2019 20:02:07.000,316.258,3.443,1965.577116
16 Dec 2019 20:02:08.000,316.298,3.516,1958.787800
16 Dec 2019 20:02:09.000,316.339,3.589,1951.999748
16 Dec 2019 20:02:10.000,316.380,3.663,1945.212980
16 Dec 2019 20:02:11.000,316.421,3.737,1938.427518
16 Dec 2019 20:02:12.000,316.463,3.811,1931.643381
16 Dec 2019 20:02:13.000,316.505,3.885,1924.860596
16 Dec 2019 20:02:14.000,316.547,3.960,1918.079183
16 Dec 2019 20:02:15.000,316.589,4.035,1911.299166
16 Dec 2019 20:02:16.000,316.632,4.111,1904.520564
16 Dec 2019 20:02:17.000,316.675,4.186,1897.743406
16 Dec 2019 20:02:18.000,316.718,4.262,1890.967714
16 Dec 2019 20:02:19.000,316.762,4.339,1884.193511
16 Dec 2019 20:02:20.000,316.806,4.415,1877.420820
16 Dec 2019 20:02:21.000,316.850,4.492,1870.649669
16 Dec 2019 20:02:22.000,316.894,4.570,1863.880082
16 Dec 2019 20:02:23.000,316.939,4.647,1857.112082
16 Dec 2019 20:02:24.000,316.984,4.725,1850.345698
16 Dec 2019 20:02:25.000,317.030,4.804,1843.580954
16 Dec 2019 20:02:26.000,317.076,4.882,1836.817877
16 Dec 2019 20:02:27.000,317.122,4.961,1830.056491
16 Dec 2019 20:02:28.000,317.168,5.041,1823.296829
16 Dec 2019 20:02:29.000,317.215,5.120,1816.538914
16 Dec 2019 20:02:30.000,317.262,5.200,1809.782774
16 Dec 2019 20:02:31.000,317.309,5.281,1803.028436
16 Dec 2019 20:02:32.000,317.357,5.362,1796.275933
16 Dec 2019 20:02:33.000,317.405,5.443,1789.525292
16 Dec 2019 20:02:34.000,317.454,5.524,1782.776541
16 Dec 2019 20:02:35.000,317.503,5.606,1776.029708
16 Dec 2019 20:02:36.000,317.552,5.688,1769.284828
16 Dec 2019 20:02:37.000,317.601,5.771,1762.541929
16 Dec 2019 20:02:38.000,317.651,5.854,1755.801043
16 Dec 2019 20:02:39.000,317.702,5.938,1749.062198
16 Dec 2019 20:02:40.000,317.752,6.021,1742.325431
16 Dec 2019 20:02:41.000,317.803,6.106,1735.590772
16 Dec 2019 20:02:42.000,317.855,6.190,1728.858254
16 Dec 2019 20:02:43.000,317.907,6.275,1722.127907
16 Dec 2019 20:02:44.000,317.959,6.361,1715.399772
16 Dec 2019 20:02:45.000,318.012,6.447,1708.673878
16 Dec 2019 20:02:46.000,318.065,6.533,1701.950261
16 Dec 2019 20:02:47.000,318.118,6.620,1695.228954
16 Dec 2019 20:02:48.000,318.172,6.707,1688.509998
16 Dec 2019 20:02:49.000,318.226,6.795,1681.793426
16 Dec 2019 20:02:50.000,318.281,6.883,1675.079275
16 Dec 2019 20:02:51.000,318.336,6.971,1668.367583
16 Dec 2019 20:02:52.000,318.392,7.060,1661.658385
16 Dec 2019 20:02:53.000,318.448,7.150,1654.951725
16 Dec 2019 20:02:54.000,318.504,7.239,1648.247639
16 Dec 2019 20:02:55.000,318.561,7.330,1641.546167
16 Dec 2019 20:02:56.000,318.619,7.421,1634.847347
16 Dec 2019 20:02:57.000,318.677,7.512,1628.151224
16 Dec 2019 20:02:58.000,318.735,7.604,1621.457839
16 Dec 2019 20:02:59.000,318.794,7.696,1614.767233
16 Dec 2019 20:03:00.000,318.853,7.789,1608.079446
16 Dec 2019 20:03:01.000,318.913,7.882,1601.394527
16 Dec 2019 20:03:02.000,318.973,7.976,1594.712518
16 Dec 2019 20:03:03.000,319.034,8.070,1588.033463
16 Dec 2019 20:03:04.000,319.096,8.165,1581.357405
16 Dec 2019 20:03:05.000,319.157,8.260,1574.684397
16 Dec 2019 20:03:06.000,319.220,8.356,1568.014482
16 Dec 2019 20:03:07.000,319.283,8.453,1561.347709
16 Dec 2019 20:03:08.000,319.346,8.550,1554.684125
16 Dec 2019 20:03:09.000,319.410,8.647,1548.023778
16 Dec 2019 20:03:10.000,319.475,8.745,1541.366722
16 Dec 2019 20:03:11.000,319.540,8.844,1534.713007
16 Dec 2019 20:03:12.000,319.606,8.943,1528.062684
16 Dec 2019 20:03:13.000,319.672,9.043,1521.415803
16 Dec 2019 20:03:14.000,319.739,9.143,1514.772423
16 Dec 2019 20:03:15.000,319.807,9.244,1508.132595
16 Dec 2019 20:03:16.000,319.875,9.346,1501.496375
16 Dec 2019 20:03:17.000,319.943,9.448,1494.863818
16 Dec 2019 20:03:18.000,320.013,9.551,1488.234980
16 Dec 2019 20:03:19.000,320.083,9.654,1481.609924
16 Dec 2019 20:03:20.000,320.153,9.758,1474.988706
16 Dec 2019 20:03:21.000,320.225,9.863,1468.371386
16 Dec 2019 20:03:22.000,320.297,9.968,1461.758025
16 Dec 2019 20:03:23.000,320.369,10.074,1455.148683
16 Dec 2019 20:03:24.000,320.443,10.181,1448.543427
16 Dec 2019 20:03:25.000,320.517,10.288,1441.942321
16 Dec 2019 20:03:26.000,320.591,10.396,1435.345428
16 Dec 2019 20:03:27.000,320.667,10.505,1428.752816
16 Dec 2019 20:03:28.000,320.743,10.614,1422.164549
16 Dec 2019 20:03:29.000,320.820,10.724,1415.580702
16 Dec 2019 20:03:30.000,320.897,10.835,1409.001342
16 Dec 2019 20:03:31.000,320.976,10.946,1402.426539
16 Dec 2019 20:03:32.000,321.055,11.059,1395.856367
16 Dec 2019 20:03:33.000,321.135,11.172,1389.290897
16 Dec 2019 20:03:34.000,321.215,11.285,1382.730209
16 Dec 2019 20:03:35.000,321.297,11.400,1376.174377
16 Dec 2019 20:03:36.000,321.379,11.515,1369.623478
16 Dec 2019 20:03:37.000,321.462,11.631,1363.077592
16 Dec 2019 20:03:38.000,321.546,11.748,1356.536797
16 Dec 2019 20:03:39.000,321.631,11.865,1350.001180
16 Dec 2019 20:03:40.000,321.717,11.984,1343.470822
16 Dec 2019 20:03:41.000,321.803,12.103,1336.945808
16 Dec 2019 20:03:42.000,321.891,12.223,1330.426225
16 Dec 2019 20:03:43.000,321.979,12.344,1323.912161
16 Dec 2019 20:03:44.000,322.068,12.466,1317.403703
16 Dec 2019 20:03:45.000,322.159,12.588,1310.900949
16 Dec 2019 20:03:46.000,322.250,12.712,1304.403988
16 Dec 2019 20:03:47.000,322.342,12.836,1297.912916
16 Dec 2019 20:03:48.000,322.435,12.961,1291.427830
16 Dec 2019 20:03:49.000,322.529,13.088,1284.948828
16 Dec 2019 20:03:50.000,322.624,13.215,1278.476008
16 Dec 2019 20:03:51.000,322.721,13.343,1272.009478
16 Dec 2019 20:03:52.000,322.818,13.472,1265.549339
16 Dec 2019 20:03:53.000,322.916,13.602,1259.095698
16 Dec 2019 20:03:54.000,323.016,13.732,1252.648663
16 Dec 2019 20:03:55.000,323.116,13.864,1246.208345
16 Dec 2019 20:03:56.000,323.218,13.997,1239.774856
16 Dec 2019 20:03:57.000,323.321,14.131,1233.348310
16 Dec 2019 20:03:58.000,323.425,14.266,1226.928827
16 Dec 2019 20:03:59.000,323.530,14.402,1220.516524
16 Dec 2019 20:04:00.000,323.636,14.539,1214.111524
16 Dec 2019 20:04:01.000,323.744,14.677,1207.713950
16 Dec 2019 20:04:02.000,323.852,14.816,1201.323929
16 Dec 2019 20:04:03.000,323.962,14.956,1194.941590
16 Dec 2019 20:04:04.000,324.074,15.097,1188.567062
16 Dec 2019 20:04:05.000,324.187,15.240,1182.200485
16 Dec 2019 20:04:06.000,324.301,15.383,1175.841993
16 Dec 2019 20:04:07.000,324.416,15.528,1169.491726
16 Dec 2019 20:04:08.000,324.533,15.674,1163.149825
16 Dec 2019 20:04:09.000,324.651,15.821,1156.816438
16 Dec 2019 20:04:10.000,324.771,15.969,1150.491712
16 Dec 2019 20:04:11.000,324.892,16.119,1144.175799
16 Dec 2019 20:04:12.000,325.014,16.269,1137.868851
16 Dec 2019 20:04:13.000,325.138,16.421,1131.571030
16 Dec 2019 20:04:14.000,325.264,16.575,1125.282495
16 Dec 2019 20:04:15.000,325.391,16.729,1119.003411
16 Dec 2019 20:04:16.000,325.520,16.885,1112.733945
16 Dec 2019 20:04:17.000,325.650,17.042,1106.474269
16 Dec 2019 20:04:18.000,325.783,17.200,1100.224558
16 Dec 2019 20:04:19.000,325.916,17.360,1093.984989
16 Dec 2019 20:04:20.000,326.052,17.521,1087.755746
16 Dec 2019 20:04:21.000,326.189,17.684,1081.537014
16 Dec 2019 20:04:22.000,326.328,17.848,1075.328984
16 Dec 2019 20:04:23.000,326.469,18.013,1069.131850
16 Dec 2019 20:04:24.000,326.612,18.180,1062.945808
16 Dec 2019 20:04:25.000,326.757,18.348,1056.771064
16 Dec 2019 20:04:26.000,326.904,18.518,1050.607824
16 Dec 2019 20:04:27.000,327.052,18.689,1044.456299
16 Dec 2019 20:04:28.000,327.203,18.862,1038.316705
16 Dec 2019 20:04:29.000,327.356,19.036,1032.189262
16 Dec 2019 20:04:30.000,327.511,19.212,1026.074196
16 Dec 2019 20:04:31.000,327.668,19.390,1019.971737
16 Dec 2019 20:04:32.000,327.827,19.569,1013.882121
16 Dec 2019 20:04:33.000,327.988,19.749,1007.805587
16 Dec 2019 20:04:34.000,328.152,19.932,1001.742381
16 Dec 2019 20:04:35.000,328.318,20.116,995.692755
