vcc_sched/network/input/aer_uvags_wj2xmr_vcc-c_44430.csv

"Time (UTCG)","Azimuth (deg)","Elevation (deg)","Range (km)"
3 Feb 2020 17:17:34.525,206.441,-0.124,2310.844898
3 Feb 2020 17:17:35.000,206.416,-0.096,2307.690948
3 Feb 2020 17:17:36.000,206.364,-0.036,2301.047838
3 Feb 2020 17:17:37.000,206.311,0.024,2294.406548
3 Feb 2020 17:17:38.000,206.258,0.084,2287.767105
3 Feb 2020 17:17:39.000,206.205,0.144,2281.129533
3 Feb 2020 17:17:40.000,206.151,0.204,2274.493857
3 Feb 2020 17:17:41.000,206.097,0.265,2267.860099
3 Feb 2020 17:17:42.000,206.043,0.326,2261.228285
3 Feb 2020 17:17:43.000,205.988,0.386,2254.598443
3 Feb 2020 17:17:44.000,205.933,0.448,2247.970596
3 Feb 2020 17:17:45.000,205.877,0.509,2241.344771
3 Feb 2020 17:17:46.000,205.822,0.570,2234.720991
3 Feb 2020 17:17:47.000,205.766,0.632,2228.099287
3 Feb 2020 17:17:48.000,205.709,0.693,2221.479684
3 Feb 2020 17:17:49.000,205.652,0.755,2214.862208
3 Feb 2020 17:17:50.000,205.595,0.817,2208.246887
3 Feb 2020 17:17:51.000,205.538,0.879,2201.633747
3 Feb 2020 17:17:52.000,205.480,0.942,2195.022818
3 Feb 2020 17:17:53.000,205.422,1.004,2188.414127
3 Feb 2020 17:17:54.000,205.363,1.067,2181.807704
3 Feb 2020 17:17:55.000,205.304,1.130,2175.203576
3 Feb 2020 17:17:56.000,205.245,1.193,2168.601770
3 Feb 2020 17:17:57.000,205.185,1.256,2162.002321
3 Feb 2020 17:17:58.000,205.125,1.320,2155.405255
3 Feb 2020 17:17:59.000,205.065,1.384,2148.810602
3 Feb 2020 17:18:00.000,205.004,1.447,2142.218394
3 Feb 2020 17:18:01.000,204.943,1.511,2135.628659
3 Feb 2020 17:18:02.000,204.881,1.576,2129.041431
3 Feb 2020 17:18:03.000,204.819,1.640,2122.456741
3 Feb 2020 17:18:04.000,204.757,1.705,2115.874620
3 Feb 2020 17:18:05.000,204.694,1.770,2109.295100
3 Feb 2020 17:18:06.000,204.631,1.835,2102.718212
3 Feb 2020 17:18:07.000,204.567,1.900,2096.143992
3 Feb 2020 17:18:08.000,204.503,1.965,2089.572472
3 Feb 2020 17:18:09.000,204.439,2.031,2083.003686
3 Feb 2020 17:18:10.000,204.374,2.097,2076.437666
3 Feb 2020 17:18:11.000,204.309,2.163,2069.874448
3 Feb 2020 17:18:12.000,204.243,2.229,2063.314067
3 Feb 2020 17:18:13.000,204.177,2.295,2056.756558
3 Feb 2020 17:18:14.000,204.110,2.362,2050.201956
3 Feb 2020 17:18:15.000,204.043,2.429,2043.650298
3 Feb 2020 17:18:16.000,203.976,2.496,2037.101620
3 Feb 2020 17:18:17.000,203.908,2.563,2030.555957
3 Feb 2020 17:18:18.000,203.840,2.631,2024.013350
3 Feb 2020 17:18:19.000,203.771,2.698,2017.473834
3 Feb 2020 17:18:20.000,203.701,2.766,2010.937449
3 Feb 2020 17:18:21.000,203.632,2.834,2004.404232
3 Feb 2020 17:18:22.000,203.561,2.903,1997.874221
3 Feb 2020 17:18:23.000,203.491,2.971,1991.347460
3 Feb 2020 17:18:24.000,203.419,3.040,1984.823985
3 Feb 2020 17:18:25.000,203.348,3.109,1978.303839
3 Feb 2020 17:18:26.000,203.275,3.179,1971.787062
3 Feb 2020 17:18:27.000,203.203,3.248,1965.273695
3 Feb 2020 17:18:28.000,203.130,3.318,1958.763779
3 Feb 2020 17:18:29.000,203.056,3.388,1952.257360
3 Feb 2020 17:18:30.000,202.982,3.458,1945.754479
3 Feb 2020 17:18:31.000,202.907,3.529,1939.255180
3 Feb 2020 17:18:32.000,202.831,3.599,1932.759507
3 Feb 2020 17:18:33.000,202.756,3.670,1926.267504
3 Feb 2020 17:18:34.000,202.679,3.741,1919.779215
3 Feb 2020 17:18:35.000,202.602,3.813,1913.294690
3 Feb 2020 17:18:36.000,202.525,3.885,1906.813972
3 Feb 2020 17:18:37.000,202.447,3.957,1900.337109
3 Feb 2020 17:18:38.000,202.368,4.029,1893.864148
3 Feb 2020 17:18:39.000,202.289,4.101,1887.395138
3 Feb 2020 17:18:40.000,202.210,4.174,1880.930126
3 Feb 2020 17:18:41.000,202.129,4.247,1874.469163
3 Feb 2020 17:18:42.000,202.048,4.320,1868.012299
3 Feb 2020 17:18:43.000,201.967,4.394,1861.559584
3 Feb 2020 17:18:44.000,201.885,4.468,1855.111069
3 Feb 2020 17:18:45.000,201.802,4.542,1848.666807
3 Feb 2020 17:18:46.000,201.719,4.616,1842.226848
3 Feb 2020 17:18:47.000,201.635,4.691,1835.791248
3 Feb 2020 17:18:48.000,201.551,4.766,1829.360060
3 Feb 2020 17:18:49.000,201.466,4.841,1822.933338
3 Feb 2020 17:18:50.000,201.380,4.916,1816.511139
3 Feb 2020 17:18:51.000,201.294,4.992,1810.093517
3 Feb 2020 17:18:52.000,201.207,5.068,1803.680530
3 Feb 2020 17:18:53.000,201.119,5.144,1797.272233
3 Feb 2020 17:18:54.000,201.031,5.221,1790.868689
3 Feb 2020 17:18:55.000,200.941,5.298,1784.469954
3 Feb 2020 17:18:56.000,200.852,5.375,1778.076088
3 Feb 2020 17:18:57.000,200.761,5.453,1771.687151
3 Feb 2020 17:18:58.000,200.670,5.530,1765.303206
3 Feb 2020 17:18:59.000,200.579,5.608,1758.924315
3 Feb 2020 17:19:00.000,200.486,5.687,1752.550540
3 Feb 2020 17:19:01.000,200.393,5.766,1746.181944
3 Feb 2020 17:19:02.000,200.299,5.845,1739.818594
3 Feb 2020 17:19:03.000,200.204,5.924,1733.460555
3 Feb 2020 17:19:04.000,200.109,6.004,1727.107894
3 Feb 2020 17:19:05.000,200.013,6.084,1720.760677
3 Feb 2020 17:19:06.000,199.916,6.164,1714.418972
3 Feb 2020 17:19:07.000,199.819,6.245,1708.082850
3 Feb 2020 17:19:08.000,199.720,6.326,1701.752380
3 Feb 2020 17:19:09.000,199.621,6.407,1695.427634
3 Feb 2020 17:19:10.000,199.521,6.488,1689.108682
3 Feb 2020 17:19:11.000,199.420,6.570,1682.795599
3 Feb 2020 17:19:12.000,199.319,6.653,1676.488460
3 Feb 2020 17:19:13.000,199.216,6.735,1670.187338
3 Feb 2020 17:19:14.000,199.113,6.818,1663.892310
3 Feb 2020 17:19:15.000,199.009,6.902,1657.603453
3 Feb 2020 17:19:16.000,198.904,6.985,1651.320846
3 Feb 2020 17:19:17.000,198.798,7.069,1645.044567
3 Feb 2020 17:19:18.000,198.692,7.154,1638.774697
3 Feb 2020 17:19:19.000,198.584,7.239,1632.511319
3 Feb 2020 17:19:20.000,198.476,7.324,1626.254512
3 Feb 2020 17:19:21.000,198.367,7.409,1620.004364
3 Feb 2020 17:19:22.000,198.257,7.495,1613.760959
3 Feb 2020 17:19:23.000,198.146,7.581,1607.524383
3 Feb 2020 17:19:24.000,198.034,7.668,1601.294722
3 Feb 2020 17:19:25.000,197.921,7.755,1595.072067
3 Feb 2020 17:19:26.000,197.807,7.842,1588.856507
3 Feb 2020 17:19:27.000,197.692,7.930,1582.648133
3 Feb 2020 17:19:28.000,197.576,8.018,1576.447038
3 Feb 2020 17:19:29.000,197.459,8.106,1570.253315
3 Feb 2020 17:19:30.000,197.342,8.195,1564.067061
3 Feb 2020 17:19:31.000,197.223,8.284,1557.888371
3 Feb 2020 17:19:32.000,197.103,8.374,1551.717344
3 Feb 2020 17:19:33.000,196.982,8.464,1545.554077
3 Feb 2020 17:19:34.000,196.860,8.555,1539.398675
3 Feb 2020 17:19:35.000,196.738,8.646,1533.251238
3 Feb 2020 17:19:36.000,196.614,8.737,1527.111870
3 Feb 2020 17:19:37.000,196.489,8.829,1520.980676
3 Feb 2020 17:19:38.000,196.362,8.921,1514.857763
3 Feb 2020 17:19:39.000,196.235,9.013,1508.743240
3 Feb 2020 17:19:40.000,196.107,9.106,1502.637216
3 Feb 2020 17:19:41.000,195.977,9.199,1496.539804
3 Feb 2020 17:19:42.000,195.847,9.293,1490.451116
3 Feb 2020 17:19:43.000,195.715,9.388,1484.371267
3 Feb 2020 17:19:44.000,195.582,9.482,1478.300374
3 Feb 2020 17:19:45.000,195.448,9.577,1472.238555
3 Feb 2020 17:19:46.000,195.313,9.673,1466.185931
3 Feb 2020 17:19:47.000,195.176,9.769,1460.142622
3 Feb 2020 17:19:48.000,195.038,9.865,1454.108753
3 Feb 2020 17:19:49.000,194.899,9.962,1448.084450
3 Feb 2020 17:19:50.000,194.759,10.059,1442.069838
3 Feb 2020 17:19:51.000,194.617,10.157,1436.065049
3 Feb 2020 17:19:52.000,194.474,10.256,1430.070213
3 Feb 2020 17:19:53.000,194.330,10.354,1424.085462
3 Feb 2020 17:19:54.000,194.185,10.453,1418.110933
3 Feb 2020 17:19:55.000,194.038,10.553,1412.146763
3 Feb 2020 17:19:56.000,193.890,10.653,1406.193089
3 Feb 2020 17:19:57.000,193.740,10.754,1400.250055
3 Feb 2020 17:19:58.000,193.589,10.855,1394.317803
3 Feb 2020 17:19:59.000,193.437,10.956,1388.396478
3 Feb 2020 17:20:00.000,193.283,11.058,1382.486230
3 Feb 2020 17:20:01.000,193.128,11.161,1376.587207
3 Feb 2020 17:20:02.000,192.971,11.264,1370.699561
3 Feb 2020 17:20:03.000,192.813,11.367,1364.823448
3 Feb 2020 17:20:04.000,192.653,11.471,1358.959025
3 Feb 2020 17:20:05.000,192.492,11.576,1353.106450
3 Feb 2020 17:20:06.000,192.329,11.681,1347.265885
3 Feb 2020 17:20:07.000,192.165,11.786,1341.437495
3 Feb 2020 17:20:08.000,191.999,11.892,1335.621446
3 Feb 2020 17:20:09.000,191.831,11.999,1329.817907
3 Feb 2020 17:20:10.000,191.662,12.106,1324.027050
3 Feb 2020 17:20:11.000,191.492,12.213,1318.249049
3 Feb 2020 17:20:12.000,191.319,12.321,1312.484082
3 Feb 2020 17:20:13.000,191.145,12.430,1306.732327
3 Feb 2020 17:20:14.000,190.969,12.539,1300.993967
3 Feb 2020 17:20:15.000,190.792,12.648,1295.269189
3 Feb 2020 17:20:16.000,190.613,12.758,1289.558178
3 Feb 2020 17:20:17.000,190.432,12.869,1283.861127
3 Feb 2020 17:20:18.000,190.249,12.980,1278.178229
3 Feb 2020 17:20:19.000,190.064,13.092,1272.509681
3 Feb 2020 17:20:20.000,189.878,13.204,1266.855682
3 Feb 2020 17:20:21.000,189.689,13.316,1261.216436
3 Feb 2020 17:20:22.000,189.499,13.430,1255.592148
3 Feb 2020 17:20:23.000,189.307,13.543,1249.983027
3 Feb 2020 17:20:24.000,189.113,13.658,1244.389284
3 Feb 2020 17:20:25.000,188.917,13.773,1238.811136
3 Feb 2020 17:20:26.000,188.719,13.888,1233.248801
3 Feb 2020 17:20:27.000,188.519,14.004,1227.702500
3 Feb 2020 17:20:28.000,188.317,14.120,1222.172461
3 Feb 2020 17:20:29.000,188.112,14.237,1216.658909
3 Feb 2020 17:20:30.000,187.906,14.355,1211.162078
3 Feb 2020 17:20:31.000,187.698,14.473,1205.682203
3 Feb 2020 17:20:32.000,187.487,14.591,1200.219524
3 Feb 2020 17:20:33.000,187.275,14.711,1194.774282
3 Feb 2020 17:20:34.000,187.060,14.830,1189.346726
3 Feb 2020 17:20:35.000,186.843,14.950,1183.937104
3 Feb 2020 17:20:36.000,186.623,15.071,1178.545669
3 Feb 2020 17:20:37.000,186.402,15.192,1173.172681
3 Feb 2020 17:20:38.000,186.178,15.314,1167.818399
3 Feb 2020 17:20:39.000,185.952,15.436,1162.483090
3 Feb 2020 17:20:40.000,185.723,15.559,1157.167021
3 Feb 2020 17:20:41.000,185.492,15.683,1151.870467
3 Feb 2020 17:20:42.000,185.258,15.807,1146.593705
3 Feb 2020 17:20:43.000,185.022,15.931,1141.337015
3 Feb 2020 17:20:44.000,184.784,16.056,1136.100682
3 Feb 2020 17:20:45.000,184.543,16.181,1130.884997
3 Feb 2020 17:20:46.000,184.299,16.307,1125.690253
3 Feb 2020 17:20:47.000,184.053,16.434,1120.516747
3 Feb 2020 17:20:48.000,183.805,16.561,1115.364781
3 Feb 2020 17:20:49.000,183.553,16.688,1110.234662
3 Feb 2020 17:20:50.000,183.299,16.816,1105.126700
3 Feb 2020 17:20:51.000,183.042,16.944,1100.041211
3 Feb 2020 17:20:52.000,182.783,17.073,1094.978514
3 Feb 2020 17:20:53.000,182.520,17.203,1089.938933
3 Feb 2020 17:20:54.000,182.255,17.332,1084.922797
3 Feb 2020 17:20:55.000,181.987,17.463,1079.930438
3 Feb 2020 17:20:56.000,181.716,17.593,1074.962194
3 Feb 2020 17:20:57.000,181.442,17.725,1070.018408
3 Feb 2020 17:20:58.000,181.165,17.856,1065.099425
3 Feb 2020 17:20:59.000,180.885,17.988,1060.205598
3 Feb 2020 17:21:00.000,180.602,18.121,1055.337283
3 Feb 2020 17:21:01.000,180.316,18.254,1050.494840
3 Feb 2020 17:21:02.000,180.027,18.387,1045.678635
3 Feb 2020 17:21:03.000,179.735,18.521,1040.889038
3 Feb 2020 17:21:04.000,179.440,18.655,1036.126424
3 Feb 2020 17:21:05.000,179.141,18.789,1031.391174
3 Feb 2020 17:21:06.000,178.839,18.924,1026.683672
3 Feb 2020 17:21:07.000,178.534,19.059,1022.004306
3 Feb 2020 17:21:08.000,178.226,19.194,1017.353472
3 Feb 2020 17:21:09.000,177.914,19.330,1012.731568
3 Feb 2020 17:21:10.000,177.599,19.466,1008.138999
3 Feb 2020 17:21:11.000,177.280,19.602,1003.576172
3 Feb 2020 17:21:12.000,176.958,19.738,999.043500
3 Feb 2020 17:21:13.000,176.632,19.875,994.541403
3 Feb 2020 17:21:14.000,176.303,20.012,990.070302
3 Feb 2020 17:21:15.000,175.970,20.149,985.630626
3 Feb 2020 17:21:16.000,175.634,20.287,981.222806
3 Feb 2020 17:21:17.000,175.294,20.424,976.847280
3 Feb 2020 17:21:18.000,174.950,20.562,972.504488
3 Feb 2020 17:21:19.000,174.603,20.699,968.194876
3 Feb 2020 17:21:20.000,174.252,20.837,963.918897
3 Feb 2020 17:21:21.000,173.897,20.975,959.677003
3 Feb 2020 17:21:22.000,173.538,21.113,955.469656
3 Feb 2020 17:21:23.000,173.175,21.251,951.297317
3 Feb 2020 17:21:24.000,172.809,21.389,947.160456
3 Feb 2020 17:21:25.000,172.438,21.527,943.059545
3 Feb 2020 17:21:26.000,172.064,21.664,938.995059
3 Feb 2020 17:21:27.000,171.686,21.802,934.967480
3 Feb 2020 17:21:28.000,171.303,21.940,930.977291
3 Feb 2020 17:21:29.000,170.917,22.077,927.024980
3 Feb 2020 17:21:30.000,170.526,22.214,923.111039
3 Feb 2020 17:21:31.000,170.132,22.351,919.235963
3 Feb 2020 17:21:32.000,169.733,22.488,915.400250
3 Feb 2020 17:21:33.000,169.330,22.624,911.604403
3 Feb 2020 17:21:34.000,168.923,22.760,907.848926
3 Feb 2020 17:21:35.000,168.511,22.896,904.134327
3 Feb 2020 17:21:36.000,168.096,23.031,900.461117
3 Feb 2020 17:21:37.000,167.676,23.166,896.829809
3 Feb 2020 17:21:38.000,167.252,23.300,893.240919
3 Feb 2020 17:21:39.000,166.824,23.434,889.694965
3 Feb 2020 17:21:40.000,166.391,23.567,886.192466
3 Feb 2020 17:21:41.000,165.954,23.700,882.733945
3 Feb 2020 17:21:42.000,165.513,23.832,879.319925
3 Feb 2020 17:21:43.000,165.067,23.963,875.950931
3 Feb 2020 17:21:44.000,164.617,24.093,872.627489
3 Feb 2020 17:21:45.000,164.163,24.223,869.350126
3 Feb 2020 17:21:46.000,163.704,24.352,866.119368
3 Feb 2020 17:21:47.000,163.241,24.480,862.935743
3 Feb 2020 17:21:48.000,162.774,24.606,859.799780
3 Feb 2020 17:21:49.000,162.302,24.732,856.712005
3 Feb 2020 17:21:50.000,161.826,24.857,853.672946
3 Feb 2020 17:21:51.000,161.345,24.981,850.683129
3 Feb 2020 17:21:52.000,160.861,25.103,847.743079
3 Feb 2020 17:21:53.000,160.371,25.224,844.853319
3 Feb 2020 17:21:54.000,159.878,25.344,842.014370
3 Feb 2020 17:21:55.000,159.380,25.463,839.226753
3 Feb 2020 17:21:56.000,158.878,25.580,836.490984
3 Feb 2020 17:21:57.000,158.371,25.696,833.807577
3 Feb 2020 17:21:58.000,157.861,25.810,831.177042
3 Feb 2020 17:21:59.000,157.346,25.923,828.599888
3 Feb 2020 17:22:00.000,156.827,26.034,826.076616
3 Feb 2020 17:22:01.000,156.304,26.143,823.607726
3 Feb 2020 17:22:02.000,155.776,26.251,821.193712
3 Feb 2020 17:22:03.000,155.245,26.356,818.835062
3 Feb 2020 17:22:04.000,154.710,26.460,816.532257
3 Feb 2020 17:22:05.000,154.170,26.562,814.285777
3 Feb 2020 17:22:06.000,153.627,26.662,812.096092
3 Feb 2020 17:22:07.000,153.080,26.760,809.963664
3 Feb 2020 17:22:08.000,152.529,26.856,807.888950
3 Feb 2020 17:22:09.000,151.974,26.949,805.872400
3 Feb 2020 17:22:10.000,151.416,27.041,803.914453
3 Feb 2020 17:22:11.000,150.854,27.130,802.015540
3 Feb 2020 17:22:12.000,150.289,27.217,800.176087
3 Feb 2020 17:22:13.000,149.720,27.301,798.396503
3 Feb 2020 17:22:14.000,149.147,27.383,796.677197
3 Feb 2020 17:22:15.000,148.572,27.463,795.018560
3 Feb 2020 17:22:16.000,147.993,27.539,793.420973
3 Feb 2020 17:22:17.000,147.411,27.614,791.884812
3 Feb 2020 17:22:18.000,146.826,27.685,790.410432
3 Feb 2020 17:22:19.000,146.239,27.754,788.998187
3 Feb 2020 17:22:20.000,145.648,27.820,787.648409
3 Feb 2020 17:22:21.000,145.055,27.883,786.361424
3 Feb 2020 17:22:22.000,144.459,27.944,785.137542
3 Feb 2020 17:22:23.000,143.861,28.001,783.977059
3 Feb 2020 17:22:24.000,143.260,28.056,782.880263
3 Feb 2020 17:22:25.000,142.657,28.107,781.847418
3 Feb 2020 17:22:26.000,142.052,28.156,780.878783
3 Feb 2020 17:22:27.000,141.445,28.201,779.974600
3 Feb 2020 17:22:28.000,140.836,28.244,779.135091
3 Feb 2020 17:22:29.000,140.225,28.283,778.360468
3 Feb 2020 17:22:30.000,139.613,28.319,777.650929
3 Feb 2020 17:22:31.000,138.999,28.352,777.006649
3 Feb 2020 17:22:32.000,138.384,28.382,776.427794
3 Feb 2020 17:22:33.000,137.768,28.408,775.914511
3 Feb 2020 17:22:34.000,137.151,28.431,775.466932
3 Feb 2020 17:22:35.000,136.532,28.451,775.085171
3 Feb 2020 17:22:36.000,135.913,28.468,774.769329
3 Feb 2020 17:22:37.000,135.294,28.481,774.519482
3 Feb 2020 17:22:38.000,134.674,28.491,774.335698
3 Feb 2020 17:22:39.000,134.053,28.498,774.218024
3 Feb 2020 17:22:40.000,133.432,28.501,774.166490
3 Feb 2020 17:22:41.000,132.812,28.501,774.181111
3 Feb 2020 17:22:42.000,132.191,28.497,774.261882
3 Feb 2020 17:22:43.000,131.571,28.491,774.408784
3 Feb 2020 17:22:44.000,130.951,28.481,774.621779
3 Feb 2020 17:22:45.000,130.331,28.467,774.900813
3 Feb 2020 17:22:46.000,129.712,28.451,775.245815
3 Feb 2020 17:22:47.000,129.095,28.431,775.656693
3 Feb 2020 17:22:48.000,128.478,28.407,776.133348
3 Feb 2020 17:22:49.000,127.862,28.381,776.675656
3 Feb 2020 17:22:50.000,127.247,28.351,777.283480
3 Feb 2020 17:22:51.000,126.634,28.318,777.956666
3 Feb 2020 17:22:52.000,126.022,28.282,778.695041
3 Feb 2020 17:22:53.000,125.412,28.243,779.498425
3 Feb 2020 17:22:54.000,124.804,28.201,780.366613
3 Feb 2020 17:22:55.000,124.197,28.155,781.299389
3 Feb 2020 17:22:56.000,123.593,28.107,782.296519
3 Feb 2020 17:22:57.000,122.991,28.055,783.357760
3 Feb 2020 17:22:58.000,122.391,28.000,784.482851
3 Feb 2020 17:22:59.000,121.793,27.943,785.671511
3 Feb 2020 17:23:00.000,121.198,27.883,786.923459
3 Feb 2020 17:23:01.000,120.606,27.819,788.238385
3 Feb 2020 17:23:02.000,120.016,27.753,789.615979
3 Feb 2020 17:23:03.000,119.429,27.684,791.055907
3 Feb 2020 17:23:04.000,118.845,27.613,792.557834
3 Feb 2020 17:23:05.000,118.264,27.539,794.121401
3 Feb 2020 17:23:06.000,117.687,27.462,795.746248
3 Feb 2020 17:23:07.000,117.112,27.383,797.431993
3 Feb 2020 17:23:08.000,116.541,27.301,799.178256
3 Feb 2020 17:23:09.000,115.973,27.217,800.984633
3 Feb 2020 17:23:10.000,115.409,27.130,802.850722
3 Feb 2020 17:23:11.000,114.848,27.041,804.776100
3 Feb 2020 17:23:12.000,114.291,26.950,806.760344
3 Feb 2020 17:23:13.000,113.738,26.856,808.803021
3 Feb 2020 17:23:14.000,113.188,26.761,810.903682
3 Feb 2020 17:23:15.000,112.642,26.663,813.061878
3 Feb 2020 17:23:16.000,112.100,26.563,815.277153
3 Feb 2020 17:23:17.000,111.562,26.462,817.549034
3 Feb 2020 17:23:18.000,111.028,26.358,819.877052
3 Feb 2020 17:23:19.000,110.498,26.252,822.260727
3 Feb 2020 17:23:20.000,109.972,26.145,824.699575
3 Feb 2020 17:23:21.000,109.451,26.036,827.193108
3 Feb 2020 17:23:22.000,108.933,25.925,829.740823
3 Feb 2020 17:23:23.000,108.420,25.813,832.342225
3 Feb 2020 17:23:24.000,107.910,25.699,834.996807
3 Feb 2020 17:23:25.000,107.405,25.584,837.704063
3 Feb 2020 17:23:26.000,106.905,25.467,840.463479
3 Feb 2020 17:23:27.000,106.408,25.349,843.274542
3 Feb 2020 17:23:28.000,105.916,25.229,846.136732
3 Feb 2020 17:23:29.000,105.429,25.108,849.049531
3 Feb 2020 17:23:30.000,104.945,24.986,852.012415
3 Feb 2020 17:23:31.000,104.466,24.863,855.024861
3 Feb 2020 17:23:32.000,103.992,24.739,858.086344
3 Feb 2020 17:23:33.000,103.521,24.613,861.196337
3 Feb 2020 17:23:34.000,103.055,24.487,864.354314
3 Feb 2020 17:23:35.000,102.594,24.360,867.559746
3 Feb 2020 17:23:36.000,102.137,24.231,870.812107
3 Feb 2020 17:23:37.000,101.684,24.102,874.110868
3 Feb 2020 17:23:38.000,101.235,23.972,877.455504
3 Feb 2020 17:23:39.000,100.791,23.842,880.845487
3 Feb 2020 17:23:40.000,100.352,23.710,884.280293
3 Feb 2020 17:23:41.000,99.916,23.578,887.759397
3 Feb 2020 17:23:42.000,99.485,23.445,891.282273
3 Feb 2020 17:23:43.000,99.058,23.312,894.848408
3 Feb 2020 17:23:44.000,98.636,23.178,898.457278
3 Feb 2020 17:23:45.000,98.218,23.044,902.108368
3 Feb 2020 17:23:46.000,97.804,22.909,905.801162
3 Feb 2020 17:23:47.000,97.394,22.774,909.535145
3 Feb 2020 17:23:48.000,96.988,22.639,913.309814
3 Feb 2020 17:23:49.000,96.587,22.503,917.124659
3 Feb 2020 17:23:50.000,96.190,22.367,920.979178
3 Feb 2020 17:23:51.000,95.796,22.230,924.872865
3 Feb 2020 17:23:52.000,95.407,22.094,928.805232
3 Feb 2020 17:23:53.000,95.022,21.957,932.775780
3 Feb 2020 17:23:54.000,94.642,21.820,936.784017
3 Feb 2020 17:23:55.000,94.265,21.683,940.829463
3 Feb 2020 17:23:56.000,93.892,21.545,944.911633
3 Feb 2020 17:23:57.000,93.523,21.408,949.030044
3 Feb 2020 17:23:58.000,93.158,21.271,953.184229
3 Feb 2020 17:23:59.000,92.796,21.134,957.373710
3 Feb 2020 17:24:00.000,92.439,20.996,961.598030
3 Feb 2020 17:24:01.000,92.086,20.859,965.856721
3 Feb 2020 17:24:02.000,91.736,20.722,970.149324
3 Feb 2020 17:24:03.000,91.390,20.585,974.475391
3 Feb 2020 17:24:04.000,91.048,20.448,978.834469
3 Feb 2020 17:24:05.000,90.709,20.311,983.226119
3 Feb 2020 17:24:06.000,90.374,20.174,987.649896
3 Feb 2020 17:24:07.000,90.043,20.037,992.105370
3 Feb 2020 17:24:08.000,89.715,19.901,996.592107
3 Feb 2020 17:24:09.000,89.391,19.765,1001.109686
3 Feb 2020 17:24:10.000,89.070,19.629,1005.657680
3 Feb 2020 17:24:11.000,88.753,19.493,1010.235680
3 Feb 2020 17:24:12.000,88.439,19.358,1014.843268
3 Feb 2020 17:24:13.000,88.128,19.223,1019.480044
3 Feb 2020 17:24:14.000,87.821,19.088,1024.145601
3 Feb 2020 17:24:15.000,87.518,18.954,1028.839547
3 Feb 2020 17:24:16.000,87.217,18.819,1033.561484
3 Feb 2020 17:24:17.000,86.920,18.686,1038.311031
3 Feb 2020 17:24:18.000,86.626,18.552,1043.087800
3 Feb 2020 17:24:19.000,86.335,18.419,1047.891415
3 Feb 2020 17:24:20.000,86.047,18.286,1052.721507
3 Feb 2020 17:24:21.000,85.762,18.154,1057.577701
3 Feb 2020 17:24:22.000,85.481,18.022,1062.459641
3 Feb 2020 17:24:23.000,85.202,17.891,1067.366960
3 Feb 2020 17:24:24.000,84.927,17.760,1072.299309
3 Feb 2020 17:24:25.000,84.654,17.629,1077.256341
3 Feb 2020 17:24:26.000,84.384,17.499,1082.237704
3 Feb 2020 17:24:27.000,84.117,17.369,1087.243061
3 Feb 2020 17:24:28.000,83.854,17.240,1092.272082
3 Feb 2020 17:24:29.000,83.592,17.111,1097.324426
3 Feb 2020 17:24:30.000,83.334,16.983,1102.399773
3 Feb 2020 17:24:31.000,83.078,16.855,1107.497802
3 Feb 2020 17:24:32.000,82.826,16.728,1112.618190
3 Feb 2020 17:24:33.000,82.575,16.601,1117.760626
3 Feb 2020 17:24:34.000,82.328,16.474,1122.924802
3 Feb 2020 17:24:35.000,82.083,16.348,1128.110417
3 Feb 2020 17:24:36.000,81.840,16.223,1133.317164
3 Feb 2020 17:24:37.000,81.601,16.098,1138.544750
3 Feb 2020 17:24:38.000,81.363,15.974,1143.792884
3 Feb 2020 17:24:39.000,81.129,15.850,1149.061281
3 Feb 2020 17:24:40.000,80.896,15.726,1154.349651
3 Feb 2020 17:24:41.000,80.666,15.604,1159.657718
3 Feb 2020 17:24:42.000,80.439,15.481,1164.985207
3 Feb 2020 17:24:43.000,80.214,15.359,1170.331850
3 Feb 2020 17:24:44.000,79.991,15.238,1175.697372
3 Feb 2020 17:24:45.000,79.771,15.117,1181.081514
3 Feb 2020 17:24:46.000,79.552,14.997,1186.484015
3 Feb 2020 17:24:47.000,79.336,14.877,1191.904621
3 Feb 2020 17:24:48.000,79.123,14.758,1197.343081
3 Feb 2020 17:24:49.000,78.911,14.640,1202.799142
3 Feb 2020 17:24:50.000,78.702,14.522,1208.272561
3 Feb 2020 17:24:51.000,78.495,14.404,1213.763098
3 Feb 2020 17:24:52.000,78.289,14.287,1219.270515
3 Feb 2020 17:24:53.000,78.086,14.170,1224.794577
3 Feb 2020 17:24:54.000,77.885,14.054,1230.335058
3 Feb 2020 17:24:55.000,77.686,13.939,1235.891724
3 Feb 2020 17:24:56.000,77.490,13.824,1241.464354
3 Feb 2020 17:24:57.000,77.295,13.710,1247.052727
3 Feb 2020 17:24:58.000,77.102,13.596,1252.656628
3 Feb 2020 17:24:59.000,76.911,13.482,1258.275841
3 Feb 2020 17:25:00.000,76.721,13.370,1263.910156
3 Feb 2020 17:25:01.000,76.534,13.257,1269.559369
3 Feb 2020 17:25:02.000,76.349,13.146,1275.223269
3 Feb 2020 17:25:03.000,76.165,13.034,1280.901657
3 Feb 2020 17:25:04.000,75.983,12.924,1286.594335
3 Feb 2020 17:25:05.000,75.803,12.814,1292.301108
3 Feb 2020 17:25:06.000,75.625,12.704,1298.021783
3 Feb 2020 17:25:07.000,75.449,12.595,1303.756171
3 Feb 2020 17:25:08.000,75.274,12.486,1309.504084
3 Feb 2020 17:25:09.000,75.101,12.378,1315.265339
3 Feb 2020 17:25:10.000,74.930,12.270,1321.039755
3 Feb 2020 17:25:11.000,74.760,12.163,1326.827153
3 Feb 2020 17:25:12.000,74.592,12.057,1332.627360
3 Feb 2020 17:25:13.000,74.425,11.951,1338.440197
3 Feb 2020 17:25:14.000,74.261,11.845,1344.265497
3 Feb 2020 17:25:15.000,74.097,11.740,1350.103090
3 Feb 2020 17:25:16.000,73.936,11.635,1355.952813
3 Feb 2020 17:25:17.000,73.775,11.531,1361.814501
3 Feb 2020 17:25:18.000,73.617,11.428,1367.687994
3 Feb 2020 17:25:19.000,73.460,11.325,1373.573133
3 Feb 2020 17:25:20.000,73.304,11.222,1379.469764
3 Feb 2020 17:25:21.000,73.150,11.120,1385.377732
3 Feb 2020 17:25:22.000,72.997,11.018,1391.296886
3 Feb 2020 17:25:23.000,72.845,10.917,1397.227077
3 Feb 2020 17:25:24.000,72.696,10.816,1403.168157
3 Feb 2020 17:25:25.000,72.547,10.716,1409.119984
3 Feb 2020 17:25:26.000,72.400,10.616,1415.082413
3 Feb 2020 17:25:27.000,72.254,10.517,1421.055305
3 Feb 2020 17:25:28.000,72.109,10.418,1427.038522
3 Feb 2020 17:25:29.000,71.966,10.320,1433.031926
3 Feb 2020 17:25:30.000,71.824,10.222,1439.035384
3 Feb 2020 17:25:31.000,71.684,10.124,1445.048764
3 Feb 2020 17:25:32.000,71.545,10.027,1451.071934
3 Feb 2020 17:25:33.000,71.407,9.931,1457.104768
3 Feb 2020 17:25:34.000,71.270,9.835,1463.147137
3 Feb 2020 17:25:35.000,71.134,9.739,1469.198918
3 Feb 2020 17:25:36.000,71.000,9.644,1475.259988
3 Feb 2020 17:25:37.000,70.867,9.549,1481.330225
3 Feb 2020 17:25:38.000,70.735,9.455,1487.409510
3 Feb 2020 17:25:39.000,70.604,9.361,1493.497726
3 Feb 2020 17:25:40.000,70.474,9.267,1499.594757
3 Feb 2020 17:25:41.000,70.346,9.174,1505.700488
3 Feb 2020 17:25:42.000,70.219,9.081,1511.814808
3 Feb 2020 17:25:43.000,70.092,8.989,1517.937604
3 Feb 2020 17:25:44.000,69.967,8.897,1524.068769
3 Feb 2020 17:25:45.000,69.843,8.806,1530.208194
3 Feb 2020 17:25:46.000,69.720,8.715,1536.355772
3 Feb 2020 17:25:47.000,69.598,8.624,1542.511400
3 Feb 2020 17:25:48.000,69.477,8.534,1548.674974
3 Feb 2020 17:25:49.000,69.358,8.444,1554.846389
3 Feb 2020 17:25:50.000,69.239,8.355,1561.025552
3 Feb 2020 17:25:51.000,69.121,8.266,1567.212360
3 Feb 2020 17:25:52.000,69.004,8.177,1573.406716
3 Feb 2020 17:25:53.000,68.889,8.089,1579.608525
3 Feb 2020 17:25:54.000,68.774,8.001,1585.817690
3 Feb 2020 17:25:55.000,68.660,7.914,1592.034120
3 Feb 2020 17:25:56.000,68.547,7.827,1598.257721
3 Feb 2020 17:25:57.000,68.435,7.740,1604.488404
3 Feb 2020 17:25:58.000,68.324,7.654,1610.726079
3 Feb 2020 17:25:59.000,68.214,7.568,1616.970657
3 Feb 2020 17:26:00.000,68.105,7.482,1623.222052
3 Feb 2020 17:26:01.000,67.997,7.397,1629.480178
3 Feb 2020 17:26:02.000,67.889,7.312,1635.744950
3 Feb 2020 17:26:03.000,67.783,7.227,1642.016282
3 Feb 2020 17:26:04.000,67.677,7.143,1648.294097
3 Feb 2020 17:26:05.000,67.572,7.059,1654.578313
3 Feb 2020 17:26:06.000,67.469,6.976,1660.868848
3 Feb 2020 17:26:07.000,67.366,6.893,1667.165624
3 Feb 2020 17:26:08.000,67.263,6.810,1673.468563
3 Feb 2020 17:26:09.000,67.162,6.728,1679.777588
3 Feb 2020 17:26:10.000,67.061,6.646,1686.092623
3 Feb 2020 17:26:11.000,66.962,6.564,1692.413595
3 Feb 2020 17:26:12.000,66.863,6.482,1698.740428
3 Feb 2020 17:26:13.000,66.765,6.401,1705.073048
3 Feb 2020 17:26:14.000,66.667,6.321,1711.411389
3 Feb 2020 17:26:15.000,66.571,6.240,1717.755377
3 Feb 2020 17:26:16.000,66.475,6.160,1724.104943
3 Feb 2020 17:26:17.000,66.380,6.080,1730.460017
3 Feb 2020 17:26:18.000,66.285,6.001,1736.820532
3 Feb 2020 17:26:19.000,66.192,5.922,1743.186420
3 Feb 2020 17:26:20.000,66.099,5.843,1749.557616
3 Feb 2020 17:26:21.000,66.007,5.764,1755.934051
3 Feb 2020 17:26:22.000,65.915,5.686,1762.315668
3 Feb 2020 17:26:23.000,65.824,5.608,1768.702399
3 Feb 2020 17:26:24.000,65.734,5.530,1775.094181
3 Feb 2020 17:26:25.000,65.645,5.453,1781.490954
3 Feb 2020 17:26:26.000,65.556,5.376,1787.892655
3 Feb 2020 17:26:27.000,65.468,5.299,1794.299226
3 Feb 2020 17:26:28.000,65.381,5.223,1800.710605
3 Feb 2020 17:26:29.000,65.294,5.147,1807.126731
3 Feb 2020 17:26:30.000,65.208,5.071,1813.547554
3 Feb 2020 17:26:31.000,65.123,4.995,1819.973012
3 Feb 2020 17:26:32.000,65.038,4.920,1826.403048
3 Feb 2020 17:26:33.000,64.954,4.845,1832.837608
3 Feb 2020 17:26:34.000,64.871,4.770,1839.276636
3 Feb 2020 17:26:35.000,64.788,4.696,1845.720075
3 Feb 2020 17:26:36.000,64.706,4.622,1852.167877
3 Feb 2020 17:26:37.000,64.624,4.548,1858.619986
3 Feb 2020 17:26:38.000,64.543,4.474,1865.076351
3 Feb 2020 17:26:39.000,64.463,4.401,1871.536919
3 Feb 2020 17:26:40.000,64.383,4.328,1878.001639
3 Feb 2020 17:26:41.000,64.304,4.255,1884.470462
3 Feb 2020 17:26:42.000,64.225,4.182,1890.943334
3 Feb 2020 17:26:43.000,64.147,4.110,1897.420212
3 Feb 2020 17:26:44.000,64.070,4.038,1903.901046
3 Feb 2020 17:26:45.000,63.993,3.966,1910.385787
3 Feb 2020 17:26:46.000,63.916,3.894,1916.874388
3 Feb 2020 17:26:47.000,63.840,3.823,1923.366801
3 Feb 2020 17:26:48.000,63.765,3.752,1929.862979
3 Feb 2020 17:26:49.000,63.690,3.681,1936.362882
3 Feb 2020 17:26:50.000,63.616,3.611,1942.866461
3 Feb 2020 17:26:51.000,63.543,3.540,1949.373672
3 Feb 2020 17:26:52.000,63.469,3.470,1955.884472
3 Feb 2020 17:26:53.000,63.397,3.400,1962.398817
3 Feb 2020 17:26:54.000,63.325,3.331,1968.916660
3 Feb 2020 17:26:55.000,63.253,3.261,1975.437966
3 Feb 2020 17:26:56.000,63.182,3.192,1981.962691
3 Feb 2020 17:26:57.000,63.111,3.123,1988.490792
3 Feb 2020 17:26:58.000,63.041,3.054,1995.022229
3 Feb 2020 17:26:59.000,62.971,2.986,2001.556962
3 Feb 2020 17:27:00.000,62.902,2.918,2008.094947
3 Feb 2020 17:27:01.000,62.833,2.850,2014.636152
3 Feb 2020 17:27:02.000,62.765,2.782,2021.180534
3 Feb 2020 17:27:03.000,62.697,2.714,2027.728055
3 Feb 2020 17:27:04.000,62.630,2.647,2034.278677
3 Feb 2020 17:27:05.000,62.563,2.580,2040.832360
3 Feb 2020 17:27:06.000,62.497,2.513,2047.389072
3 Feb 2020 17:27:07.000,62.431,2.446,2053.948773
3 Feb 2020 17:27:08.000,62.366,2.380,2060.511428
3 Feb 2020 17:27:09.000,62.300,2.313,2067.077001
3 Feb 2020 17:27:10.000,62.236,2.247,2073.645452
3 Feb 2020 17:27:11.000,62.172,2.181,2080.216754
3 Feb 2020 17:27:12.000,62.108,2.116,2086.790868
3 Feb 2020 17:27:13.000,62.045,2.050,2093.367761
3 Feb 2020 17:27:14.000,61.982,1.985,2099.947397
3 Feb 2020 17:27:15.000,61.919,1.920,2106.529745
3 Feb 2020 17:27:16.000,61.857,1.855,2113.114768
3 Feb 2020 17:27:17.000,61.796,1.790,2119.702439
3 Feb 2020 17:27:18.000,61.734,1.726,2126.292723
3 Feb 2020 17:27:19.000,61.673,1.661,2132.885588
3 Feb 2020 17:27:20.000,61.613,1.597,2139.481003
3 Feb 2020 17:27:21.000,61.553,1.533,2146.078932
3 Feb 2020 17:27:22.000,61.493,1.469,2152.679352
3 Feb 2020 17:27:23.000,61.434,1.406,2159.282228
3 Feb 2020 17:27:24.000,61.375,1.342,2165.887530
3 Feb 2020 17:27:25.000,61.317,1.279,2172.495229
3 Feb 2020 17:27:26.000,61.259,1.216,2179.105292
3 Feb 2020 17:27:27.000,61.201,1.153,2185.717696
3 Feb 2020 17:27:28.000,61.143,1.091,2192.332408
3 Feb 2020 17:27:29.000,61.086,1.028,2198.949401
3 Feb 2020 17:27:30.000,61.030,0.966,2205.568642
3 Feb 2020 17:27:31.000,60.973,0.904,2212.190110
3 Feb 2020 17:27:32.000,60.917,0.842,2218.813774
3 Feb 2020 17:27:33.000,60.862,0.780,2225.439607
3 Feb 2020 17:27:34.000,60.807,0.719,2232.067582
3 Feb 2020 17:27:35.000,60.752,0.657,2238.697668
3 Feb 2020 17:27:36.000,60.697,0.596,2245.329846
3 Feb 2020 17:27:37.000,60.643,0.535,2251.964085
3 Feb 2020 17:27:38.000,60.589,0.474,2258.600361
3 Feb 2020 17:27:39.000,60.536,0.413,2265.238647
3 Feb 2020 17:27:40.000,60.482,0.352,2271.878915
3 Feb 2020 17:27:41.000,60.430,0.292,2278.521146
3 Feb 2020 17:27:42.000,60.377,0.232,2285.165311
3 Feb 2020 17:27:43.000,60.325,0.172,2291.811387
3 Feb 2020 17:27:44.000,60.273,0.112,2298.459349
3 Feb 2020 17:27:45.000,60.221,0.052,2305.109169
3 Feb 2020 17:27:46.000,60.170,-0.008,2311.760830
3 Feb 2020 17:27:47.000,60.119,-0.067,2318.414305
3 Feb 2020 17:27:47.955,60.071,-0.124,2324.770666
3 Feb 2020 18:53:52.664,254.776,-0.124,2318.011872
3 Feb 2020 18:53:53.000,254.795,-0.104,2315.800928
3 Feb 2020 18:53:54.000,254.852,-0.045,2309.221610
3 Feb 2020 18:53:55.000,254.910,0.014,2302.644201
3 Feb 2020 18:53:56.000,254.968,0.073,2296.068721
3 Feb 2020 18:53:57.000,255.026,0.133,2289.495195
3 Feb 2020 18:53:58.000,255.085,0.192,2282.923645
3 Feb 2020 18:53:59.000,255.144,0.252,2276.354095
3 Feb 2020 18:54:00.000,255.203,0.312,2269.786576
3 Feb 2020 18:54:01.000,255.263,0.372,2263.221108
3 Feb 2020 18:54:02.000,255.323,0.433,2256.657719
3 Feb 2020 18:54:03.000,255.383,0.493,2250.096434
3 Feb 2020 18:54:04.000,255.444,0.554,2243.537274
3 Feb 2020 18:54:05.000,255.505,0.614,2236.980274
3 Feb 2020 18:54:06.000,255.566,0.675,2230.425456
3 Feb 2020 18:54:07.000,255.628,0.736,2223.872848
3 Feb 2020 18:54:08.000,255.690,0.798,2217.322476
3 Feb 2020 18:54:09.000,255.752,0.859,2210.774364
3 Feb 2020 18:54:10.000,255.815,0.921,2204.228547
3 Feb 2020 18:54:11.000,255.878,0.983,2197.685049
3 Feb 2020 18:54:12.000,255.942,1.045,2191.143900
3 Feb 2020 18:54:13.000,256.006,1.107,2184.605127
3 Feb 2020 18:54:14.000,256.070,1.169,2178.068759
3 Feb 2020 18:54:15.000,256.135,1.231,2171.534822
3 Feb 2020 18:54:16.000,256.200,1.294,2165.003352
3 Feb 2020 18:54:17.000,256.265,1.357,2158.474376
3 Feb 2020 18:54:18.000,256.331,1.420,2151.947925
3 Feb 2020 18:54:19.000,256.397,1.483,2145.424028
3 Feb 2020 18:54:20.000,256.463,1.547,2138.902713
3 Feb 2020 18:54:21.000,256.530,1.610,2132.384018
3 Feb 2020 18:54:22.000,256.598,1.674,2125.867972
3 Feb 2020 18:54:23.000,256.665,1.738,2119.354605
3 Feb 2020 18:54:24.000,256.734,1.802,2112.843951
3 Feb 2020 18:54:25.000,256.802,1.866,2106.336042
3 Feb 2020 18:54:26.000,256.871,1.931,2099.830907
3 Feb 2020 18:54:27.000,256.941,1.995,2093.328587
3 Feb 2020 18:54:28.000,257.010,2.060,2086.829113
3 Feb 2020 18:54:29.000,257.081,2.125,2080.332517
3 Feb 2020 18:54:30.000,257.151,2.191,2073.838835
3 Feb 2020 18:54:31.000,257.222,2.256,2067.348102
3 Feb 2020 18:54:32.000,257.294,2.322,2060.860349
3 Feb 2020 18:54:33.000,257.366,2.388,2054.375619
3 Feb 2020 18:54:34.000,257.438,2.454,2047.893945
3 Feb 2020 18:54:35.000,257.511,2.520,2041.415363
3 Feb 2020 18:54:36.000,257.585,2.587,2034.939910
3 Feb 2020 18:54:37.000,257.659,2.654,2028.467624
3 Feb 2020 18:54:38.000,257.733,2.720,2021.998538
3 Feb 2020 18:54:39.000,257.808,2.788,2015.532699
3 Feb 2020 18:54:40.000,257.883,2.855,2009.070141
3 Feb 2020 18:54:41.000,257.958,2.923,2002.610904
3 Feb 2020 18:54:42.000,258.035,2.990,1996.155026
3 Feb 2020 18:54:43.000,258.111,3.058,1989.702549
3 Feb 2020 18:54:44.000,258.189,3.127,1983.253513
3 Feb 2020 18:54:45.000,258.266,3.195,1976.807955
3 Feb 2020 18:54:46.000,258.344,3.264,1970.365924
3 Feb 2020 18:54:47.000,258.423,3.333,1963.927458
3 Feb 2020 18:54:48.000,258.502,3.402,1957.492601
3 Feb 2020 18:54:49.000,258.582,3.471,1951.061394
3 Feb 2020 18:54:50.000,258.662,3.541,1944.633882
3 Feb 2020 18:54:51.000,258.743,3.611,1938.210109
3 Feb 2020 18:54:52.000,258.824,3.681,1931.790115
3 Feb 2020 18:54:53.000,258.906,3.751,1925.373954
3 Feb 2020 18:54:54.000,258.988,3.822,1918.961667
3 Feb 2020 18:54:55.000,259.071,3.892,1912.553300
3 Feb 2020 18:54:56.000,259.155,3.963,1906.148901
3 Feb 2020 18:54:57.000,259.239,4.035,1899.748516
3 Feb 2020 18:54:58.000,259.323,4.106,1893.352195
3 Feb 2020 18:54:59.000,259.409,4.178,1886.959981
3 Feb 2020 18:55:00.000,259.494,4.250,1880.571932
3 Feb 2020 18:55:01.000,259.581,4.322,1874.188093
3 Feb 2020 18:55:02.000,259.668,4.395,1867.808515
3 Feb 2020 18:55:03.000,259.755,4.468,1861.433250
3 Feb 2020 18:55:04.000,259.843,4.541,1855.062348
3 Feb 2020 18:55:05.000,259.932,4.614,1848.695862
3 Feb 2020 18:55:06.000,260.021,4.688,1842.333846
3 Feb 2020 18:55:07.000,260.111,4.762,1835.976349
3 Feb 2020 18:55:08.000,260.202,4.836,1829.623433
3 Feb 2020 18:55:09.000,260.293,4.910,1823.275150
3 Feb 2020 18:55:10.000,260.385,4.985,1816.931554
3 Feb 2020 18:55:11.000,260.478,5.060,1810.592704
3 Feb 2020 18:55:12.000,260.571,5.135,1804.258655
3 Feb 2020 18:55:13.000,260.665,5.210,1797.929467
3 Feb 2020 18:55:14.000,260.759,5.286,1791.605197
3 Feb 2020 18:55:15.000,260.854,5.362,1785.285902
3 Feb 2020 18:55:16.000,260.950,5.439,1778.971648
3 Feb 2020 18:55:17.000,261.047,5.515,1772.662495
3 Feb 2020 18:55:18.000,261.144,5.592,1766.358502
3 Feb 2020 18:55:19.000,261.242,5.670,1760.059733
3 Feb 2020 18:55:20.000,261.341,5.747,1753.766252
3 Feb 2020 18:55:21.000,261.440,5.825,1747.478122
3 Feb 2020 18:55:22.000,261.540,5.903,1741.195409
3 Feb 2020 18:55:23.000,261.641,5.981,1734.918179
3 Feb 2020 18:55:24.000,261.742,6.060,1728.646499
3 Feb 2020 18:55:25.000,261.845,6.139,1722.380436
3 Feb 2020 18:55:26.000,261.948,6.219,1716.120055
3 Feb 2020 18:55:27.000,262.052,6.298,1709.865433
3 Feb 2020 18:55:28.000,262.156,6.378,1703.616638
3 Feb 2020 18:55:29.000,262.262,6.458,1697.373740
3 Feb 2020 18:55:30.000,262.368,6.539,1691.136812
3 Feb 2020 18:55:31.000,262.475,6.620,1684.905928
3 Feb 2020 18:55:32.000,262.583,6.701,1678.681161
3 Feb 2020 18:55:33.000,262.692,6.783,1672.462587
3 Feb 2020 18:55:34.000,262.801,6.865,1666.250283
3 Feb 2020 18:55:35.000,262.911,6.947,1660.044326
3 Feb 2020 18:55:36.000,263.022,7.030,1653.844794
3 Feb 2020 18:55:37.000,263.134,7.113,1647.651767
3 Feb 2020 18:55:38.000,263.247,7.196,1641.465322
3 Feb 2020 18:55:39.000,263.361,7.279,1635.285548
3 Feb 2020 18:55:40.000,263.476,7.363,1629.112524
3 Feb 2020 18:55:41.000,263.591,7.448,1622.946335
3 Feb 2020 18:55:42.000,263.708,7.532,1616.787065
3 Feb 2020 18:55:43.000,263.825,7.617,1610.634801
3 Feb 2020 18:55:44.000,263.943,7.703,1604.489630
3 Feb 2020 18:55:45.000,264.063,7.788,1598.351642
3 Feb 2020 18:55:46.000,264.183,7.874,1592.220926
3 Feb 2020 18:55:47.000,264.304,7.961,1586.097573
3 Feb 2020 18:55:48.000,264.426,8.048,1579.981676
3 Feb 2020 18:55:49.000,264.549,8.135,1573.873329
3 Feb 2020 18:55:50.000,264.673,8.222,1567.772627
3 Feb 2020 18:55:51.000,264.798,8.310,1561.679666
3 Feb 2020 18:55:52.000,264.924,8.399,1555.594545
3 Feb 2020 18:55:53.000,265.051,8.487,1549.517362
3 Feb 2020 18:55:54.000,265.180,8.576,1543.448219
3 Feb 2020 18:55:55.000,265.309,8.666,1537.387217
3 Feb 2020 18:55:56.000,265.439,8.756,1531.334459
3 Feb 2020 18:55:57.000,265.570,8.846,1525.290052
3 Feb 2020 18:55:58.000,265.703,8.937,1519.254101
3 Feb 2020 18:55:59.000,265.836,9.028,1513.226714
3 Feb 2020 18:56:00.000,265.971,9.119,1507.208000
3 Feb 2020 18:56:01.000,266.107,9.211,1501.198072
3 Feb 2020 18:56:02.000,266.244,9.303,1495.197042
3 Feb 2020 18:56:03.000,266.382,9.396,1489.205023
3 Feb 2020 18:56:04.000,266.521,9.489,1483.222132
3 Feb 2020 18:56:05.000,266.661,9.582,1477.248487
3 Feb 2020 18:56:06.000,266.803,9.676,1471.284207
3 Feb 2020 18:56:07.000,266.946,9.771,1465.329413
3 Feb 2020 18:56:08.000,267.090,9.865,1459.384228
3 Feb 2020 18:56:09.000,267.235,9.960,1453.448777
3 Feb 2020 18:56:10.000,267.382,10.056,1447.523185
3 Feb 2020 18:56:11.000,267.529,10.152,1441.607581
3 Feb 2020 18:56:12.000,267.679,10.249,1435.702096
3 Feb 2020 18:56:13.000,267.829,10.345,1429.806861
3 Feb 2020 18:56:14.000,267.981,10.443,1423.922010
3 Feb 2020 18:56:15.000,268.134,10.540,1418.047679
3 Feb 2020 18:56:16.000,268.288,10.639,1412.184006
3 Feb 2020 18:56:17.000,268.444,10.737,1406.331131
3 Feb 2020 18:56:18.000,268.601,10.836,1400.489196
3 Feb 2020 18:56:19.000,268.759,10.936,1394.658345
3 Feb 2020 18:56:20.000,268.919,11.036,1388.838723
3 Feb 2020 18:56:21.000,269.081,11.136,1383.030480
3 Feb 2020 18:56:22.000,269.244,11.237,1377.233766
3 Feb 2020 18:56:23.000,269.408,11.339,1371.448734
3 Feb 2020 18:56:24.000,269.574,11.440,1365.675537
3 Feb 2020 18:56:25.000,269.741,11.543,1359.914338
3 Feb 2020 18:56:26.000,269.910,11.646,1354.165289
3 Feb 2020 18:56:27.000,270.080,11.749,1348.428554
3 Feb 2020 18:56:28.000,270.252,11.852,1342.704299
3 Feb 2020 18:56:29.000,270.425,11.957,1336.992690
3 Feb 2020 18:56:30.000,270.601,12.061,1331.293895
3 Feb 2020 18:56:31.000,270.777,12.166,1325.608088
3 Feb 2020 18:56:32.000,270.956,12.272,1319.935442
3 Feb 2020 18:56:33.000,271.136,12.378,1314.276133
3 Feb 2020 18:56:34.000,271.317,12.485,1308.630341
3 Feb 2020 18:56:35.000,271.501,12.592,1302.998252
3 Feb 2020 18:56:36.000,271.686,12.699,1297.380043
3 Feb 2020 18:56:37.000,271.872,12.807,1291.775906
3 Feb 2020 18:56:38.000,272.061,12.916,1286.186029
3 Feb 2020 18:56:39.000,272.251,13.025,1280.610607
3 Feb 2020 18:56:40.000,272.444,13.134,1275.049836
3 Feb 2020 18:56:41.000,272.638,13.244,1269.503913
3 Feb 2020 18:56:42.000,272.833,13.354,1263.973040
3 Feb 2020 18:56:43.000,273.031,13.465,1258.457427
3 Feb 2020 18:56:44.000,273.231,13.577,1252.957272
3 Feb 2020 18:56:45.000,273.432,13.689,1247.472791
3 Feb 2020 18:56:46.000,273.636,13.801,1242.004197
3 Feb 2020 18:56:47.000,273.841,13.914,1236.551706
3 Feb 2020 18:56:48.000,274.049,14.027,1231.115540
3 Feb 2020 18:56:49.000,274.258,14.141,1225.695924
3 Feb 2020 18:56:50.000,274.470,14.256,1220.293079
3 Feb 2020 18:56:51.000,274.683,14.370,1214.907236
3 Feb 2020 18:56:52.000,274.899,14.486,1209.538631
3 Feb 2020 18:56:53.000,275.117,14.602,1204.187498
3 Feb 2020 18:56:54.000,275.337,14.718,1198.854082
3 Feb 2020 18:56:55.000,275.559,14.835,1193.538618
3 Feb 2020 18:56:56.000,275.783,14.952,1188.241358
3 Feb 2020 18:56:57.000,276.010,15.070,1182.962551
3 Feb 2020 18:56:58.000,276.239,15.188,1177.702455
3 Feb 2020 18:56:59.000,276.470,15.307,1172.461320
3 Feb 2020 18:57:00.000,276.703,15.426,1167.239412
3 Feb 2020 18:57:01.000,276.939,15.546,1162.036995
3 Feb 2020 18:57:02.000,277.177,15.666,1156.854342
3 Feb 2020 18:57:03.000,277.418,15.786,1151.691717
3 Feb 2020 18:57:04.000,277.660,15.907,1146.549401
3 Feb 2020 18:57:05.000,277.906,16.029,1141.427677
3 Feb 2020 18:57:06.000,278.154,16.151,1136.326823
3 Feb 2020 18:57:07.000,278.404,16.273,1131.247130
3 Feb 2020 18:57:08.000,278.657,16.396,1126.188889
3 Feb 2020 18:57:09.000,278.912,16.519,1121.152400
3 Feb 2020 18:57:10.000,279.171,16.643,1116.137957
3 Feb 2020 18:57:11.000,279.431,16.767,1111.145866
3 Feb 2020 18:57:12.000,279.695,16.892,1106.176439
3 Feb 2020 18:57:13.000,279.961,17.017,1101.229981
3 Feb 2020 18:57:14.000,280.230,17.142,1096.306813
3 Feb 2020 18:57:15.000,280.501,17.268,1091.407258
3 Feb 2020 18:57:16.000,280.776,17.394,1086.531634
3 Feb 2020 18:57:17.000,281.053,17.521,1081.680277
3 Feb 2020 18:57:18.000,281.333,17.648,1076.853513
3 Feb 2020 18:57:19.000,281.616,17.775,1072.051683
3 Feb 2020 18:57:20.000,281.902,17.903,1067.275133
3 Feb 2020 18:57:21.000,282.190,18.031,1062.524201
3 Feb 2020 18:57:22.000,282.482,18.160,1057.799246
3 Feb 2020 18:57:23.000,282.777,18.288,1053.100613
3 Feb 2020 18:57:24.000,283.075,18.417,1048.428667
3 Feb 2020 18:57:25.000,283.376,18.547,1043.783774
3 Feb 2020 18:57:26.000,283.680,18.676,1039.166295
3 Feb 2020 18:57:27.000,283.987,18.806,1034.576609
3 Feb 2020 18:57:28.000,284.297,18.936,1030.015085
3 Feb 2020 18:57:29.000,284.611,19.067,1025.482111
3 Feb 2020 18:57:30.000,284.928,19.197,1020.978066
3 Feb 2020 18:57:31.000,285.248,19.328,1016.503345
3 Feb 2020 18:57:32.000,285.571,19.459,1012.058336
3 Feb 2020 18:57:33.000,285.898,19.590,1007.643443
3 Feb 2020 18:57:34.000,286.228,19.722,1003.259062
3 Feb 2020 18:57:35.000,286.562,19.853,998.905606
3 Feb 2020 18:57:36.000,286.899,19.985,994.583479
3 Feb 2020 18:57:37.000,287.239,20.116,990.293103
3 Feb 2020 18:57:38.000,287.583,20.248,986.034893
3 Feb 2020 18:57:39.000,287.931,20.380,981.809269
3 Feb 2020 18:57:40.000,288.282,20.512,977.616665
3 Feb 2020 18:57:41.000,288.636,20.644,973.457505
3 Feb 2020 18:57:42.000,288.995,20.776,969.332231
3 Feb 2020 18:57:43.000,289.357,20.908,965.241278
3 Feb 2020 18:57:44.000,289.722,21.040,961.185086
3 Feb 2020 18:57:45.000,290.091,21.171,957.164107
3 Feb 2020 18:57:46.000,290.465,21.303,953.178788
3 Feb 2020 18:57:47.000,290.841,21.435,949.229580
3 Feb 2020 18:57:48.000,291.222,21.566,945.316944
3 Feb 2020 18:57:49.000,291.606,21.697,941.441339
3 Feb 2020 18:57:50.000,291.995,21.828,937.603224
3 Feb 2020 18:57:51.000,292.387,21.958,933.803072
3 Feb 2020 18:57:52.000,292.783,22.089,930.041349
3 Feb 2020 18:57:53.000,293.183,22.219,926.318528
3 Feb 2020 18:57:54.000,293.587,22.348,922.635079
3 Feb 2020 18:57:55.000,293.994,22.478,918.991486
3 Feb 2020 18:57:56.000,294.406,22.606,915.388226
3 Feb 2020 18:57:57.000,294.822,22.735,911.825781
3 Feb 2020 18:57:58.000,295.242,22.863,908.304632
3 Feb 2020 18:57:59.000,295.666,22.990,904.825271
3 Feb 2020 18:58:00.000,296.093,23.117,901.388181
3 Feb 2020 18:58:01.000,296.525,23.243,897.993852
3 Feb 2020 18:58:02.000,296.961,23.368,894.642775
3 Feb 2020 18:58:03.000,297.401,23.493,891.335439
3 Feb 2020 18:58:04.000,297.845,23.617,888.072338
3 Feb 2020 18:58:05.000,298.293,23.740,884.853965
3 Feb 2020 18:58:06.000,298.745,23.862,881.680811
3 Feb 2020 18:58:07.000,299.202,23.983,878.553370
3 Feb 2020 18:58:08.000,299.662,24.104,875.472134
3 Feb 2020 18:58:09.000,300.126,24.223,872.437599
3 Feb 2020 18:58:10.000,300.595,24.342,869.450255
3 Feb 2020 18:58:11.000,301.067,24.459,866.510593
3 Feb 2020 18:58:12.000,301.544,24.575,863.619104
3 Feb 2020 18:58:13.000,302.025,24.691,860.776277
3 Feb 2020 18:58:14.000,302.509,24.804,857.982595
3 Feb 2020 18:58:15.000,302.998,24.917,855.238543
3 Feb 2020 18:58:16.000,303.490,25.028,852.544605
3 Feb 2020 18:58:17.000,303.987,25.138,849.901259
3 Feb 2020 18:58:18.000,304.488,25.246,847.308981
3 Feb 2020 18:58:19.000,304.992,25.353,844.768244
3 Feb 2020 18:58:20.000,305.500,25.459,842.279517
3 Feb 2020 18:58:21.000,306.012,25.563,839.843265
3 Feb 2020 18:58:22.000,306.528,25.665,837.459950
3 Feb 2020 18:58:23.000,307.048,25.765,835.130023
3 Feb 2020 18:58:24.000,307.572,25.864,832.853936
3 Feb 2020 18:58:25.000,308.099,25.961,830.632135
3 Feb 2020 18:58:26.000,308.630,26.056,828.465060
3 Feb 2020 18:58:27.000,309.164,26.149,826.353140
3 Feb 2020 18:58:28.000,309.702,26.240,824.296801
3 Feb 2020 18:58:29.000,310.243,26.329,822.296467
3 Feb 2020 18:58:30.000,310.788,26.416,820.352543
3 Feb 2020 18:58:31.000,311.336,26.501,818.465436
3 Feb 2020 18:58:32.000,311.888,26.584,816.635543
3 Feb 2020 18:58:33.000,312.443,26.665,814.863246
3 Feb 2020 18:58:34.000,313.000,26.743,813.148927
3 Feb 2020 18:58:35.000,313.561,26.819,811.492956
3 Feb 2020 18:58:36.000,314.125,26.893,809.895688
3 Feb 2020 18:58:37.000,314.692,26.964,808.357478
3 Feb 2020 18:58:38.000,315.261,27.033,806.878658
3 Feb 2020 18:58:39.000,315.834,27.099,805.459563
3 Feb 2020 18:58:40.000,316.409,27.162,804.100505
3 Feb 2020 18:58:41.000,316.986,27.224,802.801794
3 Feb 2020 18:58:42.000,317.566,27.282,801.563723
3 Feb 2020 18:58:43.000,318.148,27.338,800.386571
3 Feb 2020 18:58:44.000,318.733,27.391,799.270613
3 Feb 2020 18:58:45.000,319.319,27.441,798.216102
3 Feb 2020 18:58:46.000,319.908,27.489,797.223287
3 Feb 2020 18:58:47.000,320.498,27.533,796.292397
3 Feb 2020 18:58:48.000,321.091,27.575,795.423648
3 Feb 2020 18:58:49.000,321.685,27.614,794.617248
3 Feb 2020 18:58:50.000,322.280,27.650,793.873385
3 Feb 2020 18:58:51.000,322.877,27.683,793.192237
3 Feb 2020 18:58:52.000,323.475,27.713,792.573962
3 Feb 2020 18:58:53.000,324.075,27.740,792.018712
3 Feb 2020 18:58:54.000,324.675,27.764,791.526618
3 Feb 2020 18:58:55.000,325.277,27.785,791.097798
3 Feb 2020 18:58:56.000,325.879,27.803,790.732354
3 Feb 2020 18:58:57.000,326.482,27.818,790.430375
3 Feb 2020 18:58:58.000,327.086,27.830,790.191933
3 Feb 2020 18:58:59.000,327.690,27.839,790.017082
3 Feb 2020 18:59:00.000,328.294,27.845,789.905870
3 Feb 2020 18:59:01.000,328.899,27.848,789.858320
3 Feb 2020 18:59:02.000,329.503,27.847,789.874444
3 Feb 2020 18:59:03.000,330.108,27.844,789.954236
3 Feb 2020 18:59:04.000,330.712,27.837,790.097677
3 Feb 2020 18:59:05.000,331.316,27.827,790.304734
3 Feb 2020 18:59:06.000,331.919,27.815,790.575351
3 Feb 2020 18:59:07.000,332.522,27.799,790.909465
3 Feb 2020 18:59:08.000,333.124,27.780,791.306995
3 Feb 2020 18:59:09.000,333.725,27.758,791.767843
3 Feb 2020 18:59:10.000,334.325,27.733,792.291898
3 Feb 2020 18:59:11.000,334.924,27.705,792.879034
3 Feb 2020 18:59:12.000,335.521,27.674,793.529110
3 Feb 2020 18:59:13.000,336.118,27.641,794.241968
3 Feb 2020 18:59:14.000,336.713,27.604,795.017440
3 Feb 2020 18:59:15.000,337.306,27.564,795.855340
3 Feb 2020 18:59:16.000,337.897,27.522,796.755471
3 Feb 2020 18:59:17.000,338.487,27.476,797.717619
3 Feb 2020 18:59:18.000,339.075,27.428,798.741559
3 Feb 2020 18:59:19.000,339.660,27.377,799.827053
3 Feb 2020 18:59:20.000,340.244,27.323,800.973847
3 Feb 2020 18:59:21.000,340.825,27.267,802.181677
3 Feb 2020 18:59:22.000,341.404,27.208,803.450267
3 Feb 2020 18:59:23.000,341.980,27.146,804.779324
3 Feb 2020 18:59:24.000,342.554,27.082,806.168552
3 Feb 2020 18:59:25.000,343.125,27.015,807.617633
3 Feb 2020 18:59:26.000,343.693,26.946,809.126248
3 Feb 2020 18:59:27.000,344.259,26.874,810.694058
3 Feb 2020 18:59:28.000,344.821,26.800,812.320721
3 Feb 2020 18:59:29.000,345.381,26.723,814.005880
3 Feb 2020 18:59:30.000,345.937,26.645,815.749171
3 Feb 2020 18:59:31.000,346.491,26.564,817.550219
3 Feb 2020 18:59:32.000,347.041,26.480,819.408641
3 Feb 2020 18:59:33.000,347.587,26.395,821.324044
3 Feb 2020 18:59:34.000,348.131,26.307,823.296027
3 Feb 2020 18:59:35.000,348.671,26.218,825.324184
3 Feb 2020 18:59:36.000,349.207,26.126,827.408096
3 Feb 2020 18:59:37.000,349.740,26.033,829.547342
3 Feb 2020 18:59:38.000,350.269,25.938,831.741491
3 Feb 2020 18:59:39.000,350.795,25.840,833.990108
3 Feb 2020 18:59:40.000,351.316,25.741,836.292748
3 Feb 2020 18:59:41.000,351.835,25.641,838.648964
3 Feb 2020 18:59:42.000,352.349,25.538,841.058303
3 Feb 2020 18:59:43.000,352.859,25.434,843.520306
3 Feb 2020 18:59:44.000,353.366,25.329,846.034510
3 Feb 2020 18:59:45.000,353.869,25.222,848.600447
3 Feb 2020 18:59:46.000,354.367,25.113,851.217645
3 Feb 2020 18:59:47.000,354.862,25.003,853.885631
3 Feb 2020 18:59:48.000,355.353,24.892,856.603926
3 Feb 2020 18:59:49.000,355.840,24.779,859.372048
3 Feb 2020 18:59:50.000,356.323,24.665,862.189515
3 Feb 2020 18:59:51.000,356.802,24.550,865.055839
3 Feb 2020 18:59:52.000,357.277,24.434,867.970533
3 Feb 2020 18:59:53.000,357.747,24.316,870.933108
3 Feb 2020 18:59:54.000,358.214,24.198,873.943073
3 Feb 2020 18:59:55.000,358.677,24.078,876.999935
3 Feb 2020 18:59:56.000,359.135,23.958,880.103203
3 Feb 2020 18:59:57.000,359.590,23.837,883.252381
3 Feb 2020 18:59:58.000,0.040,23.715,886.446978
3 Feb 2020 18:59:59.000,0.487,23.592,889.686500
3 Feb 2020 19:00:00.000,0.929,23.468,892.970453
3 Feb 2020 19:00:01.000,1.367,23.343,896.298345
3 Feb 2020 19:00:02.000,1.801,23.218,899.669683
3 Feb 2020 19:00:03.000,2.231,23.092,903.083977
3 Feb 2020 19:00:04.000,2.657,22.966,906.540737
3 Feb 2020 19:00:05.000,3.080,22.838,910.039474
3 Feb 2020 19:00:06.000,3.498,22.711,913.579702
3 Feb 2020 19:00:07.000,3.912,22.583,917.160935
3 Feb 2020 19:00:08.000,4.322,22.454,920.782691
3 Feb 2020 19:00:09.000,4.728,22.325,924.444488
3 Feb 2020 19:00:10.000,5.130,22.196,928.145847
3 Feb 2020 19:00:11.000,5.528,22.066,931.886293
3 Feb 2020 19:00:12.000,5.923,21.936,935.665351
3 Feb 2020 19:00:13.000,6.313,21.806,939.482552
3 Feb 2020 19:00:14.000,6.700,21.675,943.337426
3 Feb 2020 19:00:15.000,7.083,21.544,947.229509
3 Feb 2020 19:00:16.000,7.462,21.413,951.158340
3 Feb 2020 19:00:17.000,7.837,21.282,955.123459
3 Feb 2020 19:00:18.000,8.209,21.151,959.124412
3 Feb 2020 19:00:19.000,8.576,21.020,963.160746
3 Feb 2020 19:00:20.000,8.940,20.888,967.232014
3 Feb 2020 19:00:21.000,9.301,20.757,971.337772
3 Feb 2020 19:00:22.000,9.658,20.625,975.477577
3 Feb 2020 19:00:23.000,10.011,20.494,979.650995
3 Feb 2020 19:00:24.000,10.360,20.362,983.857590
3 Feb 2020 19:00:25.000,10.706,20.231,988.096935
3 Feb 2020 19:00:26.000,11.049,20.099,992.368604
3 Feb 2020 19:00:27.000,11.388,19.968,996.672176
3 Feb 2020 19:00:28.000,11.724,19.837,1001.007234
3 Feb 2020 19:00:29.000,12.056,19.706,1005.373366
3 Feb 2020 19:00:30.000,12.385,19.575,1009.770162
3 Feb 2020 19:00:31.000,12.710,19.444,1014.197219
3 Feb 2020 19:00:32.000,13.032,19.313,1018.654136
3 Feb 2020 19:00:33.000,13.351,19.183,1023.140517
3 Feb 2020 19:00:34.000,13.667,19.053,1027.655970
3 Feb 2020 19:00:35.000,13.979,18.923,1032.200110
3 Feb 2020 19:00:36.000,14.288,18.793,1036.772551
3 Feb 2020 19:00:37.000,14.594,18.664,1041.372917
3 Feb 2020 19:00:38.000,14.897,18.535,1046.000833
3 Feb 2020 19:00:39.000,15.196,18.406,1050.655928
3 Feb 2020 19:00:40.000,15.493,18.277,1055.337838
3 Feb 2020 19:00:41.000,15.787,18.149,1060.046200
3 Feb 2020 19:00:42.000,16.077,18.021,1064.780660
3 Feb 2020 19:00:43.000,16.365,17.894,1069.540862
3 Feb 2020 19:00:44.000,16.650,17.766,1074.326461
3 Feb 2020 19:00:45.000,16.932,17.640,1079.137110
3 Feb 2020 19:00:46.000,17.211,17.513,1083.972472
3 Feb 2020 19:00:47.000,17.487,17.387,1088.832212
3 Feb 2020 19:00:48.000,17.760,17.261,1093.715996
3 Feb 2020 19:00:49.000,18.031,17.136,1098.623499
3 Feb 2020 19:00:50.000,18.298,17.011,1103.554400
3 Feb 2020 19:00:51.000,18.564,16.886,1108.508378
3 Feb 2020 19:00:52.000,18.826,16.762,1113.485120
3 Feb 2020 19:00:53.000,19.086,16.639,1118.484317
3 Feb 2020 19:00:54.000,19.343,16.515,1123.505660
3 Feb 2020 19:00:55.000,19.598,16.393,1128.548849
3 Feb 2020 19:00:56.000,19.850,16.270,1133.613588
3 Feb 2020 19:00:57.000,20.099,16.148,1138.699580
3 Feb 2020 19:00:58.000,20.346,16.027,1143.806536
3 Feb 2020 19:00:59.000,20.591,15.906,1148.934171
3 Feb 2020 19:01:00.000,20.833,15.785,1154.082202
3 Feb 2020 19:01:01.000,21.072,15.665,1159.250351
3 Feb 2020 19:01:02.000,21.310,15.545,1164.438346
3 Feb 2020 19:01:03.000,21.545,15.426,1169.645913
3 Feb 2020 19:01:04.000,21.777,15.307,1174.872786
3 Feb 2020 19:01:05.000,22.008,15.189,1180.118703
3 Feb 2020 19:01:06.000,22.236,15.071,1185.383407
3 Feb 2020 19:01:07.000,22.461,14.954,1190.666637
3 Feb 2020 19:01:08.000,22.685,14.837,1195.968144
3 Feb 2020 19:01:09.000,22.907,14.721,1201.287680
3 Feb 2020 19:01:10.000,23.126,14.605,1206.624998
3 Feb 2020 19:01:11.000,23.343,14.490,1211.979859
3 Feb 2020 19:01:12.000,23.558,14.375,1217.352023
3 Feb 2020 19:01:13.000,23.771,14.261,1222.741255
3 Feb 2020 19:01:14.000,23.982,14.147,1228.147325
3 Feb 2020 19:01:15.000,24.191,14.033,1233.570005
3 Feb 2020 19:01:16.000,24.398,13.920,1239.009068
3 Feb 2020 19:01:17.000,24.603,13.808,1244.464295
3 Feb 2020 19:01:18.000,24.805,13.696,1249.935466
3 Feb 2020 19:01:19.000,25.006,13.585,1255.422367
3 Feb 2020 19:01:20.000,25.206,13.474,1260.924785
3 Feb 2020 19:01:21.000,25.403,13.363,1266.442513
3 Feb 2020 19:01:22.000,25.598,13.253,1271.975342
3 Feb 2020 19:01:23.000,25.792,13.144,1277.523070
3 Feb 2020 19:01:24.000,25.983,13.035,1283.085497
3 Feb 2020 19:01:25.000,26.173,12.926,1288.662427
3 Feb 2020 19:01:26.000,26.361,12.818,1294.253664
3 Feb 2020 19:01:27.000,26.548,12.711,1299.859017
3 Feb 2020 19:01:28.000,26.732,12.603,1305.478300
3 Feb 2020 19:01:29.000,26.915,12.497,1311.111322
3 Feb 2020 19:01:30.000,27.097,12.391,1316.757903
3 Feb 2020 19:01:31.000,27.276,12.285,1322.417861
3 Feb 2020 19:01:32.000,27.454,12.180,1328.091019
3 Feb 2020 19:01:33.000,27.630,12.075,1333.777201
3 Feb 2020 19:01:34.000,27.805,11.971,1339.476235
3 Feb 2020 19:01:35.000,27.978,11.867,1345.187950
3 Feb 2020 19:01:36.000,28.150,11.764,1350.912178
3 Feb 2020 19:01:37.000,28.320,11.661,1356.648756
3 Feb 2020 19:01:38.000,28.488,11.559,1362.397517
3 Feb 2020 19:01:39.000,28.655,11.457,1368.158302
3 Feb 2020 19:01:40.000,28.821,11.356,1373.930953
3 Feb 2020 19:01:41.000,28.985,11.255,1379.715314
3 Feb 2020 19:01:42.000,29.147,11.154,1385.511231
3 Feb 2020 19:01:43.000,29.308,11.054,1391.318554
3 Feb 2020 19:01:44.000,29.468,10.954,1397.137131
3 Feb 2020 19:01:45.000,29.626,10.855,1402.966817
3 Feb 2020 19:01:46.000,29.783,10.757,1408.807466
3 Feb 2020 19:01:47.000,29.939,10.658,1414.658935
3 Feb 2020 19:01:48.000,30.093,10.561,1420.521084
3 Feb 2020 19:01:49.000,30.246,10.463,1426.393774
3 Feb 2020 19:01:50.000,30.397,10.366,1432.276867
3 Feb 2020 19:01:51.000,30.548,10.270,1438.170229
3 Feb 2020 19:01:52.000,30.696,10.174,1444.073728
3 Feb 2020 19:01:53.000,30.844,10.078,1449.987231
3 Feb 2020 19:01:54.000,30.990,9.983,1455.910610
3 Feb 2020 19:01:55.000,31.136,9.888,1461.843739
3 Feb 2020 19:01:56.000,31.280,9.794,1467.786490
3 Feb 2020 19:01:57.000,31.422,9.700,1473.738741
3 Feb 2020 19:01:58.000,31.564,9.606,1479.700370
3 Feb 2020 19:01:59.000,31.704,9.513,1485.671258
3 Feb 2020 19:02:00.000,31.843,9.420,1491.651283
3 Feb 2020 19:02:01.000,31.981,9.328,1497.640331
3 Feb 2020 19:02:02.000,32.118,9.236,1503.638286
3 Feb 2020 19:02:03.000,32.254,9.145,1509.645035
3 Feb 2020 19:02:04.000,32.388,9.054,1515.660466
3 Feb 2020 19:02:05.000,32.522,8.963,1521.684468
3 Feb 2020 19:02:06.000,32.654,8.873,1527.716932
3 Feb 2020 19:02:07.000,32.785,8.783,1533.757753
3 Feb 2020 19:02:08.000,32.916,8.693,1539.806825
3 Feb 2020 19:02:09.000,33.045,8.604,1545.864042
3 Feb 2020 19:02:10.000,33.173,8.515,1551.929303
3 Feb 2020 19:02:11.000,33.300,8.427,1558.002505
3 Feb 2020 19:02:12.000,33.426,8.339,1564.083550
3 Feb 2020 19:02:13.000,33.551,8.251,1570.172338
3 Feb 2020 19:02:14.000,33.675,8.164,1576.268773
3 Feb 2020 19:02:15.000,33.799,8.077,1582.372758
3 Feb 2020 19:02:16.000,33.921,7.991,1588.484199
3 Feb 2020 19:02:17.000,34.042,7.905,1594.603004
3 Feb 2020 19:02:18.000,34.162,7.819,1600.729080
3 Feb 2020 19:02:19.000,34.281,7.733,1606.862336
3 Feb 2020 19:02:20.000,34.400,7.648,1613.002684
3 Feb 2020 19:02:21.000,34.517,7.564,1619.150034
3 Feb 2020 19:02:22.000,34.634,7.479,1625.304301
3 Feb 2020 19:02:23.000,34.749,7.395,1631.465399
3 Feb 2020 19:02:24.000,34.864,7.312,1637.633243
3 Feb 2020 19:02:25.000,34.978,7.228,1643.807749
3 Feb 2020 19:02:26.000,35.091,7.145,1649.988836
3 Feb 2020 19:02:27.000,35.203,7.063,1656.176422
3 Feb 2020 19:02:28.000,35.314,6.981,1662.370427
3 Feb 2020 19:02:29.000,35.425,6.899,1668.570772
3 Feb 2020 19:02:30.000,35.534,6.817,1674.777377
3 Feb 2020 19:02:31.000,35.643,6.736,1680.990170
3 Feb 2020 19:02:32.000,35.751,6.655,1687.209072
3 Feb 2020 19:02:33.000,35.858,6.574,1693.434009
3 Feb 2020 19:02:34.000,35.965,6.494,1699.664907
3 Feb 2020 19:02:35.000,36.070,6.414,1705.901693
3 Feb 2020 19:02:36.000,36.175,6.334,1712.144295
3 Feb 2020 19:02:37.000,36.279,6.255,1718.392642
3 Feb 2020 19:02:38.000,36.383,6.176,1724.646665
3 Feb 2020 19:02:39.000,36.485,6.097,1730.906294
3 Feb 2020 19:02:40.000,36.587,6.018,1737.171461
3 Feb 2020 19:02:41.000,36.688,5.940,1743.442098
3 Feb 2020 19:02:42.000,36.788,5.862,1749.718138
3 Feb 2020 19:02:43.000,36.888,5.785,1755.999519
3 Feb 2020 19:02:44.000,36.987,5.707,1762.286174
3 Feb 2020 19:02:45.000,37.085,5.631,1768.578039
3 Feb 2020 19:02:46.000,37.182,5.554,1774.875052
3 Feb 2020 19:02:47.000,37.279,5.477,1781.177150
3 Feb 2020 19:02:48.000,37.375,5.401,1787.484272
3 Feb 2020 19:02:49.000,37.471,5.326,1793.796357
3 Feb 2020 19:02:50.000,37.566,5.250,1800.113346
3 Feb 2020 19:02:51.000,37.660,5.175,1806.435179
3 Feb 2020 19:02:52.000,37.753,5.100,1812.761795
3 Feb 2020 19:02:53.000,37.846,5.025,1819.093143
3 Feb 2020 19:02:54.000,37.938,4.951,1825.429162
3 Feb 2020 19:02:55.000,38.030,4.877,1831.769797
3 Feb 2020 19:02:56.000,38.121,4.803,1838.114992
3 Feb 2020 19:02:57.000,38.211,4.729,1844.464692
3 Feb 2020 19:02:58.000,38.301,4.656,1850.818844
3 Feb 2020 19:02:59.000,38.390,4.583,1857.177394
3 Feb 2020 19:03:00.000,38.478,4.510,1863.540289
3 Feb 2020 19:03:01.000,38.566,4.437,1869.907476
3 Feb 2020 19:03:02.000,38.653,4.365,1876.278906
3 Feb 2020 19:03:03.000,38.740,4.293,1882.654529
3 Feb 2020 19:03:04.000,38.826,4.221,1889.034292
3 Feb 2020 19:03:05.000,38.911,4.149,1895.418147
3 Feb 2020 19:03:06.000,38.996,4.078,1901.806045
3 Feb 2020 19:03:07.000,39.081,4.007,1908.197938
3 Feb 2020 19:03:08.000,39.165,3.936,1914.593777
3 Feb 2020 19:03:09.000,39.248,3.866,1920.993514
3 Feb 2020 19:03:10.000,39.331,3.795,1927.397107
3 Feb 2020 19:03:11.000,39.413,3.725,1933.804507
3 Feb 2020 19:03:12.000,39.495,3.655,1940.215668
3 Feb 2020 19:03:13.000,39.576,3.586,1946.630547
3 Feb 2020 19:03:14.000,39.656,3.516,1953.049098
3 Feb 2020 19:03:15.000,39.737,3.447,1959.471279
3 Feb 2020 19:03:16.000,39.816,3.378,1965.897042
3 Feb 2020 19:03:17.000,39.895,3.310,1972.326350
3 Feb 2020 19:03:18.000,39.974,3.241,1978.759160
3 Feb 2020 19:03:19.000,40.052,3.173,1985.195427
3 Feb 2020 19:03:20.000,40.130,3.105,1991.635113
3 Feb 2020 19:03:21.000,40.207,3.037,1998.078175
3 Feb 2020 19:03:22.000,40.283,2.970,2004.524574
3 Feb 2020 19:03:23.000,40.359,2.902,2010.974267
3 Feb 2020 19:03:24.000,40.435,2.835,2017.427220
3 Feb 2020 19:03:25.000,40.510,2.768,2023.883391
3 Feb 2020 19:03:26.000,40.585,2.701,2030.342742
3 Feb 2020 19:03:27.000,40.659,2.635,2036.805235
3 Feb 2020 19:03:28.000,40.733,2.569,2043.270833
3 Feb 2020 19:03:29.000,40.807,2.502,2049.739495
3 Feb 2020 19:03:30.000,40.879,2.437,2056.211191
3 Feb 2020 19:03:31.000,40.952,2.371,2062.685880
3 Feb 2020 19:03:32.000,41.024,2.305,2069.163529
3 Feb 2020 19:03:33.000,41.096,2.240,2075.644100
3 Feb 2020 19:03:34.000,41.167,2.175,2082.127559
3 Feb 2020 19:03:35.000,41.238,2.110,2088.613868
3 Feb 2020 19:03:36.000,41.308,2.045,2095.103000
3 Feb 2020 19:03:37.000,41.378,1.981,2101.594916
