vcc_sched/network/input/aer_vtgs_wj2xms_vcc-a_44428.csv

"Time (UTCG)","Azimuth (deg)","Elevation (deg)","Range (km)"
3 Feb 2020 16:56:19.589,189.607,-0.056,2308.861412
3 Feb 2020 16:56:20.000,189.569,-0.033,2306.388752
3 Feb 2020 16:56:21.000,189.478,0.021,2300.377081
3 Feb 2020 16:56:22.000,189.387,0.075,2294.370753
3 Feb 2020 16:56:23.000,189.294,0.130,2288.369819
3 Feb 2020 16:56:24.000,189.202,0.184,2282.374329
3 Feb 2020 16:56:25.000,189.109,0.239,2276.384332
3 Feb 2020 16:56:26.000,189.015,0.294,2270.399881
3 Feb 2020 16:56:27.000,188.921,0.348,2264.421026
3 Feb 2020 16:56:28.000,188.826,0.403,2258.447819
3 Feb 2020 16:56:29.000,188.731,0.458,2252.480314
3 Feb 2020 16:56:30.000,188.635,0.513,2246.518562
3 Feb 2020 16:56:31.000,188.539,0.569,2240.562618
3 Feb 2020 16:56:32.000,188.442,0.624,2234.612535
3 Feb 2020 16:56:33.000,188.345,0.679,2228.668368
3 Feb 2020 16:56:34.000,188.247,0.735,2222.730172
3 Feb 2020 16:56:35.000,188.149,0.790,2216.798001
3 Feb 2020 16:56:36.000,188.050,0.846,2210.871913
3 Feb 2020 16:56:37.000,187.951,0.902,2204.951965
3 Feb 2020 16:56:38.000,187.851,0.958,2199.038211
3 Feb 2020 16:56:39.000,187.750,1.014,2193.130711
3 Feb 2020 16:56:40.000,187.649,1.070,2187.229522
3 Feb 2020 16:56:41.000,187.548,1.126,2181.334704
3 Feb 2020 16:56:42.000,187.446,1.182,2175.446315
3 Feb 2020 16:56:43.000,187.343,1.239,2169.564415
3 Feb 2020 16:56:44.000,187.240,1.295,2163.689064
3 Feb 2020 16:56:45.000,187.136,1.352,2157.820324
3 Feb 2020 16:56:46.000,187.031,1.409,2151.958256
3 Feb 2020 16:56:47.000,186.926,1.465,2146.102923
3 Feb 2020 16:56:48.000,186.821,1.522,2140.254385
3 Feb 2020 16:56:49.000,186.714,1.579,2134.412708
3 Feb 2020 16:56:50.000,186.608,1.636,2128.577955
3 Feb 2020 16:56:51.000,186.500,1.694,2122.750190
3 Feb 2020 16:56:52.000,186.392,1.751,2116.929478
3 Feb 2020 16:56:53.000,186.284,1.808,2111.115885
3 Feb 2020 16:56:54.000,186.174,1.866,2105.309478
3 Feb 2020 16:56:55.000,186.065,1.924,2099.510324
3 Feb 2020 16:56:56.000,185.954,1.981,2093.718489
3 Feb 2020 16:56:57.000,185.843,2.039,2087.934043
3 Feb 2020 16:56:58.000,185.731,2.097,2082.157054
3 Feb 2020 16:56:59.000,185.619,2.155,2076.387592
3 Feb 2020 16:57:00.000,185.506,2.213,2070.625726
3 Feb 2020 16:57:01.000,185.392,2.272,2064.871528
3 Feb 2020 16:57:02.000,185.278,2.330,2059.125070
3 Feb 2020 16:57:03.000,185.163,2.388,2053.386424
3 Feb 2020 16:57:04.000,185.047,2.447,2047.655662
3 Feb 2020 16:57:05.000,184.931,2.506,2041.932858
3 Feb 2020 16:57:06.000,184.814,2.564,2036.218088
3 Feb 2020 16:57:07.000,184.696,2.623,2030.511424
3 Feb 2020 16:57:08.000,184.578,2.682,2024.812945
3 Feb 2020 16:57:09.000,184.459,2.741,2019.122725
3 Feb 2020 16:57:10.000,184.339,2.801,2013.440843
3 Feb 2020 16:57:11.000,184.219,2.860,2007.767376
3 Feb 2020 16:57:12.000,184.098,2.919,2002.102403
3 Feb 2020 16:57:13.000,183.976,2.979,1996.446004
3 Feb 2020 16:57:14.000,183.853,3.038,1990.798259
3 Feb 2020 16:57:15.000,183.730,3.098,1985.159248
3 Feb 2020 16:57:16.000,183.606,3.158,1979.529054
3 Feb 2020 16:57:17.000,183.481,3.218,1973.907759
3 Feb 2020 16:57:18.000,183.356,3.278,1968.295447
3 Feb 2020 16:57:19.000,183.230,3.338,1962.692202
3 Feb 2020 16:57:20.000,183.103,3.398,1957.098109
3 Feb 2020 16:57:21.000,182.975,3.459,1951.513253
3 Feb 2020 16:57:22.000,182.847,3.519,1945.937721
3 Feb 2020 16:57:23.000,182.718,3.580,1940.371602
3 Feb 2020 16:57:24.000,182.588,3.641,1934.814982
3 Feb 2020 16:57:25.000,182.457,3.701,1929.267952
3 Feb 2020 16:57:26.000,182.325,3.762,1923.730601
3 Feb 2020 16:57:27.000,182.193,3.823,1918.203020
3 Feb 2020 16:57:28.000,182.060,3.884,1912.685302
3 Feb 2020 16:57:29.000,181.926,3.946,1907.177537
3 Feb 2020 16:57:30.000,181.791,4.007,1901.679821
3 Feb 2020 16:57:31.000,181.656,4.068,1896.192247
3 Feb 2020 16:57:32.000,181.519,4.130,1890.714911
3 Feb 2020 16:57:33.000,181.382,4.191,1885.247909
3 Feb 2020 16:57:34.000,181.244,4.253,1879.791338
3 Feb 2020 16:57:35.000,181.105,4.315,1874.345296
3 Feb 2020 16:57:36.000,180.966,4.377,1868.909883
3 Feb 2020 16:57:37.000,180.825,4.439,1863.485198
3 Feb 2020 16:57:38.000,180.684,4.501,1858.071341
3 Feb 2020 16:57:39.000,180.542,4.563,1852.668416
3 Feb 2020 16:57:40.000,180.399,4.626,1847.276524
3 Feb 2020 16:57:41.000,180.255,4.688,1841.895770
3 Feb 2020 16:57:42.000,180.110,4.751,1836.526258
3 Feb 2020 16:57:43.000,179.964,4.813,1831.168094
3 Feb 2020 16:57:44.000,179.818,4.876,1825.821384
3 Feb 2020 16:57:45.000,179.670,4.939,1820.486238
3 Feb 2020 16:57:46.000,179.522,5.002,1815.162762
3 Feb 2020 16:57:47.000,179.372,5.065,1809.851068
3 Feb 2020 16:57:48.000,179.222,5.128,1804.551266
3 Feb 2020 16:57:49.000,179.071,5.191,1799.263468
3 Feb 2020 16:57:50.000,178.919,5.254,1793.987786
3 Feb 2020 16:57:51.000,178.766,5.318,1788.724335
3 Feb 2020 16:57:52.000,178.612,5.381,1783.473230
3 Feb 2020 16:57:53.000,178.457,5.445,1778.234587
3 Feb 2020 16:57:54.000,178.301,5.508,1773.008523
3 Feb 2020 16:57:55.000,178.144,5.572,1767.795156
3 Feb 2020 16:57:56.000,177.986,5.636,1762.594606
3 Feb 2020 16:57:57.000,177.828,5.700,1757.406994
3 Feb 2020 16:57:58.000,177.668,5.764,1752.232440
3 Feb 2020 16:57:59.000,177.507,5.828,1747.071067
3 Feb 2020 16:58:00.000,177.345,5.892,1741.922999
3 Feb 2020 16:58:01.000,177.182,5.956,1736.788362
3 Feb 2020 16:58:02.000,177.019,6.021,1731.667281
3 Feb 2020 16:58:03.000,176.854,6.085,1726.559883
3 Feb 2020 16:58:04.000,176.688,6.150,1721.466297
3 Feb 2020 16:58:05.000,176.521,6.214,1716.386653
3 Feb 2020 16:58:06.000,176.353,6.279,1711.321080
3 Feb 2020 16:58:07.000,176.184,6.343,1706.269711
3 Feb 2020 16:58:08.000,176.014,6.408,1701.232679
3 Feb 2020 16:58:09.000,175.843,6.473,1696.210119
3 Feb 2020 16:58:10.000,175.671,6.538,1691.202164
3 Feb 2020 16:58:11.000,175.498,6.603,1686.208953
3 Feb 2020 16:58:12.000,175.324,6.668,1681.230623
3 Feb 2020 16:58:13.000,175.148,6.733,1676.267313
3 Feb 2020 16:58:14.000,174.972,6.798,1671.319163
3 Feb 2020 16:58:15.000,174.794,6.864,1666.386314
3 Feb 2020 16:58:16.000,174.615,6.929,1661.468910
3 Feb 2020 16:58:17.000,174.436,6.994,1656.567094
3 Feb 2020 16:58:18.000,174.255,7.060,1651.681011
3 Feb 2020 16:58:19.000,174.072,7.125,1646.810808
3 Feb 2020 16:58:20.000,173.889,7.191,1641.956631
3 Feb 2020 16:58:21.000,173.705,7.256,1637.118632
3 Feb 2020 16:58:22.000,173.519,7.322,1632.296958
3 Feb 2020 16:58:23.000,173.333,7.388,1627.491762
3 Feb 2020 16:58:24.000,173.145,7.453,1622.703196
3 Feb 2020 16:58:25.000,172.956,7.519,1617.931414
3 Feb 2020 16:58:26.000,172.765,7.585,1613.176571
3 Feb 2020 16:58:27.000,172.574,7.651,1608.438824
3 Feb 2020 16:58:28.000,172.381,7.717,1603.718330
3 Feb 2020 16:58:29.000,172.188,7.783,1599.015248
3 Feb 2020 16:58:30.000,171.993,7.849,1594.329738
3 Feb 2020 16:58:31.000,171.796,7.914,1589.661963
3 Feb 2020 16:58:32.000,171.599,7.980,1585.012083
3 Feb 2020 16:58:33.000,171.400,8.046,1580.380265
3 Feb 2020 16:58:34.000,171.200,8.112,1575.766673
3 Feb 2020 16:58:35.000,170.999,8.178,1571.171472
3 Feb 2020 16:58:36.000,170.796,8.244,1566.594833
3 Feb 2020 16:58:37.000,170.593,8.310,1562.036922
3 Feb 2020 16:58:38.000,170.388,8.377,1557.497912
3 Feb 2020 16:58:39.000,170.181,8.443,1552.977972
3 Feb 2020 16:58:40.000,169.974,8.509,1548.477278
3 Feb 2020 16:58:41.000,169.765,8.575,1543.996001
3 Feb 2020 16:58:42.000,169.555,8.641,1539.534319
3 Feb 2020 16:58:43.000,169.343,8.707,1535.092407
3 Feb 2020 16:58:44.000,169.131,8.773,1530.670444
3 Feb 2020 16:58:45.000,168.917,8.838,1526.268608
3 Feb 2020 16:58:46.000,168.701,8.904,1521.887081
3 Feb 2020 16:58:47.000,168.484,8.970,1517.526043
3 Feb 2020 16:58:48.000,168.266,9.036,1513.185678
3 Feb 2020 16:58:49.000,168.047,9.102,1508.866170
3 Feb 2020 16:58:50.000,167.826,9.168,1504.567703
3 Feb 2020 16:58:51.000,167.604,9.233,1500.290466
3 Feb 2020 16:58:52.000,167.380,9.299,1496.034645
3 Feb 2020 16:58:53.000,167.156,9.365,1491.800429
3 Feb 2020 16:58:54.000,166.929,9.430,1487.588008
3 Feb 2020 16:58:55.000,166.702,9.496,1483.397573
3 Feb 2020 16:58:56.000,166.473,9.561,1479.229318
3 Feb 2020 16:58:57.000,166.242,9.627,1475.083435
3 Feb 2020 16:58:58.000,166.011,9.692,1470.960119
3 Feb 2020 16:58:59.000,165.778,9.757,1466.859565
3 Feb 2020 16:59:00.000,165.543,9.822,1462.781971
3 Feb 2020 16:59:01.000,165.307,9.887,1458.727535
3 Feb 2020 16:59:02.000,165.070,9.952,1454.696455
3 Feb 2020 16:59:03.000,164.831,10.017,1450.688931
3 Feb 2020 16:59:04.000,164.590,10.081,1446.705166
3 Feb 2020 16:59:05.000,164.349,10.146,1442.745360
3 Feb 2020 16:59:06.000,164.106,10.210,1438.809716
3 Feb 2020 16:59:07.000,163.861,10.274,1434.898441
3 Feb 2020 16:59:08.000,163.615,10.339,1431.011736
3 Feb 2020 16:59:09.000,163.368,10.403,1427.149809
3 Feb 2020 16:59:10.000,163.119,10.466,1423.312867
3 Feb 2020 16:59:11.000,162.868,10.530,1419.501117
3 Feb 2020 16:59:12.000,162.617,10.594,1415.714768
3 Feb 2020 16:59:13.000,162.363,10.657,1411.954029
3 Feb 2020 16:59:14.000,162.109,10.720,1408.219111
3 Feb 2020 16:59:15.000,161.852,10.783,1404.510224
3 Feb 2020 16:59:16.000,161.595,10.846,1400.827580
3 Feb 2020 16:59:17.000,161.336,10.909,1397.171392
3 Feb 2020 16:59:18.000,161.075,10.971,1393.541874
3 Feb 2020 16:59:19.000,160.813,11.033,1389.939237
3 Feb 2020 16:59:20.000,160.549,11.095,1386.363697
3 Feb 2020 16:59:21.000,160.284,11.157,1382.815470
3 Feb 2020 16:59:22.000,160.018,11.219,1379.294769
3 Feb 2020 16:59:23.000,159.750,11.280,1375.801813
3 Feb 2020 16:59:24.000,159.480,11.341,1372.336817
3 Feb 2020 16:59:25.000,159.209,11.402,1368.899998
3 Feb 2020 16:59:26.000,158.937,11.462,1365.491573
3 Feb 2020 16:59:27.000,158.663,11.523,1362.111761
3 Feb 2020 16:59:28.000,158.387,11.583,1358.760779
3 Feb 2020 16:59:29.000,158.110,11.642,1355.438846
3 Feb 2020 16:59:30.000,157.832,11.702,1352.146180
3 Feb 2020 16:59:31.000,157.552,11.761,1348.883000
3 Feb 2020 16:59:32.000,157.270,11.820,1345.649527
3 Feb 2020 16:59:33.000,156.988,11.878,1342.445977
3 Feb 2020 16:59:34.000,156.703,11.936,1339.272571
3 Feb 2020 16:59:35.000,156.417,11.994,1336.129526
3 Feb 2020 16:59:36.000,156.130,12.051,1333.017063
3 Feb 2020 16:59:37.000,155.841,12.108,1329.935401
3 Feb 2020 16:59:38.000,155.551,12.165,1326.884758
3 Feb 2020 16:59:39.000,155.259,12.222,1323.865353
3 Feb 2020 16:59:40.000,154.966,12.278,1320.877405
3 Feb 2020 16:59:41.000,154.672,12.333,1317.921131
3 Feb 2020 16:59:42.000,154.376,12.388,1314.996749
3 Feb 2020 16:59:43.000,154.078,12.443,1312.104476
3 Feb 2020 16:59:44.000,153.779,12.498,1309.244530
3 Feb 2020 16:59:45.000,153.479,12.552,1306.417126
3 Feb 2020 16:59:46.000,153.177,12.605,1303.622480
3 Feb 2020 16:59:47.000,152.874,12.658,1300.860807
3 Feb 2020 16:59:48.000,152.569,12.711,1298.132322
3 Feb 2020 16:59:49.000,152.263,12.763,1295.437236
3 Feb 2020 16:59:50.000,151.955,12.815,1292.775766
3 Feb 2020 16:59:51.000,151.646,12.866,1290.148121
3 Feb 2020 16:59:52.000,151.336,12.917,1287.554512
3 Feb 2020 16:59:53.000,151.025,12.967,1284.995149
3 Feb 2020 16:59:54.000,150.712,13.017,1282.470241
3 Feb 2020 16:59:55.000,150.397,13.066,1279.979994
3 Feb 2020 16:59:56.000,150.081,13.114,1277.524615
3 Feb 2020 16:59:57.000,149.764,13.162,1275.104310
3 Feb 2020 16:59:58.000,149.446,13.210,1272.719282
3 Feb 2020 16:59:59.000,149.126,13.257,1270.369733
3 Feb 2020 17:00:00.000,148.805,13.304,1268.055863
3 Feb 2020 17:00:01.000,148.483,13.349,1265.777870
3 Feb 2020 17:00:02.000,148.159,13.395,1263.535954
3 Feb 2020 17:00:03.000,147.834,13.439,1261.330310
3 Feb 2020 17:00:04.000,147.508,13.483,1259.161131
3 Feb 2020 17:00:05.000,147.181,13.527,1257.028607
3 Feb 2020 17:00:06.000,146.852,13.570,1254.932932
3 Feb 2020 17:00:07.000,146.522,13.612,1252.874293
3 Feb 2020 17:00:08.000,146.191,13.654,1250.852872
3 Feb 2020 17:00:09.000,145.859,13.694,1248.868857
3 Feb 2020 17:00:10.000,145.526,13.735,1246.922429
3 Feb 2020 17:00:11.000,145.191,13.774,1245.013764
3 Feb 2020 17:00:12.000,144.856,13.813,1243.143044
3 Feb 2020 17:00:13.000,144.519,13.851,1241.310439
3 Feb 2020 17:00:14.000,144.181,13.889,1239.516121
3 Feb 2020 17:00:15.000,143.842,13.926,1237.760262
3 Feb 2020 17:00:16.000,143.502,13.962,1236.043025
3 Feb 2020 17:00:17.000,143.161,13.997,1234.364578
3 Feb 2020 17:00:18.000,142.819,14.032,1232.725080
3 Feb 2020 17:00:19.000,142.476,14.066,1231.124687
3 Feb 2020 17:00:20.000,142.132,14.099,1229.563558
3 Feb 2020 17:00:21.000,141.786,14.131,1228.041841
3 Feb 2020 17:00:22.000,141.440,14.163,1226.559690
3 Feb 2020 17:00:23.000,141.093,14.194,1225.117245
3 Feb 2020 17:00:24.000,140.746,14.224,1223.714655
3 Feb 2020 17:00:25.000,140.397,14.253,1222.352054
3 Feb 2020 17:00:26.000,140.047,14.281,1221.029581
3 Feb 2020 17:00:27.000,139.697,14.309,1219.747370
3 Feb 2020 17:00:28.000,139.345,14.336,1218.505546
3 Feb 2020 17:00:29.000,138.993,14.362,1217.304239
3 Feb 2020 17:00:30.000,138.641,14.387,1216.143567
3 Feb 2020 17:00:31.000,138.287,14.412,1215.023653
3 Feb 2020 17:00:32.000,137.933,14.435,1213.944607
3 Feb 2020 17:00:33.000,137.578,14.458,1212.906542
3 Feb 2020 17:00:34.000,137.222,14.480,1211.909567
3 Feb 2020 17:00:35.000,136.866,14.501,1210.953782
3 Feb 2020 17:00:36.000,136.509,14.521,1210.039287
3 Feb 2020 17:00:37.000,136.151,14.540,1209.166178
3 Feb 2020 17:00:38.000,135.793,14.559,1208.334549
3 Feb 2020 17:00:39.000,135.435,14.576,1207.544482
3 Feb 2020 17:00:40.000,135.075,14.593,1206.796063
3 Feb 2020 17:00:41.000,134.716,14.609,1206.089374
3 Feb 2020 17:00:42.000,134.356,14.623,1205.424483
3 Feb 2020 17:00:43.000,133.995,14.637,1204.801465
3 Feb 2020 17:00:44.000,133.634,14.650,1204.220385
3 Feb 2020 17:00:45.000,133.273,14.663,1203.681305
3 Feb 2020 17:00:46.000,132.911,14.674,1203.184286
3 Feb 2020 17:00:47.000,132.549,14.684,1202.729376
3 Feb 2020 17:00:48.000,132.187,14.694,1202.316626
3 Feb 2020 17:00:49.000,131.824,14.702,1201.946081
3 Feb 2020 17:00:50.000,131.462,14.710,1201.617781
3 Feb 2020 17:00:51.000,131.099,14.716,1201.331761
3 Feb 2020 17:00:52.000,130.735,14.722,1201.088053
3 Feb 2020 17:00:53.000,130.372,14.727,1200.886682
3 Feb 2020 17:00:54.000,130.009,14.731,1200.727672
3 Feb 2020 17:00:55.000,129.645,14.734,1200.611040
3 Feb 2020 17:00:56.000,129.281,14.736,1200.536801
3 Feb 2020 17:00:57.000,128.918,14.737,1200.504959
3 Feb 2020 17:00:58.000,128.554,14.737,1200.515520
3 Feb 2020 17:00:59.000,128.190,14.737,1200.568484
3 Feb 2020 17:01:00.000,127.827,14.735,1200.663842
3 Feb 2020 17:01:01.000,127.463,14.733,1200.801592
3 Feb 2020 17:01:02.000,127.100,14.729,1200.981715
3 Feb 2020 17:01:03.000,126.736,14.725,1201.204193
3 Feb 2020 17:01:04.000,126.373,14.719,1201.469003
3 Feb 2020 17:01:05.000,126.010,14.713,1201.776116
3 Feb 2020 17:01:06.000,125.648,14.706,1202.125502
3 Feb 2020 17:01:07.000,125.285,14.698,1202.517123
3 Feb 2020 17:01:08.000,124.923,14.689,1202.950937
3 Feb 2020 17:01:09.000,124.561,14.679,1203.426900
3 Feb 2020 17:01:10.000,124.200,14.668,1203.944958
3 Feb 2020 17:01:11.000,123.838,14.656,1204.505063
3 Feb 2020 17:01:12.000,123.478,14.644,1205.107153
3 Feb 2020 17:01:13.000,123.117,14.630,1205.751165
3 Feb 2020 17:01:14.000,122.757,14.616,1206.437032
3 Feb 2020 17:01:15.000,122.398,14.600,1207.164679
3 Feb 2020 17:01:16.000,122.039,14.584,1207.934036
3 Feb 2020 17:01:17.000,121.681,14.567,1208.745021
3 Feb 2020 17:01:18.000,121.323,14.549,1209.597548
3 Feb 2020 17:01:19.000,120.965,14.530,1210.491527
3 Feb 2020 17:01:20.000,120.609,14.511,1211.426872
3 Feb 2020 17:01:21.000,120.253,14.490,1212.403483
3 Feb 2020 17:01:22.000,119.897,14.469,1213.421257
3 Feb 2020 17:01:23.000,119.543,14.446,1214.480095
3 Feb 2020 17:01:24.000,119.189,14.423,1215.579888
3 Feb 2020 17:01:25.000,118.835,14.399,1216.720519
3 Feb 2020 17:01:26.000,118.483,14.374,1217.901879
3 Feb 2020 17:01:27.000,118.131,14.349,1219.123847
3 Feb 2020 17:01:28.000,117.780,14.322,1220.386295
3 Feb 2020 17:01:29.000,117.430,14.295,1221.689104
3 Feb 2020 17:01:30.000,117.081,14.267,1223.032138
3 Feb 2020 17:01:31.000,116.732,14.238,1224.415269
3 Feb 2020 17:01:32.000,116.385,14.209,1225.838354
3 Feb 2020 17:01:33.000,116.038,14.178,1227.301260
3 Feb 2020 17:01:34.000,115.693,14.147,1228.803836
3 Feb 2020 17:01:35.000,115.348,14.115,1230.345942
3 Feb 2020 17:01:36.000,115.004,14.082,1231.927423
3 Feb 2020 17:01:37.000,114.661,14.049,1233.548131
3 Feb 2020 17:01:38.000,114.320,14.015,1235.207904
3 Feb 2020 17:01:39.000,113.979,13.980,1236.906591
3 Feb 2020 17:01:40.000,113.639,13.944,1238.644023
3 Feb 2020 17:01:41.000,113.301,13.908,1240.420042
3 Feb 2020 17:01:42.000,112.963,13.871,1242.234475
3 Feb 2020 17:01:43.000,112.627,13.833,1244.087155
3 Feb 2020 17:01:44.000,112.292,13.795,1245.977913
3 Feb 2020 17:01:45.000,111.958,13.755,1247.906567
3 Feb 2020 17:01:46.000,111.625,13.716,1249.872945
3 Feb 2020 17:01:47.000,111.293,13.675,1251.876869
3 Feb 2020 17:01:48.000,110.963,13.634,1253.918151
3 Feb 2020 17:01:49.000,110.633,13.592,1255.996610
3 Feb 2020 17:01:50.000,110.305,13.550,1258.112063
3 Feb 2020 17:01:51.000,109.978,13.507,1260.264316
3 Feb 2020 17:01:52.000,109.653,13.463,1262.453181
3 Feb 2020 17:01:53.000,109.329,13.419,1264.678466
3 Feb 2020 17:01:54.000,109.005,13.374,1266.939980
3 Feb 2020 17:01:55.000,108.684,13.329,1269.237521
3 Feb 2020 17:01:56.000,108.363,13.282,1271.570895
3 Feb 2020 17:01:57.000,108.044,13.236,1273.939903
3 Feb 2020 17:01:58.000,107.726,13.189,1276.344346
3 Feb 2020 17:01:59.000,107.410,13.141,1278.784017
3 Feb 2020 17:02:00.000,107.095,13.093,1281.258714
3 Feb 2020 17:02:01.000,106.781,13.044,1283.768234
3 Feb 2020 17:02:02.000,106.468,12.995,1286.312368
3 Feb 2020 17:02:03.000,106.157,12.945,1288.890911
3 Feb 2020 17:02:04.000,105.848,12.895,1291.503656
3 Feb 2020 17:02:05.000,105.539,12.844,1294.150387
3 Feb 2020 17:02:06.000,105.233,12.793,1296.830897
3 Feb 2020 17:02:07.000,104.927,12.741,1299.544974
3 Feb 2020 17:02:08.000,104.623,12.689,1302.292405
3 Feb 2020 17:02:09.000,104.320,12.636,1305.072977
3 Feb 2020 17:02:10.000,104.019,12.583,1307.886476
3 Feb 2020 17:02:11.000,103.719,12.529,1310.732686
3 Feb 2020 17:02:12.000,103.421,12.475,1313.611393
3 Feb 2020 17:02:13.000,103.124,12.421,1316.522379
3 Feb 2020 17:02:14.000,102.829,12.366,1319.465429
3 Feb 2020 17:02:15.000,102.535,12.311,1322.440325
3 Feb 2020 17:02:16.000,102.242,12.255,1325.446850
3 Feb 2020 17:02:17.000,101.951,12.199,1328.484786
3 Feb 2020 17:02:18.000,101.662,12.143,1331.553914
3 Feb 2020 17:02:19.000,101.374,12.086,1334.654017
3 Feb 2020 17:02:20.000,101.087,12.029,1337.784875
3 Feb 2020 17:02:21.000,100.802,11.972,1340.946271
3 Feb 2020 17:02:22.000,100.518,11.914,1344.137985
3 Feb 2020 17:02:23.000,100.236,11.856,1347.359798
3 Feb 2020 17:02:24.000,99.956,11.798,1350.611492
3 Feb 2020 17:02:25.000,99.676,11.739,1353.892847
3 Feb 2020 17:02:26.000,99.399,11.680,1357.203647
3 Feb 2020 17:02:27.000,99.122,11.621,1360.543671
3 Feb 2020 17:02:28.000,98.848,11.561,1363.912701
3 Feb 2020 17:02:29.000,98.575,11.501,1367.310517
3 Feb 2020 17:02:30.000,98.303,11.441,1370.736907
3 Feb 2020 17:02:31.000,98.033,11.381,1374.191651
3 Feb 2020 17:02:32.000,97.764,11.320,1377.674531
3 Feb 2020 17:02:33.000,97.496,11.259,1381.185331
3 Feb 2020 17:02:34.000,97.231,11.198,1384.723836
3 Feb 2020 17:02:35.000,96.966,11.137,1388.289825
3 Feb 2020 17:02:36.000,96.704,11.075,1391.883090
3 Feb 2020 17:02:37.000,96.442,11.013,1395.503415
3 Feb 2020 17:02:38.000,96.182,10.951,1399.150584
3 Feb 2020 17:02:39.000,95.924,10.889,1402.824385
3 Feb 2020 17:02:40.000,95.667,10.826,1406.524600
3 Feb 2020 17:02:41.000,95.412,10.764,1410.251027
3 Feb 2020 17:02:42.000,95.158,10.701,1414.003448
3 Feb 2020 17:02:43.000,94.905,10.638,1417.781655
3 Feb 2020 17:02:44.000,94.654,10.575,1421.585434
3 Feb 2020 17:02:45.000,94.405,10.512,1425.414583
3 Feb 2020 17:02:46.000,94.156,10.448,1429.268891
3 Feb 2020 17:02:47.000,93.910,10.384,1433.148150
3 Feb 2020 17:02:48.000,93.665,10.321,1437.052151
3 Feb 2020 17:02:49.000,93.421,10.257,1440.980695
3 Feb 2020 17:02:50.000,93.179,10.193,1444.933575
3 Feb 2020 17:02:51.000,92.938,10.129,1448.910583
3 Feb 2020 17:02:52.000,92.698,10.064,1452.911524
3 Feb 2020 17:02:53.000,92.460,10.000,1456.936192
3 Feb 2020 17:02:54.000,92.224,9.935,1460.984385
3 Feb 2020 17:02:55.000,91.988,9.871,1465.055909
3 Feb 2020 17:02:56.000,91.755,9.806,1469.150562
3 Feb 2020 17:02:57.000,91.522,9.741,1473.268144
3 Feb 2020 17:02:58.000,91.291,9.676,1477.408466
3 Feb 2020 17:02:59.000,91.062,9.611,1481.571325
3 Feb 2020 17:03:00.000,90.834,9.546,1485.756534
3 Feb 2020 17:03:01.000,90.607,9.481,1489.963898
3 Feb 2020 17:03:02.000,90.381,9.416,1494.193219
3 Feb 2020 17:03:03.000,90.157,9.350,1498.444316
3 Feb 2020 17:03:04.000,89.935,9.285,1502.716991
3 Feb 2020 17:03:05.000,89.714,9.220,1507.011064
3 Feb 2020 17:03:06.000,89.494,9.154,1511.326343
3 Feb 2020 17:03:07.000,89.275,9.089,1515.662639
3 Feb 2020 17:03:08.000,89.058,9.023,1520.019775
3 Feb 2020 17:03:09.000,88.842,8.958,1524.397561
3 Feb 2020 17:03:10.000,88.627,8.892,1528.795820
3 Feb 2020 17:03:11.000,88.414,8.826,1533.214364
3 Feb 2020 17:03:12.000,88.202,8.761,1537.653022
3 Feb 2020 17:03:13.000,87.992,8.695,1542.111608
3 Feb 2020 17:03:14.000,87.782,8.629,1546.589950
3 Feb 2020 17:03:15.000,87.574,8.564,1551.087867
3 Feb 2020 17:03:16.000,87.368,8.498,1555.605190
3 Feb 2020 17:03:17.000,87.162,8.432,1560.141738
3 Feb 2020 17:03:18.000,86.958,8.367,1564.697347
3 Feb 2020 17:03:19.000,86.755,8.301,1569.271839
3 Feb 2020 17:03:20.000,86.554,8.235,1573.865050
3 Feb 2020 17:03:21.000,86.353,8.169,1578.476805
3 Feb 2020 17:03:22.000,86.154,8.104,1583.106944
3 Feb 2020 17:03:23.000,85.956,8.038,1587.755294
3 Feb 2020 17:03:24.000,85.760,7.972,1592.421697
3 Feb 2020 17:03:25.000,85.564,7.907,1597.105983
3 Feb 2020 17:03:26.000,85.370,7.841,1601.807994
3 Feb 2020 17:03:27.000,85.177,7.775,1606.527571
3 Feb 2020 17:03:28.000,84.986,7.710,1611.264548
3 Feb 2020 17:03:29.000,84.795,7.644,1616.018775
3 Feb 2020 17:03:30.000,84.606,7.579,1620.790086
3 Feb 2020 17:03:31.000,84.418,7.513,1625.578333
3 Feb 2020 17:03:32.000,84.231,7.448,1630.383355
3 Feb 2020 17:03:33.000,84.045,7.382,1635.205001
3 Feb 2020 17:03:34.000,83.860,7.317,1640.043124
3 Feb 2020 17:03:35.000,83.677,7.252,1644.897564
3 Feb 2020 17:03:36.000,83.494,7.187,1649.768177
3 Feb 2020 17:03:37.000,83.313,7.121,1654.654818
3 Feb 2020 17:03:38.000,83.133,7.056,1659.557333
3 Feb 2020 17:03:39.000,82.954,6.991,1664.475582
3 Feb 2020 17:03:40.000,82.776,6.926,1669.409414
3 Feb 2020 17:03:41.000,82.600,6.861,1674.358689
3 Feb 2020 17:03:42.000,82.424,6.796,1679.323270
3 Feb 2020 17:03:43.000,82.250,6.731,1684.303007
3 Feb 2020 17:03:44.000,82.076,6.666,1689.297765
3 Feb 2020 17:03:45.000,81.904,6.602,1694.307409
3 Feb 2020 17:03:46.000,81.733,6.537,1699.331794
3 Feb 2020 17:03:47.000,81.563,6.472,1704.370788
3 Feb 2020 17:03:48.000,81.394,6.408,1709.424259
3 Feb 2020 17:03:49.000,81.226,6.343,1714.492068
3 Feb 2020 17:03:50.000,81.059,6.279,1719.574084
3 Feb 2020 17:03:51.000,80.893,6.214,1724.670180
3 Feb 2020 17:03:52.000,80.728,6.150,1729.780220
3 Feb 2020 17:03:53.000,80.564,6.086,1734.904076
3 Feb 2020 17:03:54.000,80.401,6.022,1740.041622
3 Feb 2020 17:03:55.000,80.239,5.958,1745.192734
3 Feb 2020 17:03:56.000,80.078,5.894,1750.357280
3 Feb 2020 17:03:57.000,79.919,5.830,1755.535139
3 Feb 2020 17:03:58.000,79.760,5.766,1760.726191
3 Feb 2020 17:03:59.000,79.602,5.703,1765.930307
3 Feb 2020 17:04:00.000,79.445,5.639,1771.147369
3 Feb 2020 17:04:01.000,79.289,5.575,1776.377257
3 Feb 2020 17:04:02.000,79.134,5.512,1781.619856
3 Feb 2020 17:04:03.000,78.980,5.449,1786.875042
3 Feb 2020 17:04:04.000,78.827,5.385,1792.142700
3 Feb 2020 17:04:05.000,78.675,5.322,1797.422715
3 Feb 2020 17:04:06.000,78.524,5.259,1802.714977
3 Feb 2020 17:04:07.000,78.374,5.196,1808.019364
3 Feb 2020 17:04:08.000,78.225,5.133,1813.335768
3 Feb 2020 17:04:09.000,78.076,5.070,1818.664078
3 Feb 2020 17:04:10.000,77.929,5.008,1824.004182
3 Feb 2020 17:04:11.000,77.782,4.945,1829.355975
3 Feb 2020 17:04:12.000,77.637,4.882,1834.719342
3 Feb 2020 17:04:13.000,77.492,4.820,1840.094179
3 Feb 2020 17:04:14.000,77.348,4.758,1845.480380
3 Feb 2020 17:04:15.000,77.205,4.695,1850.877839
3 Feb 2020 17:04:16.000,77.063,4.633,1856.286455
3 Feb 2020 17:04:17.000,76.922,4.571,1861.706118
3 Feb 2020 17:04:18.000,76.782,4.509,1867.136730
3 Feb 2020 17:04:19.000,76.642,4.448,1872.578188
3 Feb 2020 17:04:20.000,76.503,4.386,1878.030392
3 Feb 2020 17:04:21.000,76.366,4.324,1883.493247
3 Feb 2020 17:04:22.000,76.229,4.263,1888.966646
3 Feb 2020 17:04:23.000,76.093,4.201,1894.450496
3 Feb 2020 17:04:24.000,75.957,4.140,1899.944699
3 Feb 2020 17:04:25.000,75.823,4.079,1905.449160
3 Feb 2020 17:04:26.000,75.689,4.017,1910.963785
3 Feb 2020 17:04:27.000,75.556,3.956,1916.488481
3 Feb 2020 17:04:28.000,75.424,3.895,1922.023150
3 Feb 2020 17:04:29.000,75.293,3.835,1927.567703
3 Feb 2020 17:04:30.000,75.162,3.774,1933.122047
3 Feb 2020 17:04:31.000,75.033,3.713,1938.686094
3 Feb 2020 17:04:32.000,74.904,3.653,1944.259752
3 Feb 2020 17:04:33.000,74.775,3.592,1949.842937
3 Feb 2020 17:04:34.000,74.648,3.532,1955.435554
3 Feb 2020 17:04:35.000,74.521,3.472,1961.037519
3 Feb 2020 17:04:36.000,74.396,3.412,1966.648746
3 Feb 2020 17:04:37.000,74.270,3.352,1972.269150
3 Feb 2020 17:04:38.000,74.146,3.292,1977.898645
3 Feb 2020 17:04:39.000,74.022,3.232,1983.537148
3 Feb 2020 17:04:40.000,73.899,3.172,1989.184576
3 Feb 2020 17:04:41.000,73.777,3.113,1994.840850
3 Feb 2020 17:04:42.000,73.656,3.053,2000.505881
3 Feb 2020 17:04:43.000,73.535,2.994,2006.179593
3 Feb 2020 17:04:44.000,73.415,2.934,2011.861906
3 Feb 2020 17:04:45.000,73.296,2.875,2017.552740
3 Feb 2020 17:04:46.000,73.177,2.816,2023.252016
3 Feb 2020 17:04:47.000,73.059,2.757,2028.959658
3 Feb 2020 17:04:48.000,72.942,2.698,2034.675588
3 Feb 2020 17:04:49.000,72.825,2.640,2040.399730
3 Feb 2020 17:04:50.000,72.709,2.581,2046.132009
3 Feb 2020 17:04:51.000,72.594,2.522,2051.872353
3 Feb 2020 17:04:52.000,72.480,2.464,2057.620681
3 Feb 2020 17:04:53.000,72.366,2.406,2063.376923
3 Feb 2020 17:04:54.000,72.252,2.347,2069.141008
3 Feb 2020 17:04:55.000,72.140,2.289,2074.912862
3 Feb 2020 17:04:56.000,72.028,2.231,2080.692414
3 Feb 2020 17:04:57.000,71.917,2.173,2086.479594
3 Feb 2020 17:04:58.000,71.806,2.115,2092.274332
3 Feb 2020 17:04:59.000,71.696,2.058,2098.076559
3 Feb 2020 17:05:00.000,71.587,2.000,2103.886206
3 Feb 2020 17:05:01.000,71.478,1.943,2109.703205
3 Feb 2020 17:05:02.000,71.370,1.885,2115.527488
3 Feb 2020 17:05:03.000,71.262,1.828,2121.358990
3 Feb 2020 17:05:04.000,71.155,1.771,2127.197643
3 Feb 2020 17:05:05.000,71.049,1.714,2133.043383
3 Feb 2020 17:05:06.000,70.944,1.657,2138.896145
3 Feb 2020 17:05:07.000,70.838,1.600,2144.755867
3 Feb 2020 17:05:08.000,70.734,1.543,2150.622480
3 Feb 2020 17:05:09.000,70.630,1.486,2156.495924
3 Feb 2020 17:05:10.000,70.527,1.429,2162.376136
3 Feb 2020 17:05:11.000,70.424,1.373,2168.263054
3 Feb 2020 17:05:12.000,70.322,1.317,2174.156618
3 Feb 2020 17:05:13.000,70.220,1.260,2180.056766
3 Feb 2020 17:05:14.000,70.119,1.204,2185.963439
3 Feb 2020 17:05:15.000,70.019,1.148,2191.876577
3 Feb 2020 17:05:16.000,69.919,1.092,2197.796121
3 Feb 2020 17:05:17.000,69.820,1.036,2203.722012
3 Feb 2020 17:05:18.000,69.721,0.980,2209.654193
3 Feb 2020 17:05:19.000,69.623,0.925,2215.592606
3 Feb 2020 17:05:20.000,69.525,0.869,2221.537195
3 Feb 2020 17:05:21.000,69.428,0.813,2227.487903
3 Feb 2020 17:05:22.000,69.331,0.758,2233.444674
3 Feb 2020 17:05:23.000,69.235,0.703,2239.407453
3 Feb 2020 17:05:24.000,69.140,0.647,2245.376186
3 Feb 2020 17:05:25.000,69.045,0.592,2251.350817
3 Feb 2020 17:05:26.000,68.950,0.537,2257.331294
3 Feb 2020 17:05:27.000,68.856,0.482,2263.317563
3 Feb 2020 17:05:28.000,68.763,0.428,2269.309572
3 Feb 2020 17:05:29.000,68.670,0.373,2275.307268
3 Feb 2020 17:05:30.000,68.577,0.318,2281.310599
3 Feb 2020 17:05:31.000,68.485,0.264,2287.319514
3 Feb 2020 17:05:32.000,68.394,0.209,2293.333962
3 Feb 2020 17:05:33.000,68.303,0.155,2299.353893
3 Feb 2020 17:05:34.000,68.213,0.100,2305.379257
3 Feb 2020 17:05:35.000,68.123,0.046,2311.410004
3 Feb 2020 17:05:36.000,68.033,-0.008,2317.446086
3 Feb 2020 17:05:36.881,67.955,-0.055,2322.769084
3 Feb 2020 18:31:48.938,241.440,-0.056,2314.709970
3 Feb 2020 18:31:49.000,241.442,-0.052,2314.285974
3 Feb 2020 18:31:50.000,241.473,0.010,2307.464428
3 Feb 2020 18:31:51.000,241.506,0.071,2300.643450
3 Feb 2020 18:31:52.000,241.538,0.133,2293.823060
3 Feb 2020 18:31:53.000,241.570,0.195,2287.003268
3 Feb 2020 18:31:54.000,241.603,0.257,2280.184087
3 Feb 2020 18:31:55.000,241.636,0.319,2273.365527
3 Feb 2020 18:31:56.000,241.668,0.382,2266.547608
3 Feb 2020 18:31:57.000,241.702,0.445,2259.730342
3 Feb 2020 18:31:58.000,241.735,0.507,2252.913741
3 Feb 2020 18:31:59.000,241.769,0.570,2246.097816
3 Feb 2020 18:32:00.000,241.802,0.634,2239.282589
3 Feb 2020 18:32:01.000,241.836,0.697,2232.468070
3 Feb 2020 18:32:02.000,241.870,0.761,2225.654270
3 Feb 2020 18:32:03.000,241.905,0.825,2218.841210
3 Feb 2020 18:32:04.000,241.939,0.889,2212.028903
3 Feb 2020 18:32:05.000,241.974,0.953,2205.217362
3 Feb 2020 18:32:06.000,242.009,1.017,2198.406600
3 Feb 2020 18:32:07.000,242.044,1.082,2191.596638
3 Feb 2020 18:32:08.000,242.079,1.147,2184.787488
3 Feb 2020 18:32:09.000,242.115,1.212,2177.979167
3 Feb 2020 18:32:10.000,242.151,1.277,2171.171685
3 Feb 2020 18:32:11.000,242.186,1.342,2164.365067
3 Feb 2020 18:32:12.000,242.223,1.408,2157.559325
3 Feb 2020 18:32:13.000,242.259,1.474,2150.754470
3 Feb 2020 18:32:14.000,242.296,1.540,2143.950528
3 Feb 2020 18:32:15.000,242.333,1.607,2137.147510
3 Feb 2020 18:32:16.000,242.370,1.673,2130.345434
3 Feb 2020 18:32:17.000,242.407,1.740,2123.544313
3 Feb 2020 18:32:18.000,242.444,1.807,2116.744172
3 Feb 2020 18:32:19.000,242.482,1.874,2109.945023
3 Feb 2020 18:32:20.000,242.520,1.942,2103.146885
3 Feb 2020 18:32:21.000,242.558,2.009,2096.349772
3 Feb 2020 18:32:22.000,242.597,2.077,2089.553708
3 Feb 2020 18:32:23.000,242.636,2.145,2082.758709
3 Feb 2020 18:32:24.000,242.675,2.214,2075.964789
3 Feb 2020 18:32:25.000,242.714,2.282,2069.171974
3 Feb 2020 18:32:26.000,242.753,2.351,2062.380279
3 Feb 2020 18:32:27.000,242.793,2.420,2055.589723
3 Feb 2020 18:32:28.000,242.833,2.490,2048.800323
3 Feb 2020 18:32:29.000,242.873,2.559,2042.012103
3 Feb 2020 18:32:30.000,242.914,2.629,2035.225080
3 Feb 2020 18:32:31.000,242.954,2.699,2028.439275
3 Feb 2020 18:32:32.000,242.995,2.770,2021.654704
3 Feb 2020 18:32:33.000,243.037,2.840,2014.871395
3 Feb 2020 18:32:34.000,243.078,2.911,2008.089363
3 Feb 2020 18:32:35.000,243.120,2.982,2001.308631
3 Feb 2020 18:32:36.000,243.162,3.054,1994.529216
3 Feb 2020 18:32:37.000,243.204,3.126,1987.751147
3 Feb 2020 18:32:38.000,243.247,3.198,1980.974440
3 Feb 2020 18:32:39.000,243.290,3.270,1974.199119
3 Feb 2020 18:32:40.000,243.333,3.342,1967.425203
3 Feb 2020 18:32:41.000,243.377,3.415,1960.652720
3 Feb 2020 18:32:42.000,243.420,3.488,1953.881689
3 Feb 2020 18:32:43.000,243.464,3.562,1947.112134
3 Feb 2020 18:32:44.000,243.509,3.635,1940.344075
3 Feb 2020 18:32:45.000,243.554,3.709,1933.577542
3 Feb 2020 18:32:46.000,243.599,3.784,1926.812556
3 Feb 2020 18:32:47.000,243.644,3.858,1920.049136
3 Feb 2020 18:32:48.000,243.689,3.933,1913.287316
3 Feb 2020 18:32:49.000,243.735,4.008,1906.527115
3 Feb 2020 18:32:50.000,243.782,4.084,1899.768560
3 Feb 2020 18:32:51.000,243.828,4.159,1893.011672
3 Feb 2020 18:32:52.000,243.875,4.236,1886.256484
3 Feb 2020 18:32:53.000,243.922,4.312,1879.503018
3 Feb 2020 18:32:54.000,243.970,4.389,1872.751301
3 Feb 2020 18:32:55.000,244.018,4.466,1866.001357
3 Feb 2020 18:32:56.000,244.066,4.543,1859.253219
3 Feb 2020 18:32:57.000,244.115,4.621,1852.506911
3 Feb 2020 18:32:58.000,244.164,4.699,1845.762462
3 Feb 2020 18:32:59.000,244.213,4.777,1839.019897
3 Feb 2020 18:33:00.000,244.263,4.856,1832.279250
3 Feb 2020 18:33:01.000,244.313,4.935,1825.540547
3 Feb 2020 18:33:02.000,244.363,5.014,1818.803818
3 Feb 2020 18:33:03.000,244.414,5.094,1812.069089
3 Feb 2020 18:33:04.000,244.465,5.174,1805.336398
3 Feb 2020 18:33:05.000,244.517,5.255,1798.605770
3 Feb 2020 18:33:06.000,244.568,5.336,1791.877238
3 Feb 2020 18:33:07.000,244.621,5.417,1785.150830
3 Feb 2020 18:33:08.000,244.673,5.498,1778.426584
3 Feb 2020 18:33:09.000,244.727,5.580,1771.704530
3 Feb 2020 18:33:10.000,244.780,5.663,1764.984699
3 Feb 2020 18:33:11.000,244.834,5.745,1758.267125
3 Feb 2020 18:33:12.000,244.888,5.828,1751.551840
3 Feb 2020 18:33:13.000,244.943,5.912,1744.838883
3 Feb 2020 18:33:14.000,244.998,5.996,1738.128286
3 Feb 2020 18:33:15.000,245.054,6.080,1731.420084
3 Feb 2020 18:33:16.000,245.110,6.165,1724.714309
3 Feb 2020 18:33:17.000,245.166,6.250,1718.011006
3 Feb 2020 18:33:18.000,245.223,6.335,1711.310206
3 Feb 2020 18:33:19.000,245.280,6.421,1704.611947
3 Feb 2020 18:33:20.000,245.338,6.507,1697.916264
3 Feb 2020 18:33:21.000,245.396,6.594,1691.223201
3 Feb 2020 18:33:22.000,245.455,6.681,1684.532795
3 Feb 2020 18:33:23.000,245.514,6.769,1677.845084
3 Feb 2020 18:33:24.000,245.574,6.857,1671.160106
3 Feb 2020 18:33:25.000,245.634,6.945,1664.477908
3 Feb 2020 18:33:26.000,245.695,7.034,1657.798527
3 Feb 2020 18:33:27.000,245.756,7.124,1651.122007
3 Feb 2020 18:33:28.000,245.817,7.214,1644.448389
3 Feb 2020 18:33:29.000,245.880,7.304,1637.777712
3 Feb 2020 18:33:30.000,245.942,7.395,1631.110029
3 Feb 2020 18:33:31.000,246.005,7.486,1624.445379
3 Feb 2020 18:33:32.000,246.069,7.578,1617.783808
3 Feb 2020 18:33:33.000,246.133,7.670,1611.125359
3 Feb 2020 18:33:34.000,246.198,7.763,1604.470085
3 Feb 2020 18:33:35.000,246.264,7.856,1597.818029
3 Feb 2020 18:33:36.000,246.329,7.950,1591.169240
3 Feb 2020 18:33:37.000,246.396,8.044,1584.523767
3 Feb 2020 18:33:38.000,246.463,8.139,1577.881655
3 Feb 2020 18:33:39.000,246.530,8.234,1571.242963
3 Feb 2020 18:33:40.000,246.599,8.330,1564.607737
3 Feb 2020 18:33:41.000,246.667,8.426,1557.976030
3 Feb 2020 18:33:42.000,246.737,8.523,1551.347890
3 Feb 2020 18:33:43.000,246.807,8.620,1544.723379
3 Feb 2020 18:33:44.000,246.877,8.718,1538.102547
3 Feb 2020 18:33:45.000,246.949,8.817,1531.485450
3 Feb 2020 18:33:46.000,247.021,8.916,1524.872145
3 Feb 2020 18:33:47.000,247.093,9.015,1518.262683
3 Feb 2020 18:33:48.000,247.166,9.115,1511.657132
3 Feb 2020 18:33:49.000,247.240,9.216,1505.055546
3 Feb 2020 18:33:50.000,247.315,9.318,1498.457985
3 Feb 2020 18:33:51.000,247.390,9.420,1491.864510
3 Feb 2020 18:33:52.000,247.466,9.522,1485.275180
3 Feb 2020 18:33:53.000,247.542,9.625,1478.690065
3 Feb 2020 18:33:54.000,247.620,9.729,1472.109226
3 Feb 2020 18:33:55.000,247.698,9.834,1465.532727
3 Feb 2020 18:33:56.000,247.776,9.939,1458.960634
3 Feb 2020 18:33:57.000,247.856,10.044,1452.393013
3 Feb 2020 18:33:58.000,247.936,10.151,1445.829938
3 Feb 2020 18:33:59.000,248.017,10.258,1439.271475
3 Feb 2020 18:34:00.000,248.099,10.366,1432.717696
3 Feb 2020 18:34:01.000,248.181,10.474,1426.168672
3 Feb 2020 18:34:02.000,248.265,10.583,1419.624476
3 Feb 2020 18:34:03.000,248.349,10.693,1413.085181
3 Feb 2020 18:34:04.000,248.434,10.803,1406.550869
3 Feb 2020 18:34:05.000,248.520,10.914,1400.021612
3 Feb 2020 18:34:06.000,248.606,11.026,1393.497491
3 Feb 2020 18:34:07.000,248.694,11.139,1386.978585
3 Feb 2020 18:34:08.000,248.782,11.252,1380.464972
3 Feb 2020 18:34:09.000,248.872,11.366,1373.956741
3 Feb 2020 18:34:10.000,248.962,11.481,1367.453974
3 Feb 2020 18:34:11.000,249.053,11.596,1360.956756
3 Feb 2020 18:34:12.000,249.145,11.713,1354.465175
3 Feb 2020 18:34:13.000,249.238,11.830,1347.979319
3 Feb 2020 18:34:14.000,249.332,11.948,1341.499275
3 Feb 2020 18:34:15.000,249.427,12.066,1335.025143
3 Feb 2020 18:34:16.000,249.523,12.186,1328.557012
3 Feb 2020 18:34:17.000,249.620,12.306,1322.094979
3 Feb 2020 18:34:18.000,249.717,12.427,1315.639140
3 Feb 2020 18:34:19.000,249.816,12.549,1309.189595
3 Feb 2020 18:34:20.000,249.916,12.672,1302.746444
3 Feb 2020 18:34:21.000,250.017,12.796,1296.309787
3 Feb 2020 18:34:22.000,250.119,12.921,1289.879735
3 Feb 2020 18:34:23.000,250.223,13.046,1283.456391
3 Feb 2020 18:34:24.000,250.327,13.172,1277.039865
3 Feb 2020 18:34:25.000,250.433,13.300,1270.630265
3 Feb 2020 18:34:26.000,250.539,13.428,1264.227706
3 Feb 2020 18:34:27.000,250.647,13.557,1257.832302
3 Feb 2020 18:34:28.000,250.756,13.687,1251.444167
3 Feb 2020 18:34:29.000,250.866,13.818,1245.063426
3 Feb 2020 18:34:30.000,250.978,13.950,1238.690198
3 Feb 2020 18:34:31.000,251.090,14.083,1232.324606
3 Feb 2020 18:34:32.000,251.204,14.217,1225.966778
3 Feb 2020 18:34:33.000,251.320,14.352,1219.616840
3 Feb 2020 18:34:34.000,251.436,14.488,1213.274926
3 Feb 2020 18:34:35.000,251.554,14.625,1206.941167
3 Feb 2020 18:34:36.000,251.673,14.763,1200.615698
3 Feb 2020 18:34:37.000,251.794,14.902,1194.298664
3 Feb 2020 18:34:38.000,251.916,15.042,1187.990204
3 Feb 2020 18:34:39.000,252.040,15.183,1181.690461
3 Feb 2020 18:34:40.000,252.165,15.325,1175.399583
3 Feb 2020 18:34:41.000,252.291,15.469,1169.117720
3 Feb 2020 18:34:42.000,252.419,15.613,1162.845027
3 Feb 2020 18:34:43.000,252.549,15.759,1156.581658
3 Feb 2020 18:34:44.000,252.680,15.906,1150.327774
3 Feb 2020 18:34:45.000,252.813,16.054,1144.083536
3 Feb 2020 18:34:46.000,252.947,16.203,1137.849109
3 Feb 2020 18:34:47.000,253.083,16.353,1131.624667
3 Feb 2020 18:34:48.000,253.221,16.505,1125.410380
3 Feb 2020 18:34:49.000,253.360,16.658,1119.206424
3 Feb 2020 18:34:50.000,253.501,16.812,1113.012979
3 Feb 2020 18:34:51.000,253.644,16.967,1106.830229
3 Feb 2020 18:34:52.000,253.789,17.124,1100.658360
3 Feb 2020 18:34:53.000,253.936,17.281,1094.497564
3 Feb 2020 18:34:54.000,254.084,17.441,1088.348036
3 Feb 2020 18:34:55.000,254.234,17.601,1082.209974
3 Feb 2020 18:34:56.000,254.387,17.763,1076.083583
3 Feb 2020 18:34:57.000,254.541,17.926,1069.969070
3 Feb 2020 18:34:58.000,254.698,18.091,1063.866645
3 Feb 2020 18:34:59.000,254.856,18.257,1057.776526
3 Feb 2020 18:35:00.000,255.017,18.424,1051.698932
3 Feb 2020 18:35:01.000,255.179,18.593,1045.634090
3 Feb 2020 18:35:02.000,255.344,18.763,1039.582229
3 Feb 2020 18:35:03.000,255.511,18.934,1033.543584
3 Feb 2020 18:35:04.000,255.681,19.108,1027.518396
3 Feb 2020 18:35:05.000,255.852,19.282,1021.506908
3 Feb 2020 18:35:06.000,256.026,19.458,1015.509371
3 Feb 2020 18:35:07.000,256.203,19.636,1009.526040
3 Feb 2020 18:35:08.000,256.382,19.815,1003.557177
3 Feb 2020 18:35:09.000,256.563,19.996,997.603047
3 Feb 2020 18:35:10.000,256.748,20.178,991.663924
3 Feb 2020 18:35:11.000,256.934,20.362,985.740083
3 Feb 2020 18:35:12.000,257.124,20.547,979.831811
3 Feb 2020 18:35:13.000,257.316,20.735,973.939395
3 Feb 2020 18:35:14.000,257.510,20.923,968.063134
3 Feb 2020 18:35:15.000,257.708,21.114,962.203329
3 Feb 2020 18:35:16.000,257.909,21.306,956.360289
3 Feb 2020 18:35:17.000,258.112,21.500,950.534330
3 Feb 2020 18:35:18.000,258.319,21.695,944.725774
3 Feb 2020 18:35:19.000,258.529,21.893,938.934952
3 Feb 2020 18:35:20.000,258.741,22.092,933.162199
3 Feb 2020 18:35:21.000,258.957,22.293,927.407861
3 Feb 2020 18:35:22.000,259.177,22.495,921.672287
3 Feb 2020 18:35:23.000,259.399,22.700,915.955837
3 Feb 2020 18:35:24.000,259.626,22.906,910.258877
3 Feb 2020 18:35:25.000,259.855,23.114,904.581786
3 Feb 2020 18:35:26.000,260.088,23.324,898.924940
3 Feb 2020 18:35:27.000,260.325,23.536,893.288732
3 Feb 2020 18:35:28.000,260.566,23.749,887.673563
3 Feb 2020 18:35:29.000,260.810,23.965,882.079840
3 Feb 2020 18:35:30.000,261.059,24.182,876.507980
3 Feb 2020 18:35:31.000,261.311,24.402,870.958409
3 Feb 2020 18:35:32.000,261.567,24.623,865.431562
3 Feb 2020 18:35:33.000,261.828,24.846,859.927887
3 Feb 2020 18:35:34.000,262.093,25.072,854.447830
3 Feb 2020 18:35:35.000,262.362,25.299,848.991859
3 Feb 2020 18:35:36.000,262.636,25.528,843.560447
3 Feb 2020 18:35:37.000,262.914,25.759,838.154077
3 Feb 2020 18:35:38.000,263.197,25.992,832.773246
3 Feb 2020 18:35:39.000,263.484,26.227,827.418453
3 Feb 2020 18:35:40.000,263.777,26.465,822.090214
3 Feb 2020 18:35:41.000,264.075,26.704,816.789056
3 Feb 2020 18:35:42.000,264.377,26.945,811.515516
3 Feb 2020 18:35:43.000,264.685,27.188,806.270143
3 Feb 2020 18:35:44.000,264.998,27.434,801.053491
3 Feb 2020 18:35:45.000,265.317,27.681,795.866133
3 Feb 2020 18:35:46.000,265.641,27.930,790.708653
3 Feb 2020 18:35:47.000,265.971,28.182,785.581646
3 Feb 2020 18:35:48.000,266.307,28.435,780.485713
3 Feb 2020 18:35:49.000,266.649,28.690,775.421475
3 Feb 2020 18:35:50.000,266.997,28.948,770.389566
3 Feb 2020 18:35:51.000,267.351,29.207,765.390623
3 Feb 2020 18:35:52.000,267.712,29.468,760.425304
3 Feb 2020 18:35:53.000,268.079,29.731,755.494282
3 Feb 2020 18:35:54.000,268.453,29.997,750.598231
3 Feb 2020 18:35:55.000,268.834,30.264,745.737847
3 Feb 2020 18:35:56.000,269.222,30.533,740.913843
3 Feb 2020 18:35:57.000,269.617,30.803,736.126932
3 Feb 2020 18:35:58.000,270.020,31.076,731.377853
3 Feb 2020 18:35:59.000,270.430,31.350,726.667347
3 Feb 2020 18:36:00.000,270.848,31.626,721.996178
3 Feb 2020 18:36:01.000,271.273,31.904,717.365122
3 Feb 2020 18:36:02.000,271.707,32.184,712.774960
3 Feb 2020 18:36:03.000,272.149,32.465,708.226498
3 Feb 2020 18:36:04.000,272.600,32.747,703.720543
3 Feb 2020 18:36:05.000,273.059,33.031,699.257928
3 Feb 2020 18:36:06.000,273.527,33.317,694.839486
3 Feb 2020 18:36:07.000,274.004,33.603,690.466077
3 Feb 2020 18:36:08.000,274.490,33.891,686.138561
3 Feb 2020 18:36:09.000,274.986,34.181,681.857821
3 Feb 2020 18:36:10.000,275.491,34.471,677.624746
3 Feb 2020 18:36:11.000,276.006,34.762,673.440236
3 Feb 2020 18:36:12.000,276.531,35.054,669.305212
3 Feb 2020 18:36:13.000,277.067,35.347,665.220596
3 Feb 2020 18:36:14.000,277.613,35.641,661.187332
3 Feb 2020 18:36:15.000,278.169,35.935,657.206367
3 Feb 2020 18:36:16.000,278.737,36.230,653.278657
3 Feb 2020 18:36:17.000,279.315,36.525,649.405180
3 Feb 2020 18:36:18.000,279.905,36.820,645.586913
3 Feb 2020 18:36:19.000,280.507,37.114,641.824845
3 Feb 2020 18:36:20.000,281.120,37.409,638.119971
3 Feb 2020 18:36:21.000,281.745,37.704,634.473302
3 Feb 2020 18:36:22.000,282.382,37.998,630.885849
3 Feb 2020 18:36:23.000,283.032,38.291,627.358631
3 Feb 2020 18:36:24.000,283.694,38.583,623.892673
3 Feb 2020 18:36:25.000,284.369,38.875,620.489003
3 Feb 2020 18:36:26.000,285.057,39.165,617.148661
3 Feb 2020 18:36:27.000,285.758,39.453,613.872680
3 Feb 2020 18:36:28.000,286.472,39.740,610.662101
3 Feb 2020 18:36:29.000,287.200,40.024,607.517962
3 Feb 2020 18:36:30.000,287.941,40.307,604.441304
3 Feb 2020 18:36:31.000,288.696,40.587,601.433166
3 Feb 2020 18:36:32.000,289.465,40.864,598.494584
3 Feb 2020 18:36:33.000,290.248,41.138,595.626590
3 Feb 2020 18:36:34.000,291.045,41.409,592.830211
3 Feb 2020 18:36:35.000,291.856,41.676,590.106469
3 Feb 2020 18:36:36.000,292.681,41.939,587.456376
3 Feb 2020 18:36:37.000,293.520,42.198,584.880936
3 Feb 2020 18:36:38.000,294.373,42.453,582.381144
3 Feb 2020 18:36:39.000,295.241,42.703,579.957976
3 Feb 2020 18:36:40.000,296.123,42.948,577.612401
3 Feb 2020 18:36:41.000,297.018,43.187,575.345370
3 Feb 2020 18:36:42.000,297.928,43.420,573.157817
3 Feb 2020 18:36:43.000,298.852,43.648,571.050660
3 Feb 2020 18:36:44.000,299.789,43.869,569.024789
3 Feb 2020 18:36:45.000,300.739,44.083,567.081080
3 Feb 2020 18:36:46.000,301.703,44.290,565.220384
3 Feb 2020 18:36:47.000,302.680,44.490,563.443520
3 Feb 2020 18:36:48.000,303.669,44.682,561.751291
3 Feb 2020 18:36:49.000,304.671,44.866,560.144460
3 Feb 2020 18:36:50.000,305.684,45.042,558.623767
3 Feb 2020 18:36:51.000,306.709,45.209,557.189921
3 Feb 2020 18:36:52.000,307.745,45.367,555.843594
3 Feb 2020 18:36:53.000,308.791,45.516,554.585421
3 Feb 2020 18:36:54.000,309.848,45.655,553.416008
3 Feb 2020 18:36:55.000,310.913,45.784,552.335917
3 Feb 2020 18:36:56.000,311.988,45.904,551.345677
3 Feb 2020 18:36:57.000,313.071,46.013,550.445770
3 Feb 2020 18:36:58.000,314.161,46.112,549.636640
3 Feb 2020 18:36:59.000,315.258,46.200,548.918693
3 Feb 2020 18:37:00.000,316.360,46.277,548.292283
3 Feb 2020 18:37:01.000,317.468,46.344,547.757727
3 Feb 2020 18:37:02.000,318.581,46.399,547.315292
3 Feb 2020 18:37:03.000,319.697,46.443,546.965201
3 Feb 2020 18:37:04.000,320.816,46.475,546.707634
3 Feb 2020 18:37:05.000,321.937,46.497,546.542720
3 Feb 2020 18:37:06.000,323.059,46.506,546.470543
3 Feb 2020 18:37:07.000,324.181,46.505,546.491138
3 Feb 2020 18:37:08.000,325.303,46.492,546.604495
3 Feb 2020 18:37:09.000,326.423,46.467,546.810555
3 Feb 2020 18:37:10.000,327.541,46.431,547.109212
3 Feb 2020 18:37:11.000,328.656,46.384,547.500315
3 Feb 2020 18:37:12.000,329.767,46.325,547.983664
3 Feb 2020 18:37:13.000,330.873,46.256,548.559014
3 Feb 2020 18:37:14.000,331.974,46.175,549.226074
3 Feb 2020 18:37:15.000,333.069,46.084,549.984509
3 Feb 2020 18:37:16.000,334.156,45.982,550.833941
3 Feb 2020 18:37:17.000,335.236,45.870,551.773949
3 Feb 2020 18:37:18.000,336.307,45.748,552.804066
3 Feb 2020 18:37:19.000,337.370,45.616,553.923790
3 Feb 2020 18:37:20.000,338.423,45.474,555.132577
3 Feb 2020 18:37:21.000,339.465,45.322,556.429842
3 Feb 2020 18:37:22.000,340.497,45.162,557.814969
3 Feb 2020 18:37:23.000,341.518,44.992,559.287300
3 Feb 2020 18:37:24.000,342.527,44.814,560.846148
3 Feb 2020 18:37:25.000,343.525,44.628,562.490790
3 Feb 2020 18:37:26.000,344.509,44.434,564.220474
3 Feb 2020 18:37:27.000,345.482,44.233,566.034416
3 Feb 2020 18:37:28.000,346.441,44.024,567.931809
3 Feb 2020 18:37:29.000,347.386,43.808,569.911814
3 Feb 2020 18:37:30.000,348.319,43.585,571.973571
3 Feb 2020 18:37:31.000,349.237,43.356,574.116197
3 Feb 2020 18:37:32.000,350.142,43.121,576.338786
3 Feb 2020 18:37:33.000,351.032,42.881,578.640413
3 Feb 2020 18:37:34.000,351.909,42.635,581.020136
3 Feb 2020 18:37:35.000,352.772,42.384,583.476997
3 Feb 2020 18:37:36.000,353.620,42.129,586.010020
3 Feb 2020 18:37:37.000,354.454,41.869,588.618221
3 Feb 2020 18:37:38.000,355.274,41.605,591.300599
3 Feb 2020 18:37:39.000,356.080,41.337,594.056148
3 Feb 2020 18:37:40.000,356.872,41.066,596.883848
3 Feb 2020 18:37:41.000,357.649,40.791,599.782676
3 Feb 2020 18:37:42.000,358.413,40.514,602.751603
3 Feb 2020 18:37:43.000,359.163,40.234,605.789592
3 Feb 2020 18:37:44.000,359.900,39.952,608.895607
3 Feb 2020 18:37:45.000,0.623,39.667,612.068606
3 Feb 2020 18:37:46.000,1.332,39.380,615.307551
3 Feb 2020 18:37:47.000,2.029,39.092,618.611400
3 Feb 2020 18:37:48.000,2.712,38.802,621.979115
3 Feb 2020 18:37:49.000,3.382,38.512,625.409660
3 Feb 2020 18:37:50.000,4.040,38.220,628.902002
3 Feb 2020 18:37:51.000,4.685,37.927,632.455112
3 Feb 2020 18:37:52.000,5.318,37.633,636.067968
3 Feb 2020 18:37:53.000,5.939,37.339,639.739552
3 Feb 2020 18:37:54.000,6.548,37.045,643.468854
3 Feb 2020 18:37:55.000,7.146,36.751,647.254872
3 Feb 2020 18:37:56.000,7.732,36.457,651.096612
3 Feb 2020 18:37:57.000,8.306,36.163,654.993086
3 Feb 2020 18:37:58.000,8.870,35.869,658.943321
3 Feb 2020 18:37:59.000,9.423,35.576,662.946350
3 Feb 2020 18:38:00.000,9.965,35.283,667.001216
3 Feb 2020 18:38:01.000,10.497,34.991,671.106975
3 Feb 2020 18:38:02.000,11.019,34.700,675.262693
3 Feb 2020 18:38:03.000,11.530,34.410,679.467449
3 Feb 2020 18:38:04.000,12.032,34.120,683.720331
3 Feb 2020 18:38:05.000,12.525,33.832,688.020442
3 Feb 2020 18:38:06.000,13.008,33.545,692.366898
3 Feb 2020 18:38:07.000,13.481,33.260,696.758823
3 Feb 2020 18:38:08.000,13.946,32.975,701.195359
3 Feb 2020 18:38:09.000,14.402,32.693,705.675658
3 Feb 2020 18:38:10.000,14.850,32.411,710.198888
3 Feb 2020 18:38:11.000,15.289,32.131,714.764225
3 Feb 2020 18:38:12.000,15.720,31.853,719.370864
3 Feb 2020 18:38:13.000,16.143,31.577,724.018009
3 Feb 2020 18:38:14.000,16.558,31.302,728.704881
3 Feb 2020 18:38:15.000,16.966,31.029,733.430710
3 Feb 2020 18:38:16.000,17.366,30.757,738.194745
3 Feb 2020 18:38:17.000,17.758,30.488,742.996241
3 Feb 2020 18:38:18.000,18.144,30.220,747.834473
3 Feb 2020 18:38:19.000,18.523,29.954,752.708727
3 Feb 2020 18:38:20.000,18.894,29.690,757.618300
3 Feb 2020 18:38:21.000,19.259,29.428,762.562505
3 Feb 2020 18:38:22.000,19.618,29.168,767.540664
3 Feb 2020 18:38:23.000,19.970,28.910,772.552116
3 Feb 2020 18:38:24.000,20.316,28.654,777.596212
3 Feb 2020 18:38:25.000,20.656,28.400,782.672313
3 Feb 2020 18:38:26.000,20.990,28.148,787.779794
3 Feb 2020 18:38:27.000,21.318,27.898,792.918042
3 Feb 2020 18:38:28.000,21.641,27.650,798.086458
3 Feb 2020 18:38:29.000,21.958,27.404,803.284451
3 Feb 2020 18:38:30.000,22.269,27.160,808.511445
3 Feb 2020 18:38:31.000,22.575,26.917,813.766875
3 Feb 2020 18:38:32.000,22.876,26.677,819.050186
3 Feb 2020 18:38:33.000,23.172,26.439,824.360836
3 Feb 2020 18:38:34.000,23.463,26.203,829.698293
3 Feb 2020 18:38:35.000,23.750,25.969,835.062037
3 Feb 2020 18:38:36.000,24.031,25.737,840.451558
3 Feb 2020 18:38:37.000,24.308,25.507,845.866356
3 Feb 2020 18:38:38.000,24.580,25.279,851.305941
3 Feb 2020 18:38:39.000,24.848,25.053,856.769835
3 Feb 2020 18:38:40.000,25.112,24.829,862.257569
3 Feb 2020 18:38:41.000,25.371,24.607,867.768686
3 Feb 2020 18:38:42.000,25.626,24.387,873.302733
3 Feb 2020 18:38:43.000,25.877,24.168,878.859272
3 Feb 2020 18:38:44.000,26.124,23.952,884.437871
3 Feb 2020 18:38:45.000,26.368,23.738,890.038108
3 Feb 2020 18:38:46.000,26.607,23.525,895.659572
3 Feb 2020 18:38:47.000,26.843,23.314,901.301858
3 Feb 2020 18:38:48.000,27.075,23.105,906.964571
3 Feb 2020 18:38:49.000,27.304,22.898,912.647322
3 Feb 2020 18:38:50.000,27.529,22.693,918.349732
3 Feb 2020 18:38:51.000,27.751,22.490,924.071432
3 Feb 2020 18:38:52.000,27.969,22.288,929.812057
3 Feb 2020 18:38:53.000,28.184,22.088,935.571253
3 Feb 2020 18:38:54.000,28.396,21.890,941.348670
3 Feb 2020 18:38:55.000,28.605,21.694,947.143970
3 Feb 2020 18:38:56.000,28.811,21.499,952.956817
3 Feb 2020 18:38:57.000,29.014,21.306,958.786887
3 Feb 2020 18:38:58.000,29.214,21.115,964.633859
3 Feb 2020 18:38:59.000,29.411,20.926,970.497421
3 Feb 2020 18:39:00.000,29.605,20.738,976.377266
3 Feb 2020 18:39:01.000,29.796,20.552,982.273096
3 Feb 2020 18:39:02.000,29.985,20.367,988.184615
3 Feb 2020 18:39:03.000,30.171,20.184,994.111540
3 Feb 2020 18:39:04.000,30.355,20.002,1000.053586
3 Feb 2020 18:39:05.000,30.535,19.823,1006.010478
3 Feb 2020 18:39:06.000,30.714,19.644,1011.981948
3 Feb 2020 18:39:07.000,30.890,19.467,1017.967731
3 Feb 2020 18:39:08.000,31.063,19.292,1023.967570
3 Feb 2020 18:39:09.000,31.235,19.118,1029.981210
3 Feb 2020 18:39:10.000,31.404,18.946,1036.008406
3 Feb 2020 18:39:11.000,31.570,18.775,1042.048912
3 Feb 2020 18:39:12.000,31.735,18.606,1048.102493
3 Feb 2020 18:39:13.000,31.897,18.438,1054.168914
3 Feb 2020 18:39:14.000,32.057,18.271,1060.247951
3 Feb 2020 18:39:15.000,32.215,18.106,1066.339378
3 Feb 2020 18:39:16.000,32.371,17.942,1072.442976
3 Feb 2020 18:39:17.000,32.525,17.780,1078.558533
3 Feb 2020 18:39:18.000,32.677,17.619,1084.685838
3 Feb 2020 18:39:19.000,32.827,17.459,1090.824685
3 Feb 2020 18:39:20.000,32.976,17.301,1096.974873
3 Feb 2020 18:39:21.000,33.122,17.144,1103.136206
3 Feb 2020 18:39:22.000,33.266,16.988,1109.308489
3 Feb 2020 18:39:23.000,33.409,16.833,1115.491534
3 Feb 2020 18:39:24.000,33.550,16.680,1121.685155
3 Feb 2020 18:39:25.000,33.689,16.528,1127.889170
3 Feb 2020 18:39:26.000,33.827,16.377,1134.103401
3 Feb 2020 18:39:27.000,33.962,16.227,1140.327673
3 Feb 2020 18:39:28.000,34.097,16.078,1146.561815
3 Feb 2020 18:39:29.000,34.229,15.931,1152.805661
3 Feb 2020 18:39:30.000,34.360,15.785,1159.059044
3 Feb 2020 18:39:31.000,34.490,15.640,1165.321802
3 Feb 2020 18:39:32.000,34.617,15.496,1171.593781
3 Feb 2020 18:39:33.000,34.744,15.353,1177.874824
3 Feb 2020 18:39:34.000,34.869,15.211,1184.164779
3 Feb 2020 18:39:35.000,34.992,15.071,1190.463497
3 Feb 2020 18:39:36.000,35.114,14.931,1196.770832
3 Feb 2020 18:39:37.000,35.235,14.793,1203.086641
3 Feb 2020 18:39:38.000,35.354,14.655,1209.410784
3 Feb 2020 18:39:39.000,35.472,14.519,1215.743122
3 Feb 2020 18:39:40.000,35.589,14.383,1222.083521
3 Feb 2020 18:39:41.000,35.704,14.249,1228.431846
3 Feb 2020 18:39:42.000,35.818,14.116,1234.787971
3 Feb 2020 18:39:43.000,35.931,13.983,1241.151766
3 Feb 2020 18:39:44.000,36.042,13.852,1247.523107
3 Feb 2020 18:39:45.000,36.152,13.721,1253.901871
3 Feb 2020 18:39:46.000,36.261,13.592,1260.287936
3 Feb 2020 18:39:47.000,36.369,13.463,1266.681186
3 Feb 2020 18:39:48.000,36.476,13.336,1273.081504
3 Feb 2020 18:39:49.000,36.581,13.209,1279.488773
3 Feb 2020 18:39:50.000,36.686,13.083,1285.902887
3 Feb 2020 18:39:51.000,36.789,12.958,1292.323734
3 Feb 2020 18:39:52.000,36.891,12.834,1298.751205
3 Feb 2020 18:39:53.000,36.992,12.711,1305.185197
3 Feb 2020 18:39:54.000,37.093,12.588,1311.625603
3 Feb 2020 18:39:55.000,37.192,12.467,1318.072324
3 Feb 2020 18:39:56.000,37.290,12.346,1324.525256
3 Feb 2020 18:39:57.000,37.387,12.226,1330.984306
3 Feb 2020 18:39:58.000,37.483,12.107,1337.449374
3 Feb 2020 18:39:59.000,37.578,11.989,1343.920368
3 Feb 2020 18:40:00.000,37.672,11.871,1350.397192
3 Feb 2020 18:40:01.000,37.765,11.755,1356.879757
3 Feb 2020 18:40:02.000,37.857,11.639,1363.367970
3 Feb 2020 18:40:03.000,37.948,11.524,1369.861747
3 Feb 2020 18:40:04.000,38.039,11.409,1376.361000
3 Feb 2020 18:40:05.000,38.128,11.296,1382.865643
3 Feb 2020 18:40:06.000,38.217,11.183,1389.375593
3 Feb 2020 18:40:07.000,38.305,11.071,1395.890767
3 Feb 2020 18:40:08.000,38.392,10.959,1402.411084
3 Feb 2020 18:40:09.000,38.478,10.848,1408.936468
3 Feb 2020 18:40:10.000,38.563,10.738,1415.466838
3 Feb 2020 18:40:11.000,38.647,10.629,1422.002119
3 Feb 2020 18:40:12.000,38.731,10.520,1428.542234
3 Feb 2020 18:40:13.000,38.814,10.412,1435.087111
3 Feb 2020 18:40:14.000,38.896,10.305,1441.636673
3 Feb 2020 18:40:15.000,38.977,10.198,1448.190854
3 Feb 2020 18:40:16.000,39.058,10.092,1454.749581
3 Feb 2020 18:40:17.000,39.137,9.987,1461.312786
3 Feb 2020 18:40:18.000,39.217,9.882,1467.880400
3 Feb 2020 18:40:19.000,39.295,9.778,1474.452353
3 Feb 2020 18:40:20.000,39.372,9.675,1481.028586
3 Feb 2020 18:40:21.000,39.449,9.572,1487.609031
3 Feb 2020 18:40:22.000,39.526,9.470,1494.193623
3 Feb 2020 18:40:23.000,39.601,9.368,1500.782302
3 Feb 2020 18:40:24.000,39.676,9.267,1507.375002
3 Feb 2020 18:40:25.000,39.750,9.167,1513.971669
3 Feb 2020 18:40:26.000,39.824,9.067,1520.572239
3 Feb 2020 18:40:27.000,39.897,8.967,1527.176656
3 Feb 2020 18:40:28.000,39.969,8.869,1533.784860
3 Feb 2020 18:40:29.000,40.040,8.771,1540.396792
3 Feb 2020 18:40:30.000,40.111,8.673,1547.012403
3 Feb 2020 18:40:31.000,40.182,8.576,1553.631634
3 Feb 2020 18:40:32.000,40.252,8.479,1560.254432
3 Feb 2020 18:40:33.000,40.321,8.383,1566.880742
3 Feb 2020 18:40:34.000,40.389,8.288,1573.510511
3 Feb 2020 18:40:35.000,40.457,8.193,1580.143692
3 Feb 2020 18:40:36.000,40.525,8.098,1586.780231
3 Feb 2020 18:40:37.000,40.592,8.005,1593.420079
3 Feb 2020 18:40:38.000,40.658,7.911,1600.063186
3 Feb 2020 18:40:39.000,40.724,7.818,1606.709501
3 Feb 2020 18:40:40.000,40.789,7.726,1613.358982
3 Feb 2020 18:40:41.000,40.854,7.634,1620.011580
3 Feb 2020 18:40:42.000,40.918,7.542,1626.667247
3 Feb 2020 18:40:43.000,40.981,7.451,1633.325936
3 Feb 2020 18:40:44.000,41.045,7.361,1639.987608
3 Feb 2020 18:40:45.000,41.107,7.271,1646.652215
3 Feb 2020 18:40:46.000,41.169,7.181,1653.319713
3 Feb 2020 18:40:47.000,41.231,7.092,1659.990061
3 Feb 2020 18:40:48.000,41.292,7.004,1666.663213
3 Feb 2020 18:40:49.000,41.353,6.915,1673.339133
3 Feb 2020 18:40:50.000,41.413,6.828,1680.017777
3 Feb 2020 18:40:51.000,41.472,6.740,1686.699105
3 Feb 2020 18:40:52.000,41.532,6.653,1693.383074
3 Feb 2020 18:40:53.000,41.590,6.567,1700.069651
3 Feb 2020 18:40:54.000,41.649,6.481,1706.758793
3 Feb 2020 18:40:55.000,41.707,6.395,1713.450464
3 Feb 2020 18:40:56.000,41.764,6.310,1720.144623
3 Feb 2020 18:40:57.000,41.821,6.225,1726.841237
3 Feb 2020 18:40:58.000,41.878,6.141,1733.540269
3 Feb 2020 18:40:59.000,41.934,6.057,1740.241681
3 Feb 2020 18:41:00.000,41.989,5.973,1746.945439
3 Feb 2020 18:41:01.000,42.045,5.890,1753.651505
3 Feb 2020 18:41:02.000,42.099,5.807,1760.359850
3 Feb 2020 18:41:03.000,42.154,5.725,1767.070437
3 Feb 2020 18:41:04.000,42.208,5.642,1773.783233
3 Feb 2020 18:41:05.000,42.262,5.561,1780.498201
3 Feb 2020 18:41:06.000,42.315,5.479,1787.215315
3 Feb 2020 18:41:07.000,42.368,5.398,1793.934540
3 Feb 2020 18:41:08.000,42.420,5.318,1800.655844
3 Feb 2020 18:41:09.000,42.472,5.238,1807.379194
3 Feb 2020 18:41:10.000,42.524,5.158,1814.104563
3 Feb 2020 18:41:11.000,42.575,5.078,1820.831919
3 Feb 2020 18:41:12.000,42.626,4.999,1827.561231
3 Feb 2020 18:41:13.000,42.677,4.920,1834.292468
3 Feb 2020 18:41:14.000,42.727,4.842,1841.025605
3 Feb 2020 18:41:15.000,42.777,4.764,1847.760611
3 Feb 2020 18:41:16.000,42.827,4.686,1854.497458
3 Feb 2020 18:41:17.000,42.876,4.608,1861.236114
3 Feb 2020 18:41:18.000,42.925,4.531,1867.976558
3 Feb 2020 18:41:19.000,42.973,4.454,1874.718759
3 Feb 2020 18:41:20.000,43.022,4.378,1881.462691
3 Feb 2020 18:41:21.000,43.070,4.301,1888.208324
3 Feb 2020 18:41:22.000,43.117,4.226,1894.955636
3 Feb 2020 18:41:23.000,43.164,4.150,1901.704601
3 Feb 2020 18:41:24.000,43.211,4.075,1908.455191
3 Feb 2020 18:41:25.000,43.258,4.000,1915.207380
3 Feb 2020 18:41:26.000,43.304,3.925,1921.961147
3 Feb 2020 18:41:27.000,43.350,3.851,1928.716465
3 Feb 2020 18:41:28.000,43.396,3.777,1935.473309
3 Feb 2020 18:41:29.000,43.441,3.703,1942.231654
3 Feb 2020 18:41:30.000,43.486,3.629,1948.991480
3 Feb 2020 18:41:31.000,43.531,3.556,1955.752762
3 Feb 2020 18:41:32.000,43.576,3.483,1962.515476
3 Feb 2020 18:41:33.000,43.620,3.411,1969.279597
3 Feb 2020 18:41:34.000,43.664,3.338,1976.045107
3 Feb 2020 18:41:35.000,43.707,3.266,1982.811983
3 Feb 2020 18:41:36.000,43.751,3.195,1989.580200
3 Feb 2020 18:41:37.000,43.794,3.123,1996.349736
3 Feb 2020 18:41:38.000,43.836,3.052,2003.120574
3 Feb 2020 18:41:39.000,43.879,2.981,2009.892690
3 Feb 2020 18:41:40.000,43.921,2.910,2016.666064
3 Feb 2020 18:41:41.000,43.963,2.840,2023.440670
3 Feb 2020 18:41:42.000,44.005,2.769,2030.216496
3 Feb 2020 18:41:43.000,44.046,2.699,2036.993517
3 Feb 2020 18:41:44.000,44.088,2.630,2043.771714
3 Feb 2020 18:41:45.000,44.129,2.560,2050.551064
3 Feb 2020 18:41:46.000,44.169,2.491,2057.331553
3 Feb 2020 18:41:47.000,44.210,2.422,2064.113158
3 Feb 2020 18:41:48.000,44.250,2.353,2070.895860
3 Feb 2020 18:41:49.000,44.290,2.285,2077.679643
3 Feb 2020 18:41:50.000,44.330,2.217,2084.464486
3 Feb 2020 18:41:51.000,44.369,2.149,2091.250371
3 Feb 2020 18:41:52.000,44.408,2.081,2098.037277
3 Feb 2020 18:41:53.000,44.447,2.014,2104.825192
3 Feb 2020 18:41:54.000,44.486,1.946,2111.614095
3 Feb 2020 18:41:55.000,44.525,1.879,2118.403968
3 Feb 2020 18:41:56.000,44.563,1.812,2125.194791
3 Feb 2020 18:41:57.000,44.601,1.746,2131.986552
3 Feb 2020 18:41:58.000,44.639,1.679,2138.779232
3 Feb 2020 18:41:59.000,44.677,1.613,2145.572814
3 Feb 2020 18:42:00.000,44.714,1.547,2152.367278
3 Feb 2020 18:42:01.000,44.751,1.482,2159.162613
3 Feb 2020 18:42:02.000,44.788,1.416,2165.958801
3 Feb 2020 18:42:03.000,44.825,1.351,2172.755825
3 Feb 2020 18:42:04.000,44.862,1.286,2179.553667
3 Feb 2020 18:42:05.000,44.898,1.221,2186.352315
3 Feb 2020 18:42:06.000,44.934,1.156,2193.151753
3 Feb 2020 18:42:07.000,44.970,1.092,2199.951961
3 Feb 2020 18:42:08.000,45.006,1.027,2206.752930
3 Feb 2020 18:42:09.000,45.041,0.963,2213.554642
3 Feb 2020 18:42:10.000,45.077,0.899,2220.357082
3 Feb 2020 18:42:11.000,45.112,0.836,2227.160233
3 Feb 2020 18:42:12.000,45.147,0.772,2233.964085
3 Feb 2020 18:42:13.000,45.182,0.709,2240.768621
3 Feb 2020 18:42:14.000,45.216,0.646,2247.573827
3 Feb 2020 18:42:15.000,45.251,0.583,2254.379686
3 Feb 2020 18:42:16.000,45.285,0.520,2261.186189
3 Feb 2020 18:42:17.000,45.319,0.458,2267.993320
3 Feb 2020 18:42:18.000,45.353,0.395,2274.801061
3 Feb 2020 18:42:19.000,45.386,0.333,2281.609406
3 Feb 2020 18:42:20.000,45.420,0.271,2288.418338
3 Feb 2020 18:42:21.000,45.453,0.209,2295.227843
3 Feb 2020 18:42:22.000,45.486,0.148,2302.037906
3 Feb 2020 18:42:23.000,45.519,0.086,2308.848518
3 Feb 2020 18:42:24.000,45.552,0.025,2315.659665
3 Feb 2020 18:42:25.000,45.584,-0.036,2322.471332
3 Feb 2020 18:42:25.319,45.595,-0.055,2324.644900
3 Feb 2020 20:09:48.540,286.083,-0.055,2322.030069
3 Feb 2020 20:09:49.000,286.135,-0.033,2319.512348
