vcc_sched/network/input/aer_odugs_wj2xoh_vcc-a_44428.csv

"Time (UTCG)","Azimuth (deg)","Elevation (deg)","Range (km)"
1 Dec 2019 17:32:12.392,164.580,-0.124,2317.621272
1 Dec 2019 17:32:13.000,164.494,-0.100,2314.952886
1 Dec 2019 17:32:14.000,164.352,-0.061,2310.571934
1 Dec 2019 17:32:15.000,164.210,-0.021,2306.203732
1 Dec 2019 17:32:16.000,164.068,0.018,2301.848355
1 Dec 2019 17:32:17.000,163.925,0.058,2297.505884
1 Dec 2019 17:32:18.000,163.781,0.097,2293.176397
1 Dec 2019 17:32:19.000,163.637,0.136,2288.859975
1 Dec 2019 17:32:20.000,163.492,0.176,2284.556696
1 Dec 2019 17:32:21.000,163.347,0.215,2280.266642
1 Dec 2019 17:32:22.000,163.201,0.254,2275.989892
1 Dec 2019 17:32:23.000,163.054,0.293,2271.726527
1 Dec 2019 17:32:24.000,162.907,0.332,2267.476630
1 Dec 2019 17:32:25.000,162.760,0.371,2263.240280
1 Dec 2019 17:32:26.000,162.612,0.410,2259.017559
1 Dec 2019 17:32:27.000,162.463,0.449,2254.808553
1 Dec 2019 17:32:28.000,162.314,0.488,2250.613340
1 Dec 2019 17:32:29.000,162.164,0.527,2246.432006
1 Dec 2019 17:32:30.000,162.014,0.566,2242.264631
1 Dec 2019 17:32:31.000,161.863,0.605,2238.111302
1 Dec 2019 17:32:32.000,161.711,0.643,2233.972102
1 Dec 2019 17:32:33.000,161.559,0.682,2229.847114
1 Dec 2019 17:32:34.000,161.406,0.720,2225.736424
1 Dec 2019 17:32:35.000,161.253,0.759,2221.640115
1 Dec 2019 17:32:36.000,161.100,0.797,2217.558273
1 Dec 2019 17:32:37.000,160.945,0.836,2213.490986
1 Dec 2019 17:32:38.000,160.790,0.874,2209.438336
1 Dec 2019 17:32:39.000,160.635,0.912,2205.400412
1 Dec 2019 17:32:40.000,160.479,0.951,2201.377300
1 Dec 2019 17:32:41.000,160.322,0.989,2197.369085
1 Dec 2019 17:32:42.000,160.165,1.027,2193.375855
1 Dec 2019 17:32:43.000,160.007,1.065,2189.397699
1 Dec 2019 17:32:44.000,159.849,1.103,2185.434702
1 Dec 2019 17:32:45.000,159.690,1.141,2181.486954
1 Dec 2019 17:32:46.000,159.530,1.178,2177.554543
1 Dec 2019 17:32:47.000,159.370,1.216,2173.637557
1 Dec 2019 17:32:48.000,159.209,1.254,2169.736084
1 Dec 2019 17:32:49.000,159.048,1.291,2165.850216
1 Dec 2019 17:32:50.000,158.886,1.329,2161.980039
1 Dec 2019 17:32:51.000,158.723,1.366,2158.125644
1 Dec 2019 17:32:52.000,158.560,1.403,2154.287122
1 Dec 2019 17:32:53.000,158.397,1.441,2150.464563
1 Dec 2019 17:32:54.000,158.232,1.478,2146.658056
1 Dec 2019 17:32:55.000,158.067,1.515,2142.867692
1 Dec 2019 17:32:56.000,157.902,1.552,2139.093564
1 Dec 2019 17:32:57.000,157.736,1.589,2135.335761
1 Dec 2019 17:32:58.000,157.569,1.626,2131.594374
1 Dec 2019 17:32:59.000,157.402,1.662,2127.869497
1 Dec 2019 17:33:00.000,157.234,1.699,2124.161222
1 Dec 2019 17:33:01.000,157.066,1.736,2120.469638
1 Dec 2019 17:33:02.000,156.897,1.772,2116.794840
1 Dec 2019 17:33:03.000,156.727,1.808,2113.136920
1 Dec 2019 17:33:04.000,156.557,1.845,2109.495970
1 Dec 2019 17:33:05.000,156.386,1.881,2105.872086
1 Dec 2019 17:33:06.000,156.214,1.917,2102.265357
1 Dec 2019 17:33:07.000,156.042,1.953,2098.675879
1 Dec 2019 17:33:08.000,155.870,1.988,2095.103745
1 Dec 2019 17:33:09.000,155.696,2.024,2091.549048
1 Dec 2019 17:33:10.000,155.523,2.060,2088.011885
1 Dec 2019 17:33:11.000,155.348,2.095,2084.492345
1 Dec 2019 17:33:12.000,155.173,2.131,2080.990526
1 Dec 2019 17:33:13.000,154.997,2.166,2077.506522
1 Dec 2019 17:33:14.000,154.821,2.201,2074.040426
1 Dec 2019 17:33:15.000,154.644,2.236,2070.592334
1 Dec 2019 17:33:16.000,154.467,2.271,2067.162343
1 Dec 2019 17:33:17.000,154.289,2.306,2063.750543
1 Dec 2019 17:33:18.000,154.110,2.341,2060.357032
1 Dec 2019 17:33:19.000,153.931,2.375,2056.981905
1 Dec 2019 17:33:20.000,153.751,2.410,2053.625257
1 Dec 2019 17:33:21.000,153.571,2.444,2050.287184
1 Dec 2019 17:33:22.000,153.389,2.478,2046.967781
1 Dec 2019 17:33:23.000,153.208,2.513,2043.667144
1 Dec 2019 17:33:24.000,153.025,2.546,2040.385369
1 Dec 2019 17:33:25.000,152.843,2.580,2037.122550
1 Dec 2019 17:33:26.000,152.659,2.614,2033.878784
1 Dec 2019 17:33:27.000,152.475,2.648,2030.654167
1 Dec 2019 17:33:28.000,152.290,2.681,2027.448794
1 Dec 2019 17:33:29.000,152.105,2.714,2024.262762
1 Dec 2019 17:33:30.000,151.919,2.747,2021.096166
1 Dec 2019 17:33:31.000,151.733,2.780,2017.949102
1 Dec 2019 17:33:32.000,151.546,2.813,2014.821667
1 Dec 2019 17:33:33.000,151.358,2.846,2011.713955
1 Dec 2019 17:33:34.000,151.170,2.879,2008.626064
1 Dec 2019 17:33:35.000,150.981,2.911,2005.558088
1 Dec 2019 17:33:36.000,150.792,2.943,2002.510125
1 Dec 2019 17:33:37.000,150.601,2.975,1999.482269
1 Dec 2019 17:33:38.000,150.411,3.007,1996.474616
1 Dec 2019 17:33:39.000,150.220,3.039,1993.487262
1 Dec 2019 17:33:40.000,150.028,3.071,1990.520303
1 Dec 2019 17:33:41.000,149.835,3.102,1987.573834
1 Dec 2019 17:33:42.000,149.642,3.133,1984.647950
1 Dec 2019 17:33:43.000,149.449,3.165,1981.742748
1 Dec 2019 17:33:44.000,149.255,3.196,1978.858322
1 Dec 2019 17:33:45.000,149.060,3.226,1975.994766
1 Dec 2019 17:33:46.000,148.865,3.257,1973.152177
1 Dec 2019 17:33:47.000,148.669,3.288,1970.330649
1 Dec 2019 17:33:48.000,148.472,3.318,1967.530276
1 Dec 2019 17:33:49.000,148.275,3.348,1964.751154
1 Dec 2019 17:33:50.000,148.078,3.378,1961.993375
1 Dec 2019 17:33:51.000,147.880,3.408,1959.257035
1 Dec 2019 17:33:52.000,147.681,3.437,1956.542228
1 Dec 2019 17:33:53.000,147.482,3.467,1953.849046
1 Dec 2019 17:33:54.000,147.282,3.496,1951.177581
1 Dec 2019 17:33:55.000,147.081,3.525,1948.527931
1 Dec 2019 17:33:56.000,146.880,3.554,1945.900186
1 Dec 2019 17:33:57.000,146.679,3.582,1943.294439
1 Dec 2019 17:33:58.000,146.477,3.611,1940.710783
1 Dec 2019 17:33:59.000,146.274,3.639,1938.149309
1 Dec 2019 17:34:00.000,146.071,3.667,1935.610109
1 Dec 2019 17:34:01.000,145.867,3.695,1933.093273
1 Dec 2019 17:34:02.000,145.663,3.723,1930.598896
1 Dec 2019 17:34:03.000,145.458,3.750,1928.127067
1 Dec 2019 17:34:04.000,145.252,3.777,1925.677875
1 Dec 2019 17:34:05.000,145.046,3.804,1923.251412
1 Dec 2019 17:34:06.000,144.840,3.831,1920.847767
1 Dec 2019 17:34:07.000,144.633,3.858,1918.467026
1 Dec 2019 17:34:08.000,144.425,3.884,1916.109284
1 Dec 2019 17:34:09.000,144.217,3.910,1913.774627
1 Dec 2019 17:34:10.000,144.009,3.936,1911.463141
1 Dec 2019 17:34:11.000,143.800,3.962,1909.174914
1 Dec 2019 17:34:12.000,143.590,3.988,1906.910036
1 Dec 2019 17:34:13.000,143.380,4.013,1904.668592
1 Dec 2019 17:34:14.000,143.169,4.038,1902.450668
1 Dec 2019 17:34:15.000,142.958,4.063,1900.256347
1 Dec 2019 17:34:16.000,142.746,4.087,1898.085720
1 Dec 2019 17:34:17.000,142.534,4.112,1895.938868
1 Dec 2019 17:34:18.000,142.322,4.136,1893.815875
1 Dec 2019 17:34:19.000,142.108,4.160,1891.716824
1 Dec 2019 17:34:20.000,141.895,4.184,1889.641800
1 Dec 2019 17:34:21.000,141.681,4.207,1887.590885
1 Dec 2019 17:34:22.000,141.466,4.230,1885.564158
1 Dec 2019 17:34:23.000,141.251,4.253,1883.561704
1 Dec 2019 17:34:24.000,141.035,4.276,1881.583602
1 Dec 2019 17:34:25.000,140.819,4.298,1879.629930
1 Dec 2019 17:34:26.000,140.603,4.321,1877.700771
1 Dec 2019 17:34:27.000,140.386,4.343,1875.796201
1 Dec 2019 17:34:28.000,140.169,4.364,1873.916297
1 Dec 2019 17:34:29.000,139.951,4.386,1872.061140
1 Dec 2019 17:34:30.000,139.733,4.407,1870.230803
1 Dec 2019 17:34:31.000,139.514,4.428,1868.425362
1 Dec 2019 17:34:32.000,139.295,4.449,1866.644895
1 Dec 2019 17:34:33.000,139.075,4.469,1864.889472
1 Dec 2019 17:34:34.000,138.855,4.489,1863.159171
1 Dec 2019 17:34:35.000,138.635,4.509,1861.454063
1 Dec 2019 17:34:36.000,138.414,4.529,1859.774217
1 Dec 2019 17:34:37.000,138.193,4.548,1858.119710
1 Dec 2019 17:34:38.000,137.971,4.567,1856.490606
1 Dec 2019 17:34:39.000,137.749,4.586,1854.886980
1 Dec 2019 17:34:40.000,137.526,4.605,1853.308897
1 Dec 2019 17:34:41.000,137.303,4.623,1851.756428
1 Dec 2019 17:34:42.000,137.080,4.641,1850.229636
1 Dec 2019 17:34:43.000,136.857,4.659,1848.728592
1 Dec 2019 17:34:44.000,136.633,4.676,1847.253356
1 Dec 2019 17:34:45.000,136.408,4.693,1845.803998
1 Dec 2019 17:34:46.000,136.184,4.710,1844.380575
1 Dec 2019 17:34:47.000,135.958,4.727,1842.983156
1 Dec 2019 17:34:48.000,135.733,4.743,1841.611796
1 Dec 2019 17:34:49.000,135.507,4.759,1840.266561
1 Dec 2019 17:34:50.000,135.281,4.775,1838.947507
1 Dec 2019 17:34:51.000,135.055,4.790,1837.654696
1 Dec 2019 17:34:52.000,134.828,4.805,1836.388181
1 Dec 2019 17:34:53.000,134.601,4.820,1835.148021
1 Dec 2019 17:34:54.000,134.373,4.835,1833.934275
1 Dec 2019 17:34:55.000,134.146,4.849,1832.746992
1 Dec 2019 17:34:56.000,133.917,4.863,1831.586230
1 Dec 2019 17:34:57.000,133.689,4.877,1830.452037
1 Dec 2019 17:34:58.000,133.461,4.890,1829.344467
1 Dec 2019 17:34:59.000,133.232,4.903,1828.263573
1 Dec 2019 17:35:00.000,133.002,4.916,1827.209399
1 Dec 2019 17:35:01.000,132.773,4.928,1826.181995
1 Dec 2019 17:35:02.000,132.543,4.941,1825.181412
1 Dec 2019 17:35:03.000,132.313,4.952,1824.207690
1 Dec 2019 17:35:04.000,132.083,4.964,1823.260876
1 Dec 2019 17:35:05.000,131.852,4.975,1822.341018
1 Dec 2019 17:35:06.000,131.622,4.986,1821.448152
1 Dec 2019 17:35:07.000,131.391,4.997,1820.582322
1 Dec 2019 17:35:08.000,131.160,5.007,1819.743572
1 Dec 2019 17:35:09.000,130.928,5.017,1818.931934
1 Dec 2019 17:35:10.000,130.697,5.027,1818.147450
1 Dec 2019 17:35:11.000,130.465,5.036,1817.390157
1 Dec 2019 17:35:12.000,130.233,5.045,1816.660093
1 Dec 2019 17:35:13.000,130.000,5.054,1815.957286
1 Dec 2019 17:35:14.000,129.768,5.062,1815.281772
1 Dec 2019 17:35:15.000,129.535,5.070,1814.633584
1 Dec 2019 17:35:16.000,129.303,5.078,1814.012755
1 Dec 2019 17:35:17.000,129.070,5.085,1813.419308
1 Dec 2019 17:35:18.000,128.837,5.093,1812.853276
1 Dec 2019 17:35:19.000,128.604,5.099,1812.314684
1 Dec 2019 17:35:20.000,128.370,5.106,1811.803559
1 Dec 2019 17:35:21.000,128.137,5.112,1811.319925
1 Dec 2019 17:35:22.000,127.903,5.118,1810.863809
1 Dec 2019 17:35:23.000,127.669,5.123,1810.435226
1 Dec 2019 17:35:24.000,127.436,5.128,1810.034199
1 Dec 2019 17:35:25.000,127.202,5.133,1809.660750
1 Dec 2019 17:35:26.000,126.968,5.138,1809.314895
1 Dec 2019 17:35:27.000,126.733,5.142,1808.996652
1 Dec 2019 17:35:28.000,126.499,5.146,1808.706036
1 Dec 2019 17:35:29.000,126.265,5.149,1808.443061
1 Dec 2019 17:35:30.000,126.030,5.153,1808.207744
1 Dec 2019 17:35:31.000,125.796,5.156,1808.000090
1 Dec 2019 17:35:32.000,125.562,5.158,1807.820112
1 Dec 2019 17:35:33.000,125.327,5.160,1807.667820
1 Dec 2019 17:35:34.000,125.093,5.162,1807.543222
1 Dec 2019 17:35:35.000,124.858,5.164,1807.446324
1 Dec 2019 17:35:36.000,124.623,5.165,1807.377131
1 Dec 2019 17:35:37.000,124.389,5.166,1807.335647
1 Dec 2019 17:35:38.000,124.154,5.167,1807.321876
1 Dec 2019 17:35:39.000,123.919,5.167,1807.335817
1 Dec 2019 17:35:40.000,123.685,5.167,1807.377471
1 Dec 2019 17:35:41.000,123.450,5.166,1807.446836
1 Dec 2019 17:35:42.000,123.216,5.166,1807.543911
1 Dec 2019 17:35:43.000,122.981,5.165,1807.668691
1 Dec 2019 17:35:44.000,122.746,5.163,1807.821171
1 Dec 2019 17:35:45.000,122.512,5.161,1808.001344
1 Dec 2019 17:35:46.000,122.278,5.159,1808.209202
1 Dec 2019 17:35:47.000,122.043,5.157,1808.444737
1 Dec 2019 17:35:48.000,121.809,5.154,1808.707934
1 Dec 2019 17:35:49.000,121.575,5.151,1808.998788
1 Dec 2019 17:35:50.000,121.340,5.148,1809.317284
1 Dec 2019 17:35:51.000,121.106,5.144,1809.663406
1 Dec 2019 17:35:52.000,120.872,5.140,1810.037138
1 Dec 2019 17:35:53.000,120.639,5.136,1810.438465
1 Dec 2019 17:35:54.000,120.405,5.131,1810.867368
1 Dec 2019 17:35:55.000,120.171,5.126,1811.323827
1 Dec 2019 17:35:56.000,119.938,5.121,1811.807819
1 Dec 2019 17:35:57.000,119.704,5.115,1812.319327
1 Dec 2019 17:35:58.000,119.471,5.109,1812.858325
1 Dec 2019 17:35:59.000,119.238,5.103,1813.424790
1 Dec 2019 17:36:00.000,119.005,5.096,1814.018694
1 Dec 2019 17:36:01.000,118.772,5.089,1814.640011
1 Dec 2019 17:36:02.000,118.540,5.082,1815.288710
1 Dec 2019 17:36:03.000,118.307,5.075,1815.964767
1 Dec 2019 17:36:04.000,118.075,5.067,1816.668148
1 Dec 2019 17:36:05.000,117.843,5.059,1817.398822
1 Dec 2019 17:36:06.000,117.611,5.050,1818.156752
1 Dec 2019 17:36:07.000,117.380,5.041,1818.941910
1 Dec 2019 17:36:08.000,117.148,5.032,1819.754258
1 Dec 2019 17:36:09.000,116.917,5.023,1820.593758
1 Dec 2019 17:36:10.000,116.686,5.013,1821.460369
1 Dec 2019 17:36:11.000,116.455,5.003,1822.354060
1 Dec 2019 17:36:12.000,116.225,4.992,1823.274785
1 Dec 2019 17:36:13.000,115.994,4.981,1824.222502
1 Dec 2019 17:36:14.000,115.764,4.970,1825.197172
1 Dec 2019 17:36:15.000,115.535,4.959,1826.198751
1 Dec 2019 17:36:16.000,115.305,4.947,1827.227188
1 Dec 2019 17:36:17.000,115.076,4.935,1828.282446
1 Dec 2019 17:36:18.000,114.847,4.923,1829.364474
1 Dec 2019 17:36:19.000,114.618,4.911,1830.473220
1 Dec 2019 17:36:20.000,114.390,4.898,1831.608641
1 Dec 2019 17:36:21.000,114.162,4.885,1832.770684
1 Dec 2019 17:36:22.000,113.934,4.871,1833.959295
1 Dec 2019 17:36:23.000,113.707,4.857,1835.174427
1 Dec 2019 17:36:24.000,113.480,4.843,1836.416020
1 Dec 2019 17:36:25.000,113.253,4.829,1837.684027
1 Dec 2019 17:36:26.000,113.026,4.814,1838.978388
1 Dec 2019 17:36:27.000,112.800,4.799,1840.299044
1 Dec 2019 17:36:28.000,112.574,4.784,1841.645943
1 Dec 2019 17:36:29.000,112.349,4.769,1843.019021
1 Dec 2019 17:36:30.000,112.124,4.753,1844.418225
1 Dec 2019 17:36:31.000,111.899,4.737,1845.843487
1 Dec 2019 17:36:32.000,111.675,4.720,1847.294753
1 Dec 2019 17:36:33.000,111.451,4.704,1848.771954
1 Dec 2019 17:36:34.000,111.227,4.687,1850.275033
1 Dec 2019 17:36:35.000,111.004,4.669,1851.803919
1 Dec 2019 17:36:36.000,110.781,4.652,1853.358553
1 Dec 2019 17:36:37.000,110.558,4.634,1854.938864
1 Dec 2019 17:36:38.000,110.336,4.616,1856.544791
1 Dec 2019 17:36:39.000,110.115,4.598,1858.176259
1 Dec 2019 17:36:40.000,109.893,4.579,1859.833206
1 Dec 2019 17:36:41.000,109.672,4.560,1861.515557
1 Dec 2019 17:36:42.000,109.452,4.541,1863.223244
1 Dec 2019 17:36:43.000,109.232,4.521,1864.956200
1 Dec 2019 17:36:44.000,109.012,4.502,1866.714346
1 Dec 2019 17:36:45.000,108.793,4.482,1868.497617
1 Dec 2019 17:36:46.000,108.574,4.462,1870.305931
1 Dec 2019 17:36:47.000,108.356,4.441,1872.139223
1 Dec 2019 17:36:48.000,108.138,4.420,1873.997409
1 Dec 2019 17:36:49.000,107.921,4.399,1875.880418
1 Dec 2019 17:36:50.000,107.704,4.378,1877.788177
1 Dec 2019 17:36:51.000,107.488,4.357,1879.720602
1 Dec 2019 17:36:52.000,107.272,4.335,1881.677618
1 Dec 2019 17:36:53.000,107.056,4.313,1883.659151
1 Dec 2019 17:36:54.000,106.841,4.291,1885.665115
1 Dec 2019 17:36:55.000,106.626,4.268,1887.695433
1 Dec 2019 17:36:56.000,106.412,4.245,1889.750029
1 Dec 2019 17:36:57.000,106.199,4.222,1891.828814
1 Dec 2019 17:36:58.000,105.985,4.199,1893.931710
1 Dec 2019 17:36:59.000,105.773,4.176,1896.058639
1 Dec 2019 17:37:00.000,105.561,4.152,1898.209512
1 Dec 2019 17:37:01.000,105.349,4.128,1900.384247
1 Dec 2019 17:37:02.000,105.138,4.104,1902.582762
1 Dec 2019 17:37:03.000,104.927,4.079,1904.804975
1 Dec 2019 17:37:04.000,104.717,4.055,1907.050794
1 Dec 2019 17:37:05.000,104.508,4.030,1909.320138
1 Dec 2019 17:37:06.000,104.298,4.005,1911.612921
1 Dec 2019 17:37:07.000,104.090,3.979,1913.929059
1 Dec 2019 17:37:08.000,103.882,3.954,1916.268459
1 Dec 2019 17:37:09.000,103.674,3.928,1918.631037
1 Dec 2019 17:37:10.000,103.467,3.902,1921.016705
1 Dec 2019 17:37:11.000,103.261,3.876,1923.425378
1 Dec 2019 17:37:12.000,103.055,3.850,1925.856961
1 Dec 2019 17:37:13.000,102.850,3.823,1928.311368
1 Dec 2019 17:37:14.000,102.645,3.796,1930.788510
1 Dec 2019 17:37:15.000,102.441,3.769,1933.288297
1 Dec 2019 17:37:16.000,102.237,3.742,1935.810639
1 Dec 2019 17:37:17.000,102.034,3.715,1938.355448
1 Dec 2019 17:37:18.000,101.831,3.687,1940.922627
1 Dec 2019 17:37:19.000,101.629,3.659,1943.512089
1 Dec 2019 17:37:20.000,101.428,3.631,1946.123741
1 Dec 2019 17:37:21.000,101.227,3.603,1948.757491
1 Dec 2019 17:37:22.000,101.026,3.574,1951.413249
1 Dec 2019 17:37:23.000,100.826,3.546,1954.090921
1 Dec 2019 17:37:24.000,100.627,3.517,1956.790415
1 Dec 2019 17:37:25.000,100.428,3.488,1959.511641
1 Dec 2019 17:37:26.000,100.230,3.459,1962.254500
1 Dec 2019 17:37:27.000,100.033,3.429,1965.018900
1 Dec 2019 17:37:28.000,99.836,3.400,1967.804750
1 Dec 2019 17:37:29.000,99.640,3.370,1970.611955
1 Dec 2019 17:37:30.000,99.444,3.340,1973.440420
1 Dec 2019 17:37:31.000,99.248,3.310,1976.290053
1 Dec 2019 17:37:32.000,99.054,3.280,1979.160758
1 Dec 2019 17:37:33.000,98.860,3.250,1982.052442
1 Dec 2019 17:37:34.000,98.666,3.219,1984.965009
1 Dec 2019 17:37:35.000,98.473,3.188,1987.898364
1 Dec 2019 17:37:36.000,98.281,3.157,1990.852414
1 Dec 2019 17:37:37.000,98.089,3.126,1993.827062
1 Dec 2019 17:37:38.000,97.898,3.095,1996.822214
1 Dec 2019 17:37:39.000,97.708,3.064,1999.837775
1 Dec 2019 17:37:40.000,97.518,3.032,2002.873649
1 Dec 2019 17:37:41.000,97.329,3.000,2005.929741
1 Dec 2019 17:37:42.000,97.140,2.968,2009.005956
1 Dec 2019 17:37:43.000,96.952,2.936,2012.102197
1 Dec 2019 17:37:44.000,96.764,2.904,2015.218370
1 Dec 2019 17:37:45.000,96.577,2.872,2018.354380
1 Dec 2019 17:37:46.000,96.391,2.839,2021.510129
1 Dec 2019 17:37:47.000,96.205,2.807,2024.685524
1 Dec 2019 17:37:48.000,96.020,2.774,2027.880468
1 Dec 2019 17:37:49.000,95.836,2.741,2031.094865
1 Dec 2019 17:37:50.000,95.652,2.708,2034.328621
1 Dec 2019 17:37:51.000,95.468,2.675,2037.581639
1 Dec 2019 17:37:52.000,95.286,2.642,2040.853821
1 Dec 2019 17:37:53.000,95.104,2.608,2044.145078
1 Dec 2019 17:37:54.000,94.922,2.574,2047.455311
1 Dec 2019 17:37:55.000,94.741,2.541,2050.784425
1 Dec 2019 17:37:56.000,94.561,2.507,2054.132325
1 Dec 2019 17:37:57.000,94.381,2.473,2057.498915
1 Dec 2019 17:37:58.000,94.202,2.439,2060.884101
1 Dec 2019 17:37:59.000,94.024,2.404,2064.287786
1 Dec 2019 17:38:00.000,93.846,2.370,2067.709877
1 Dec 2019 17:38:01.000,93.668,2.336,2071.150275
1 Dec 2019 17:38:02.000,93.492,2.301,2074.608892
1 Dec 2019 17:38:03.000,93.316,2.266,2078.085630
1 Dec 2019 17:38:04.000,93.140,2.231,2081.580394
1 Dec 2019 17:38:05.000,92.965,2.196,2085.093091
1 Dec 2019 17:38:06.000,92.791,2.161,2088.623626
1 Dec 2019 17:38:07.000,92.618,2.126,2092.171902
1 Dec 2019 17:38:08.000,92.445,2.091,2095.737831
1 Dec 2019 17:38:09.000,92.272,2.056,2099.321316
1 Dec 2019 17:38:10.000,92.100,2.020,2102.922264
1 Dec 2019 17:38:11.000,91.929,1.984,2106.540582
1 Dec 2019 17:38:12.000,91.759,1.949,2110.176172
1 Dec 2019 17:38:13.000,91.589,1.913,2113.828950
1 Dec 2019 17:38:14.000,91.419,1.877,2117.498817
1 Dec 2019 17:38:15.000,91.250,1.841,2121.185682
1 Dec 2019 17:38:16.000,91.082,1.805,2124.889453
1 Dec 2019 17:38:17.000,90.915,1.769,2128.610033
1 Dec 2019 17:38:18.000,90.748,1.732,2132.347338
1 Dec 2019 17:38:19.000,90.581,1.696,2136.101272
1 Dec 2019 17:38:20.000,90.415,1.659,2139.871744
1 Dec 2019 17:38:21.000,90.250,1.623,2143.658659
1 Dec 2019 17:38:22.000,90.086,1.586,2147.461933
1 Dec 2019 17:38:23.000,89.922,1.549,2151.281472
1 Dec 2019 17:38:24.000,89.758,1.512,2155.117181
1 Dec 2019 17:38:25.000,89.595,1.475,2158.968977
1 Dec 2019 17:38:26.000,89.433,1.438,2162.836767
1 Dec 2019 17:38:27.000,89.272,1.401,2166.720460
1 Dec 2019 17:38:28.000,89.111,1.364,2170.619964
1 Dec 2019 17:38:29.000,88.950,1.327,2174.535197
1 Dec 2019 17:38:30.000,88.790,1.290,2178.466065
1 Dec 2019 17:38:31.000,88.631,1.252,2182.412477
1 Dec 2019 17:38:32.000,88.473,1.215,2186.374352
1 Dec 2019 17:38:33.000,88.315,1.177,2190.351596
1 Dec 2019 17:38:34.000,88.157,1.139,2194.344120
1 Dec 2019 17:38:35.000,88.000,1.102,2198.351843
1 Dec 2019 17:38:36.000,87.844,1.064,2202.374673
1 Dec 2019 17:38:37.000,87.688,1.026,2206.412520
1 Dec 2019 17:38:38.000,87.533,0.988,2210.465305
1 Dec 2019 17:38:39.000,87.378,0.950,2214.532937
1 Dec 2019 17:38:40.000,87.225,0.912,2218.615328
1 Dec 2019 17:38:41.000,87.071,0.874,2222.712397
1 Dec 2019 17:38:42.000,86.918,0.836,2226.824057
1 Dec 2019 17:38:43.000,86.766,0.797,2230.950219
1 Dec 2019 17:38:44.000,86.614,0.759,2235.090804
1 Dec 2019 17:38:45.000,86.463,0.721,2239.245721
1 Dec 2019 17:38:46.000,86.313,0.682,2243.414894
1 Dec 2019 17:38:47.000,86.163,0.644,2247.598234
1 Dec 2019 17:38:48.000,86.014,0.605,2251.795655
1 Dec 2019 17:38:49.000,85.865,0.567,2256.007080
1 Dec 2019 17:38:50.000,85.716,0.528,2260.232420
1 Dec 2019 17:38:51.000,85.569,0.489,2264.471599
1 Dec 2019 17:38:52.000,85.422,0.450,2268.724531
1 Dec 2019 17:38:53.000,85.275,0.412,2272.991131
1 Dec 2019 17:38:54.000,85.129,0.373,2277.271325
1 Dec 2019 17:38:55.000,84.984,0.334,2281.565024
1 Dec 2019 17:38:56.000,84.839,0.295,2285.872154
1 Dec 2019 17:38:57.000,84.695,0.256,2290.192632
1 Dec 2019 17:38:58.000,84.551,0.217,2294.526373
1 Dec 2019 17:38:59.000,84.408,0.178,2298.873306
1 Dec 2019 17:39:00.000,84.265,0.139,2303.233343
1 Dec 2019 17:39:01.000,84.123,0.099,2307.606412
1 Dec 2019 17:39:02.000,83.981,0.060,2311.992428
1 Dec 2019 17:39:03.000,83.840,0.021,2316.391319
1 Dec 2019 17:39:04.000,83.700,-0.018,2320.803001
1 Dec 2019 17:39:05.000,83.560,-0.058,2325.227402
1 Dec 2019 17:39:06.000,83.421,-0.097,2329.664438
1 Dec 2019 17:39:06.680,83.326,-0.124,2332.689934
1 Dec 2019 19:06:11.071,223.755,-0.124,2321.012529
1 Dec 2019 19:06:12.000,223.748,-0.067,2314.584249
1 Dec 2019 19:06:13.000,223.739,-0.004,2307.662466
1 Dec 2019 19:06:14.000,223.731,0.058,2300.740759
1 Dec 2019 19:06:15.000,223.723,0.121,2293.819142
1 Dec 2019 19:06:16.000,223.714,0.184,2286.897622
1 Dec 2019 19:06:17.000,223.705,0.247,2279.976207
1 Dec 2019 19:06:18.000,223.697,0.310,2273.054904
1 Dec 2019 19:06:19.000,223.688,0.374,2266.133729
1 Dec 2019 19:06:20.000,223.679,0.438,2259.212686
1 Dec 2019 19:06:21.000,223.670,0.502,2252.291784
1 Dec 2019 19:06:22.000,223.662,0.566,2245.371038
1 Dec 2019 19:06:23.000,223.653,0.630,2238.450453
1 Dec 2019 19:06:24.000,223.644,0.695,2231.530038
1 Dec 2019 19:06:25.000,223.634,0.759,2224.609806
1 Dec 2019 19:06:26.000,223.625,0.824,2217.689767
1 Dec 2019 19:06:27.000,223.616,0.889,2210.769926
1 Dec 2019 19:06:28.000,223.607,0.955,2203.850300
1 Dec 2019 19:06:29.000,223.597,1.020,2196.930896
1 Dec 2019 19:06:30.000,223.588,1.086,2190.011724
1 Dec 2019 19:06:31.000,223.578,1.152,2183.092793
1 Dec 2019 19:06:32.000,223.569,1.218,2176.174117
1 Dec 2019 19:06:33.000,223.559,1.285,2169.255705
1 Dec 2019 19:06:34.000,223.549,1.351,2162.337565
1 Dec 2019 19:06:35.000,223.540,1.418,2155.419714
1 Dec 2019 19:06:36.000,223.530,1.486,2148.502159
1 Dec 2019 19:06:37.000,223.520,1.553,2141.584908
1 Dec 2019 19:06:38.000,223.510,1.621,2134.667980
1 Dec 2019 19:06:39.000,223.500,1.688,2127.751381
1 Dec 2019 19:06:40.000,223.489,1.756,2120.835122
1 Dec 2019 19:06:41.000,223.479,1.825,2113.919218
1 Dec 2019 19:06:42.000,223.469,1.893,2107.003679
1 Dec 2019 19:06:43.000,223.458,1.962,2100.088517
1 Dec 2019 19:06:44.000,223.448,2.031,2093.173741
1 Dec 2019 19:06:45.000,223.437,2.100,2086.259368
1 Dec 2019 19:06:46.000,223.426,2.170,2079.345408
1 Dec 2019 19:06:47.000,223.416,2.240,2072.431870
1 Dec 2019 19:06:48.000,223.405,2.310,2065.518773
1 Dec 2019 19:06:49.000,223.394,2.380,2058.606127
1 Dec 2019 19:06:50.000,223.383,2.451,2051.693941
1 Dec 2019 19:06:51.000,223.372,2.522,2044.782233
1 Dec 2019 19:06:52.000,223.361,2.593,2037.871015
1 Dec 2019 19:06:53.000,223.349,2.664,2030.960296
1 Dec 2019 19:06:54.000,223.338,2.736,2024.050095
1 Dec 2019 19:06:55.000,223.327,2.808,2017.140424
1 Dec 2019 19:06:56.000,223.315,2.880,2010.231295
1 Dec 2019 19:06:57.000,223.303,2.953,2003.322720
1 Dec 2019 19:06:58.000,223.292,3.026,1996.414719
1 Dec 2019 19:06:59.000,223.280,3.099,1989.507302
1 Dec 2019 19:07:00.000,223.268,3.172,1982.600482
1 Dec 2019 19:07:01.000,223.256,3.246,1975.694278
1 Dec 2019 19:07:02.000,223.244,3.320,1968.788702
1 Dec 2019 19:07:03.000,223.231,3.394,1961.883766
1 Dec 2019 19:07:04.000,223.219,3.469,1954.979491
1 Dec 2019 19:07:05.000,223.207,3.543,1948.075889
1 Dec 2019 19:07:06.000,223.194,3.619,1941.172976
1 Dec 2019 19:07:07.000,223.181,3.694,1934.270764
1 Dec 2019 19:07:08.000,223.169,3.770,1927.369275
1 Dec 2019 19:07:09.000,223.156,3.846,1920.468522
1 Dec 2019 19:07:10.000,223.143,3.923,1913.568518
1 Dec 2019 19:07:11.000,223.130,3.999,1906.669285
1 Dec 2019 19:07:12.000,223.117,4.077,1899.770837
1 Dec 2019 19:07:13.000,223.103,4.154,1892.873188
1 Dec 2019 19:07:14.000,223.090,4.232,1885.976360
1 Dec 2019 19:07:15.000,223.076,4.310,1879.080368
1 Dec 2019 19:07:16.000,223.063,4.388,1872.185229
1 Dec 2019 19:07:17.000,223.049,4.467,1865.290959
1 Dec 2019 19:07:18.000,223.035,4.546,1858.397580
1 Dec 2019 19:07:19.000,223.021,4.626,1851.505108
1 Dec 2019 19:07:20.000,223.007,4.706,1844.613559
1 Dec 2019 19:07:21.000,222.993,4.786,1837.722956
1 Dec 2019 19:07:22.000,222.978,4.867,1830.833315
1 Dec 2019 19:07:23.000,222.964,4.948,1823.944654
1 Dec 2019 19:07:24.000,222.949,5.029,1817.056996
1 Dec 2019 19:07:25.000,222.934,5.111,1810.170359
1 Dec 2019 19:07:26.000,222.920,5.193,1803.284763
1 Dec 2019 19:07:27.000,222.905,5.276,1796.400225
1 Dec 2019 19:07:28.000,222.889,5.359,1789.516770
1 Dec 2019 19:07:29.000,222.874,5.442,1782.634417
1 Dec 2019 19:07:30.000,222.859,5.526,1775.753184
1 Dec 2019 19:07:31.000,222.843,5.610,1768.873097
1 Dec 2019 19:07:32.000,222.827,5.694,1761.994177
1 Dec 2019 19:07:33.000,222.812,5.779,1755.116441
1 Dec 2019 19:07:34.000,222.796,5.865,1748.239917
1 Dec 2019 19:07:35.000,222.780,5.951,1741.364625
1 Dec 2019 19:07:36.000,222.763,6.037,1734.490587
1 Dec 2019 19:07:37.000,222.747,6.124,1727.617826
1 Dec 2019 19:07:38.000,222.730,6.211,1720.746368
1 Dec 2019 19:07:39.000,222.714,6.298,1713.876235
1 Dec 2019 19:07:40.000,222.697,6.386,1707.007450
1 Dec 2019 19:07:41.000,222.680,6.475,1700.140040
1 Dec 2019 19:07:42.000,222.662,6.564,1693.274029
1 Dec 2019 19:07:43.000,222.645,6.653,1686.409443
1 Dec 2019 19:07:44.000,222.627,6.743,1679.546303
1 Dec 2019 19:07:45.000,222.610,6.834,1672.684641
1 Dec 2019 19:07:46.000,222.592,6.925,1665.824481
1 Dec 2019 19:07:47.000,222.574,7.016,1658.965847
1 Dec 2019 19:07:48.000,222.556,7.108,1652.108772
1 Dec 2019 19:07:49.000,222.537,7.200,1645.253279
1 Dec 2019 19:07:50.000,222.519,7.293,1638.399398
1 Dec 2019 19:07:51.000,222.500,7.386,1631.547155
1 Dec 2019 19:07:52.000,222.481,7.480,1624.696582
1 Dec 2019 19:07:53.000,222.462,7.575,1617.847707
1 Dec 2019 19:07:54.000,222.443,7.670,1611.000558
1 Dec 2019 19:07:55.000,222.423,7.765,1604.155169
1 Dec 2019 19:07:56.000,222.403,7.861,1597.311568
1 Dec 2019 19:07:57.000,222.383,7.958,1590.469788
1 Dec 2019 19:07:58.000,222.363,8.055,1583.629856
1 Dec 2019 19:07:59.000,222.343,8.153,1576.791811
1 Dec 2019 19:08:00.000,222.323,8.251,1569.955682
1 Dec 2019 19:08:01.000,222.302,8.350,1563.121500
1 Dec 2019 19:08:02.000,222.281,8.450,1556.289304
1 Dec 2019 19:08:03.000,222.260,8.550,1549.459126
1 Dec 2019 19:08:04.000,222.239,8.651,1542.631000
1 Dec 2019 19:08:05.000,222.217,8.752,1535.804960
1 Dec 2019 19:08:06.000,222.195,8.854,1528.981047
1 Dec 2019 19:08:07.000,222.173,8.957,1522.159294
1 Dec 2019 19:08:08.000,222.151,9.060,1515.339737
1 Dec 2019 19:08:09.000,222.128,9.164,1508.522418
1 Dec 2019 19:08:10.000,222.106,9.268,1501.707374
1 Dec 2019 19:08:11.000,222.083,9.374,1494.894643
1 Dec 2019 19:08:12.000,222.060,9.479,1488.084264
1 Dec 2019 19:08:13.000,222.036,9.586,1481.276280
1 Dec 2019 19:08:14.000,222.013,9.693,1474.470732
1 Dec 2019 19:08:15.000,221.989,9.801,1467.667661
1 Dec 2019 19:08:16.000,221.964,9.910,1460.867107
1 Dec 2019 19:08:17.000,221.940,10.019,1454.069119
1 Dec 2019 19:08:18.000,221.915,10.129,1447.273738
1 Dec 2019 19:08:19.000,221.890,10.240,1440.481009
1 Dec 2019 19:08:20.000,221.865,10.352,1433.690976
1 Dec 2019 19:08:21.000,221.839,10.464,1426.903690
1 Dec 2019 19:08:22.000,221.814,10.578,1420.119195
1 Dec 2019 19:08:23.000,221.787,10.692,1413.337538
1 Dec 2019 19:08:24.000,221.761,10.806,1406.558773
1 Dec 2019 19:08:25.000,221.734,10.922,1399.782947
1 Dec 2019 19:08:26.000,221.707,11.038,1393.010111
1 Dec 2019 19:08:27.000,221.680,11.155,1386.240315
1 Dec 2019 19:08:28.000,221.652,11.273,1379.473615
1 Dec 2019 19:08:29.000,221.624,11.392,1372.710064
1 Dec 2019 19:08:30.000,221.596,11.512,1365.949716
1 Dec 2019 19:08:31.000,221.568,11.633,1359.192625
1 Dec 2019 19:08:32.000,221.539,11.754,1352.438852
1 Dec 2019 19:08:33.000,221.509,11.877,1345.688453
1 Dec 2019 19:08:34.000,221.480,12.000,1338.941486
1 Dec 2019 19:08:35.000,221.450,12.124,1332.198010
1 Dec 2019 19:08:36.000,221.420,12.249,1325.458090
1 Dec 2019 19:08:37.000,221.389,12.376,1318.721787
1 Dec 2019 19:08:38.000,221.358,12.503,1311.989164
1 Dec 2019 19:08:39.000,221.326,12.631,1305.260284
1 Dec 2019 19:08:40.000,221.295,12.760,1298.535218
1 Dec 2019 19:08:41.000,221.262,12.890,1291.814030
1 Dec 2019 19:08:42.000,221.230,13.021,1285.096790
1 Dec 2019 19:08:43.000,221.197,13.153,1278.383565
1 Dec 2019 19:08:44.000,221.164,13.287,1271.674431
1 Dec 2019 19:08:45.000,221.130,13.421,1264.969460
1 Dec 2019 19:08:46.000,221.095,13.556,1258.268726
1 Dec 2019 19:08:47.000,221.061,13.693,1251.572302
1 Dec 2019 19:08:48.000,221.026,13.831,1244.880270
1 Dec 2019 19:08:49.000,220.990,13.969,1238.192707
1 Dec 2019 19:08:50.000,220.954,14.109,1231.509695
1 Dec 2019 19:08:51.000,220.918,14.251,1224.831314
1 Dec 2019 19:08:52.000,220.881,14.393,1218.157648
1 Dec 2019 19:08:53.000,220.843,14.536,1211.488786
1 Dec 2019 19:08:54.000,220.806,14.681,1204.824813
1 Dec 2019 19:08:55.000,220.767,14.827,1198.165820
1 Dec 2019 19:08:56.000,220.728,14.975,1191.511895
1 Dec 2019 19:08:57.000,220.689,15.123,1184.863136
1 Dec 2019 19:08:58.000,220.649,15.273,1178.219636
1 Dec 2019 19:08:59.000,220.608,15.424,1171.581492
1 Dec 2019 19:09:00.000,220.567,15.577,1164.948804
1 Dec 2019 19:09:01.000,220.526,15.731,1158.321671
1 Dec 2019 19:09:02.000,220.484,15.886,1151.700201
1 Dec 2019 19:09:03.000,220.441,16.043,1145.084499
1 Dec 2019 19:09:04.000,220.398,16.201,1138.474671
1 Dec 2019 19:09:05.000,220.354,16.361,1131.870829
1 Dec 2019 19:09:06.000,220.309,16.522,1125.273084
1 Dec 2019 19:09:07.000,220.264,16.685,1118.681557
1 Dec 2019 19:09:08.000,220.218,16.850,1112.096362
1 Dec 2019 19:09:09.000,220.172,17.015,1105.517622
1 Dec 2019 19:09:10.000,220.125,17.183,1098.945459
1 Dec 2019 19:09:11.000,220.077,17.352,1092.379998
1 Dec 2019 19:09:12.000,220.028,17.523,1085.821372
1 Dec 2019 19:09:13.000,219.979,17.695,1079.269713
1 Dec 2019 19:09:14.000,219.929,17.869,1072.725154
1 Dec 2019 19:09:15.000,219.878,18.045,1066.187835
1 Dec 2019 19:09:16.000,219.827,18.223,1059.657895
1 Dec 2019 19:09:17.000,219.775,18.402,1053.135484
1 Dec 2019 19:09:18.000,219.722,18.583,1046.620747
1 Dec 2019 19:09:19.000,219.668,18.767,1040.113836
1 Dec 2019 19:09:20.000,219.613,18.952,1033.614907
1 Dec 2019 19:09:21.000,219.558,19.139,1027.124120
1 Dec 2019 19:09:22.000,219.501,19.327,1020.641634
1 Dec 2019 19:09:23.000,219.444,19.518,1014.167621
1 Dec 2019 19:09:24.000,219.386,19.711,1007.702250
1 Dec 2019 19:09:25.000,219.327,19.906,1001.245696
1 Dec 2019 19:09:26.000,219.267,20.103,994.798137
1 Dec 2019 19:09:27.000,219.206,20.303,988.359758
1 Dec 2019 19:09:28.000,219.144,20.504,981.930745
1 Dec 2019 19:09:29.000,219.081,20.708,975.511294
1 Dec 2019 19:09:30.000,219.016,20.913,969.101601
1 Dec 2019 19:09:31.000,218.951,21.122,962.701869
1 Dec 2019 19:09:32.000,218.885,21.332,956.312304
1 Dec 2019 19:09:33.000,218.818,21.545,949.933120
1 Dec 2019 19:09:34.000,218.749,21.760,943.564535
1 Dec 2019 19:09:35.000,218.680,21.978,937.206771
1 Dec 2019 19:09:36.000,218.609,22.198,930.860057
1 Dec 2019 19:09:37.000,218.537,22.421,924.524631
1 Dec 2019 19:09:38.000,218.463,22.646,918.200732
1 Dec 2019 19:09:39.000,218.389,22.875,911.888608
1 Dec 2019 19:09:40.000,218.313,23.105,905.588513
1 Dec 2019 19:09:41.000,218.235,23.339,899.300705
1 Dec 2019 19:09:42.000,218.156,23.575,893.025453
1 Dec 2019 19:09:43.000,218.076,23.814,886.763030
1 Dec 2019 19:09:44.000,217.994,24.056,880.513717
1 Dec 2019 19:09:45.000,217.911,24.301,874.277803
1 Dec 2019 19:09:46.000,217.826,24.549,868.055581
1 Dec 2019 19:09:47.000,217.740,24.801,861.847360
1 Dec 2019 19:09:48.000,217.652,25.055,855.653450
1 Dec 2019 19:09:49.000,217.562,25.312,849.474170
1 Dec 2019 19:09:50.000,217.471,25.573,843.309850
1 Dec 2019 19:09:51.000,217.377,25.837,837.160828
1 Dec 2019 19:09:52.000,217.282,26.104,831.027449
1 Dec 2019 19:09:53.000,217.185,26.375,824.910071
1 Dec 2019 19:09:54.000,217.086,26.649,818.809058
1 Dec 2019 19:09:55.000,216.985,26.927,812.724788
1 Dec 2019 19:09:56.000,216.882,27.209,806.657644
1 Dec 2019 19:09:57.000,216.777,27.494,800.608025
1 Dec 2019 19:09:58.000,216.669,27.783,794.576337
1 Dec 2019 19:09:59.000,216.560,28.076,788.562999
1 Dec 2019 19:10:00.000,216.448,28.372,782.568440
1 Dec 2019 19:10:01.000,216.333,28.673,776.593103
1 Dec 2019 19:10:02.000,216.216,28.978,770.637442
1 Dec 2019 19:10:03.000,216.097,29.287,764.701924
1 Dec 2019 19:10:04.000,215.975,29.600,758.787027
1 Dec 2019 19:10:05.000,215.850,29.917,752.893245
1 Dec 2019 19:10:06.000,215.722,30.239,747.021085
1 Dec 2019 19:10:07.000,215.591,30.565,741.171067
1 Dec 2019 19:10:08.000,215.457,30.896,735.343726
1 Dec 2019 19:10:09.000,215.320,31.231,729.539613
1 Dec 2019 19:10:10.000,215.180,31.571,723.759294
1 Dec 2019 19:10:11.000,215.037,31.916,718.003349
1 Dec 2019 19:10:12.000,214.890,32.266,712.272376
1 Dec 2019 19:10:13.000,214.739,32.621,706.566991
1 Dec 2019 19:10:14.000,214.585,32.980,700.887823
1 Dec 2019 19:10:15.000,214.427,33.345,695.235521
1 Dec 2019 19:10:16.000,214.265,33.715,689.610754
1 Dec 2019 19:10:17.000,214.099,34.091,684.014206
1 Dec 2019 19:10:18.000,213.928,34.472,678.446584
1 Dec 2019 19:10:19.000,213.753,34.858,672.908610
1 Dec 2019 19:10:20.000,213.573,35.250,667.401030
1 Dec 2019 19:10:21.000,213.389,35.648,661.924611
1 Dec 2019 19:10:22.000,213.199,36.051,656.480135
1 Dec 2019 19:10:23.000,213.004,36.460,651.068411
1 Dec 2019 19:10:24.000,212.804,36.876,645.690269
1 Dec 2019 19:10:25.000,212.598,37.297,640.346562
1 Dec 2019 19:10:26.000,212.387,37.724,635.038166
1 Dec 2019 19:10:27.000,212.169,38.158,629.765978
1 Dec 2019 19:10:28.000,211.944,38.598,624.530922
1 Dec 2019 19:10:29.000,211.713,39.045,619.333945
1 Dec 2019 19:10:30.000,211.475,39.498,614.176023
1 Dec 2019 19:10:31.000,211.230,39.957,609.058149
1 Dec 2019 19:10:32.000,210.977,40.423,603.981350
1 Dec 2019 19:10:33.000,210.716,40.896,598.946675
1 Dec 2019 19:10:34.000,210.447,41.376,593.955203
1 Dec 2019 19:10:35.000,210.169,41.863,589.008036
1 Dec 2019 19:10:36.000,209.882,42.356,584.106307
1 Dec 2019 19:10:37.000,209.586,42.857,579.251173
1 Dec 2019 19:10:38.000,209.279,43.364,574.443822
1 Dec 2019 19:10:39.000,208.962,43.879,569.685470
1 Dec 2019 19:10:40.000,208.634,44.401,564.977359
1 Dec 2019 19:10:41.000,208.294,44.930,560.320763
1 Dec 2019 19:10:42.000,207.942,45.466,555.716979
1 Dec 2019 19:10:43.000,207.577,46.010,551.167338
1 Dec 2019 19:10:44.000,207.199,46.561,546.673198
1 Dec 2019 19:10:45.000,206.806,47.119,542.235941
1 Dec 2019 19:10:46.000,206.399,47.684,537.856982
1 Dec 2019 19:10:47.000,205.975,48.256,533.537761
1 Dec 2019 19:10:48.000,205.535,48.835,529.279745
1 Dec 2019 19:10:49.000,205.077,49.421,525.084428
1 Dec 2019 19:10:50.000,204.600,50.015,520.953328
1 Dec 2019 19:10:51.000,204.103,50.615,516.887992
1 Dec 2019 19:10:52.000,203.586,51.221,512.889988
1 Dec 2019 19:10:53.000,203.046,51.834,508.960904
1 Dec 2019 19:10:54.000,202.482,52.454,505.102357
1 Dec 2019 19:10:55.000,201.893,53.080,501.315977
1 Dec 2019 19:10:56.000,201.278,53.711,497.603417
1 Dec 2019 19:10:57.000,200.634,54.348,493.966346
1 Dec 2019 19:10:58.000,199.960,54.990,490.406446
1 Dec 2019 19:10:59.000,199.254,55.637,486.925415
1 Dec 2019 19:11:00.000,198.514,56.288,483.524960
1 Dec 2019 19:11:01.000,197.737,56.943,480.206796
1 Dec 2019 19:11:02.000,196.921,57.602,476.972644
1 Dec 2019 19:11:03.000,196.063,58.263,473.824228
1 Dec 2019 19:11:04.000,195.161,58.927,470.763272
1 Dec 2019 19:11:05.000,194.211,59.592,467.791496
1 Dec 2019 19:11:06.000,193.210,60.257,464.910613
1 Dec 2019 19:11:07.000,192.154,60.922,462.122327
1 Dec 2019 19:11:08.000,191.041,61.586,459.428326
1 Dec 2019 19:11:09.000,189.865,62.248,456.830281
1 Dec 2019 19:11:10.000,188.623,62.906,454.329842
1 Dec 2019 19:11:11.000,187.309,63.558,451.928630
1 Dec 2019 19:11:12.000,185.920,64.205,449.628238
1 Dec 2019 19:11:13.000,184.450,64.843,447.430225
1 Dec 2019 19:11:14.000,182.894,65.472,445.336107
1 Dec 2019 19:11:15.000,181.247,66.089,443.347360
1 Dec 2019 19:11:16.000,179.504,66.692,441.465409
1 Dec 2019 19:11:17.000,177.659,67.280,439.691628
1 Dec 2019 19:11:18.000,175.707,67.849,438.027332
1 Dec 2019 19:11:19.000,173.645,68.397,436.473776
1 Dec 2019 19:11:20.000,171.468,68.922,435.032148
1 Dec 2019 19:11:21.000,169.173,69.420,433.703565
1 Dec 2019 19:11:22.000,166.758,69.889,432.489070
1 Dec 2019 19:11:23.000,164.223,70.325,431.389628
1 Dec 2019 19:11:24.000,161.569,70.725,430.406121
1 Dec 2019 19:11:25.000,158.800,71.087,429.539348
1 Dec 2019 19:11:26.000,155.923,71.407,428.790015
1 Dec 2019 19:11:27.000,152.946,71.683,428.158742
1 Dec 2019 19:11:28.000,149.880,71.911,427.646050
1 Dec 2019 19:11:29.000,146.741,72.089,427.252368
1 Dec 2019 19:11:30.000,143.544,72.217,426.978023
1 Dec 2019 19:11:31.000,140.309,72.291,426.823247
1 Dec 2019 19:11:32.000,137.055,72.311,426.788170
1 Dec 2019 19:11:33.000,133.804,72.278,426.872821
1 Dec 2019 19:11:34.000,130.577,72.191,427.077127
1 Dec 2019 19:11:35.000,127.393,72.052,427.400918
1 Dec 2019 19:11:36.000,124.271,71.861,427.843919
1 Dec 2019 19:11:37.000,121.226,71.622,428.405763
1 Dec 2019 19:11:38.000,118.273,71.336,429.085981
1 Dec 2019 19:11:39.000,115.423,71.006,429.884008
1 Dec 2019 19:11:40.000,112.683,70.635,430.799191
1 Dec 2019 19:11:41.000,110.059,70.226,431.830780
1 Dec 2019 19:11:42.000,107.554,69.782,432.977946
1 Dec 2019 19:11:43.000,105.170,69.307,434.239768
1 Dec 2019 19:11:44.000,102.905,68.803,435.615248
1 Dec 2019 19:11:45.000,100.757,68.273,437.103313
1 Dec 2019 19:11:46.000,98.723,67.721,438.702814
1 Dec 2019 19:11:47.000,96.799,67.148,440.412535
1 Dec 2019 19:11:48.000,94.981,66.558,442.231194
1 Dec 2019 19:11:49.000,93.262,65.952,444.157451
1 Dec 2019 19:11:50.000,91.639,65.333,446.189912
1 Dec 2019 19:11:51.000,90.105,64.703,448.327127
1 Dec 2019 19:11:52.000,88.656,64.064,450.567603
1 Dec 2019 19:11:53.000,87.287,63.418,452.909806
1 Dec 2019 19:11:54.000,85.992,62.765,455.352164
1 Dec 2019 19:11:55.000,84.767,62.108,457.893067
1 Dec 2019 19:11:56.000,83.607,61.447,460.530884
1 Dec 2019 19:11:57.000,82.509,60.785,463.263954
1 Dec 2019 19:11:58.000,81.467,60.121,466.090600
1 Dec 2019 19:11:59.000,80.480,59.457,469.009125
1 Dec 2019 19:12:00.000,79.542,58.794,472.017821
1 Dec 2019 19:12:01.000,78.652,58.133,475.114972
1 Dec 2019 19:12:02.000,77.805,57.474,478.298855
1 Dec 2019 19:12:03.000,76.999,56.818,481.567745
1 Dec 2019 19:12:04.000,76.231,56.165,484.919920
1 Dec 2019 19:12:05.000,75.500,55.517,488.353660
1 Dec 2019 19:12:06.000,74.802,54.873,491.867252
1 Dec 2019 19:12:07.000,74.136,54.234,495.458992
1 Dec 2019 19:12:08.000,73.500,53.600,499.127191
1 Dec 2019 19:12:09.000,72.892,52.972,502.870169
1 Dec 2019 19:12:10.000,72.310,52.349,506.686266
1 Dec 2019 19:12:11.000,71.752,51.733,510.573833
1 Dec 2019 19:12:12.000,71.218,51.123,514.531251
1 Dec 2019 19:12:13.000,70.706,50.520,518.556914
1 Dec 2019 19:12:14.000,70.215,49.924,522.649236
1 Dec 2019 19:12:15.000,69.743,49.334,526.806665
1 Dec 2019 19:12:16.000,69.290,48.751,531.027663
1 Dec 2019 19:12:17.000,68.854,48.175,535.310718
1 Dec 2019 19:12:18.000,68.435,47.606,539.654353
1 Dec 2019 19:12:19.000,68.031,47.045,544.057107
1 Dec 2019 19:12:20.000,67.642,46.490,548.517555
1 Dec 2019 19:12:21.000,67.267,45.943,553.034291
1 Dec 2019 19:12:22.000,66.906,45.403,557.605946
1 Dec 2019 19:12:23.000,66.557,44.870,562.231169
1 Dec 2019 19:12:24.000,66.221,44.344,566.908650
1 Dec 2019 19:12:25.000,65.896,43.825,571.637094
1 Dec 2019 19:12:26.000,65.581,43.314,576.415247
1 Dec 2019 19:12:27.000,65.277,42.810,581.241871
1 Dec 2019 19:12:28.000,64.984,42.312,586.115765
1 Dec 2019 19:12:29.000,64.699,41.822,591.035757
1 Dec 2019 19:12:30.000,64.424,41.338,596.000694
1 Dec 2019 19:12:31.000,64.157,40.862,601.009458
1 Dec 2019 19:12:32.000,63.898,40.392,606.060959
1 Dec 2019 19:12:33.000,63.648,39.929,611.154126
1 Dec 2019 19:12:34.000,63.404,39.472,616.287923
1 Dec 2019 19:12:35.000,63.168,39.022,621.461338
1 Dec 2019 19:12:36.000,62.939,38.578,626.673378
1 Dec 2019 19:12:37.000,62.717,38.141,631.923085
1 Dec 2019 19:12:38.000,62.501,37.710,637.209521
1 Dec 2019 19:12:39.000,62.291,37.286,642.531775
1 Dec 2019 19:12:40.000,62.087,36.867,647.888953
1 Dec 2019 19:12:41.000,61.888,36.454,653.280192
1 Dec 2019 19:12:42.000,61.695,36.048,658.704649
1 Dec 2019 19:12:43.000,61.507,35.647,664.161505
1 Dec 2019 19:12:44.000,61.324,35.252,669.649957
1 Dec 2019 19:12:45.000,61.145,34.862,675.169231
1 Dec 2019 19:12:46.000,60.972,34.478,680.718569
1 Dec 2019 19:12:47.000,60.802,34.100,686.297236
1 Dec 2019 19:12:48.000,60.638,33.727,691.904515
1 Dec 2019 19:12:49.000,60.477,33.359,697.539709
1 Dec 2019 19:12:50.000,60.320,32.996,703.202144
1 Dec 2019 19:12:51.000,60.167,32.639,708.891154
1 Dec 2019 19:12:52.000,60.017,32.286,714.606100
1 Dec 2019 19:12:53.000,59.872,31.939,720.346358
1 Dec 2019 19:12:54.000,59.729,31.596,726.111320
1 Dec 2019 19:12:55.000,59.590,31.258,731.900396
1 Dec 2019 19:12:56.000,59.455,30.925,737.713011
1 Dec 2019 19:12:57.000,59.322,30.596,743.548606
1 Dec 2019 19:12:58.000,59.192,30.271,749.406637
1 Dec 2019 19:12:59.000,59.066,29.952,755.286574
1 Dec 2019 19:13:00.000,58.942,29.636,761.187904
1 Dec 2019 19:13:01.000,58.820,29.325,767.110124
1 Dec 2019 19:13:02.000,58.702,29.018,773.052748
1 Dec 2019 19:13:03.000,58.586,28.715,779.015301
1 Dec 2019 19:13:04.000,58.472,28.416,784.997322
1 Dec 2019 19:13:05.000,58.361,28.121,790.998362
1 Dec 2019 19:13:06.000,58.252,27.830,797.017985
1 Dec 2019 19:13:07.000,58.146,27.543,803.055764
1 Dec 2019 19:13:08.000,58.041,27.259,809.111287
1 Dec 2019 19:13:09.000,57.939,26.979,815.184150
1 Dec 2019 19:13:10.000,57.839,26.703,821.273961
1 Dec 2019 19:13:11.000,57.741,26.430,827.380340
1 Dec 2019 19:13:12.000,57.645,26.161,833.502913
1 Dec 2019 19:13:13.000,57.550,25.895,839.641319
1 Dec 2019 19:13:14.000,57.458,25.632,845.795207
1 Dec 2019 19:13:15.000,57.367,25.373,851.964234
1 Dec 2019 19:13:16.000,57.278,25.117,858.148064
1 Dec 2019 19:13:17.000,57.191,24.864,864.346374
1 Dec 2019 19:13:18.000,57.105,24.614,870.558846
1 Dec 2019 19:13:19.000,57.021,24.368,876.785172
1 Dec 2019 19:13:20.000,56.939,24.124,883.025051
1 Dec 2019 19:13:21.000,56.858,23.883,889.278190
1 Dec 2019 19:13:22.000,56.778,23.645,895.544301
1 Dec 2019 19:13:23.000,56.700,23.410,901.823112
1 Dec 2019 19:13:24.000,56.624,23.178,908.114349
1 Dec 2019 19:13:25.000,56.548,22.948,914.417748
1 Dec 2019 19:13:26.000,56.474,22.721,920.733051
1 Dec 2019 19:13:27.000,56.402,22.497,927.060008
1 Dec 2019 19:13:28.000,56.330,22.275,933.398373
1 Dec 2019 19:13:29.000,56.260,22.056,939.747909
1 Dec 2019 19:13:30.000,56.191,21.840,946.108382
1 Dec 2019 19:13:31.000,56.123,21.625,952.479564
1 Dec 2019 19:13:32.000,56.057,21.414,958.861238
1 Dec 2019 19:13:33.000,55.991,21.204,965.253186
1 Dec 2019 19:13:34.000,55.927,20.997,971.655198
1 Dec 2019 19:13:35.000,55.863,20.792,978.067067
1 Dec 2019 19:13:36.000,55.801,20.589,984.488595
1 Dec 2019 19:13:37.000,55.740,20.389,990.919584
1 Dec 2019 19:13:38.000,55.679,20.191,997.359845
1 Dec 2019 19:13:39.000,55.620,19.995,1003.809189
1 Dec 2019 19:13:40.000,55.561,19.800,1010.267438
1 Dec 2019 19:13:41.000,55.504,19.608,1016.734414
1 Dec 2019 19:13:42.000,55.447,19.418,1023.209942
1 Dec 2019 19:13:43.000,55.392,19.230,1029.693854
1 Dec 2019 19:13:44.000,55.337,19.044,1036.185984
1 Dec 2019 19:13:45.000,55.283,18.860,1042.686168
1 Dec 2019 19:13:46.000,55.230,18.678,1049.194254
1 Dec 2019 19:13:47.000,55.177,18.497,1055.710086
1 Dec 2019 19:13:48.000,55.126,18.319,1062.233512
1 Dec 2019 19:13:49.000,55.075,18.142,1068.764387
1 Dec 2019 19:13:50.000,55.025,17.967,1075.302566
1 Dec 2019 19:13:51.000,54.975,17.793,1081.847907
1 Dec 2019 19:13:52.000,54.927,17.622,1088.400277
1 Dec 2019 19:13:53.000,54.879,17.452,1094.959541
1 Dec 2019 19:13:54.000,54.832,17.283,1101.525566
1 Dec 2019 19:13:55.000,54.785,17.117,1108.098226
1 Dec 2019 19:13:56.000,54.740,16.951,1114.677390
1 Dec 2019 19:13:57.000,54.694,16.788,1121.262944
1 Dec 2019 19:13:58.000,54.650,16.626,1127.854764
1 Dec 2019 19:13:59.000,54.606,16.465,1134.452734
1 Dec 2019 19:14:00.000,54.563,16.306,1141.056737
1 Dec 2019 19:14:01.000,54.520,16.148,1147.666660
1 Dec 2019 19:14:02.000,54.478,15.992,1154.282399
1 Dec 2019 19:14:03.000,54.436,15.837,1160.903843
1 Dec 2019 19:14:04.000,54.396,15.684,1167.530887
1 Dec 2019 19:14:05.000,54.355,15.532,1174.163429
1 Dec 2019 19:14:06.000,54.315,15.381,1180.801364
1 Dec 2019 19:14:07.000,54.276,15.232,1187.444601
1 Dec 2019 19:14:08.000,54.237,15.084,1194.093040
1 Dec 2019 19:14:09.000,54.199,14.937,1200.746586
1 Dec 2019 19:14:10.000,54.161,14.792,1207.405145
1 Dec 2019 19:14:11.000,54.124,14.647,1214.068631
1 Dec 2019 19:14:12.000,54.087,14.504,1220.736952
1 Dec 2019 19:14:13.000,54.051,14.363,1227.410023
1 Dec 2019 19:14:14.000,54.015,14.222,1234.087758
1 Dec 2019 19:14:15.000,53.980,14.083,1240.770071
1 Dec 2019 19:14:16.000,53.945,13.944,1247.456885
1 Dec 2019 19:14:17.000,53.911,13.807,1254.148118
1 Dec 2019 19:14:18.000,53.877,13.671,1260.843692
1 Dec 2019 19:14:19.000,53.843,13.536,1267.543527
1 Dec 2019 19:14:20.000,53.810,13.402,1274.247554
1 Dec 2019 19:14:21.000,53.777,13.270,1280.955694
1 Dec 2019 19:14:22.000,53.745,13.138,1287.667878
1 Dec 2019 19:14:23.000,53.713,13.007,1294.384029
1 Dec 2019 19:14:24.000,53.682,12.877,1301.104085
1 Dec 2019 19:14:25.000,53.651,12.749,1307.827975
1 Dec 2019 19:14:26.000,53.620,12.621,1314.555631
1 Dec 2019 19:14:27.000,53.590,12.494,1321.286989
1 Dec 2019 19:14:28.000,53.560,12.369,1328.021980
1 Dec 2019 19:14:29.000,53.530,12.244,1334.760547
1 Dec 2019 19:14:30.000,53.501,12.120,1341.502627
1 Dec 2019 19:14:31.000,53.472,11.997,1348.248156
1 Dec 2019 19:14:32.000,53.443,11.875,1354.997075
1 Dec 2019 19:14:33.000,53.415,11.754,1361.749328
1 Dec 2019 19:14:34.000,53.387,11.634,1368.504857
1 Dec 2019 19:14:35.000,53.360,11.514,1375.263605
1 Dec 2019 19:14:36.000,53.332,11.396,1382.025513
1 Dec 2019 19:14:37.000,53.305,11.278,1388.790533
1 Dec 2019 19:14:38.000,53.279,11.162,1395.558609
1 Dec 2019 19:14:39.000,53.253,11.046,1402.329686
1 Dec 2019 19:14:40.000,53.227,10.930,1409.103718
1 Dec 2019 19:14:41.000,53.201,10.816,1415.880651
1 Dec 2019 19:14:42.000,53.175,10.702,1422.660436
1 Dec 2019 19:14:43.000,53.150,10.590,1429.443021
1 Dec 2019 19:14:44.000,53.125,10.478,1436.228365
1 Dec 2019 19:14:45.000,53.101,10.366,1443.016417
1 Dec 2019 19:14:46.000,53.077,10.256,1449.807131
1 Dec 2019 19:14:47.000,53.053,10.146,1456.600459
1 Dec 2019 19:14:48.000,53.029,10.037,1463.396362
1 Dec 2019 19:14:49.000,53.006,9.928,1470.194794
1 Dec 2019 19:14:50.000,52.982,9.821,1476.995711
1 Dec 2019 19:14:51.000,52.959,9.714,1483.799068
1 Dec 2019 19:14:52.000,52.937,9.608,1490.604829
1 Dec 2019 19:14:53.000,52.914,9.502,1497.412951
1 Dec 2019 19:14:54.000,52.892,9.397,1504.223393
1 Dec 2019 19:14:55.000,52.870,9.293,1511.036113
1 Dec 2019 19:14:56.000,52.848,9.189,1517.851078
1 Dec 2019 19:14:57.000,52.827,9.086,1524.668246
1 Dec 2019 19:14:58.000,52.806,8.984,1531.487577
1 Dec 2019 19:14:59.000,52.785,8.882,1538.309041
1 Dec 2019 19:15:00.000,52.764,8.781,1545.132597
1 Dec 2019 19:15:01.000,52.743,8.681,1551.958210
1 Dec 2019 19:15:02.000,52.723,8.581,1558.785841
1 Dec 2019 19:15:03.000,52.703,8.482,1565.615463
1 Dec 2019 19:15:04.000,52.683,8.383,1572.447038
1 Dec 2019 19:15:05.000,52.663,8.285,1579.280529
1 Dec 2019 19:15:06.000,52.644,8.187,1586.115910
1 Dec 2019 19:15:07.000,52.624,8.091,1592.953144
1 Dec 2019 19:15:08.000,52.605,7.994,1599.792201
1 Dec 2019 19:15:09.000,52.586,7.898,1606.633045
1 Dec 2019 19:15:10.000,52.568,7.803,1613.475652
1 Dec 2019 19:15:11.000,52.549,7.708,1620.319988
1 Dec 2019 19:15:12.000,52.531,7.614,1627.166023
1 Dec 2019 19:15:13.000,52.513,7.520,1634.013725
1 Dec 2019 19:15:14.000,52.495,7.427,1640.863070
1 Dec 2019 19:15:15.000,52.477,7.335,1647.714027
1 Dec 2019 19:15:16.000,52.459,7.243,1654.566565
1 Dec 2019 19:15:17.000,52.442,7.151,1661.420661
1 Dec 2019 19:15:18.000,52.425,7.060,1668.276285
1 Dec 2019 19:15:19.000,52.408,6.969,1675.133412
1 Dec 2019 19:15:20.000,52.391,6.879,1681.992009
1 Dec 2019 19:15:21.000,52.374,6.789,1688.852059
1 Dec 2019 19:15:22.000,52.358,6.700,1695.713531
1 Dec 2019 19:15:23.000,52.341,6.611,1702.576398
1 Dec 2019 19:15:24.000,52.325,6.523,1709.440641
1 Dec 2019 19:15:25.000,52.309,6.435,1716.306231
1 Dec 2019 19:15:26.000,52.293,6.348,1723.173141
1 Dec 2019 19:15:27.000,52.277,6.261,1730.041354
1 Dec 2019 19:15:28.000,52.262,6.174,1736.910843
1 Dec 2019 19:15:29.000,52.246,6.088,1743.781584
1 Dec 2019 19:15:30.000,52.231,6.003,1750.653552
1 Dec 2019 19:15:31.000,52.216,5.918,1757.526729
1 Dec 2019 19:15:32.000,52.201,5.833,1764.401092
1 Dec 2019 19:15:33.000,52.186,5.748,1771.276613
1 Dec 2019 19:15:34.000,52.171,5.665,1778.153279
1 Dec 2019 19:15:35.000,52.157,5.581,1785.031064
1 Dec 2019 19:15:36.000,52.142,5.498,1791.909947
1 Dec 2019 19:15:37.000,52.128,5.415,1798.789905
1 Dec 2019 19:15:38.000,52.114,5.333,1805.670923
1 Dec 2019 19:15:39.000,52.100,5.251,1812.552978
1 Dec 2019 19:15:40.000,52.086,5.169,1819.436046
1 Dec 2019 19:15:41.000,52.072,5.088,1826.320114
1 Dec 2019 19:15:42.000,52.059,5.007,1833.205159
1 Dec 2019 19:15:43.000,52.045,4.927,1840.091163
1 Dec 2019 19:15:44.000,52.032,4.847,1846.978104
1 Dec 2019 19:15:45.000,52.019,4.767,1853.865967
1 Dec 2019 19:15:46.000,52.005,4.688,1860.754733
1 Dec 2019 19:15:47.000,51.993,4.609,1867.644380
1 Dec 2019 19:15:48.000,51.980,4.530,1874.534896
1 Dec 2019 19:15:49.000,51.967,4.452,1881.426261
1 Dec 2019 19:15:50.000,51.954,4.374,1888.318453
1 Dec 2019 19:15:51.000,51.942,4.296,1895.211461
1 Dec 2019 19:15:52.000,51.929,4.219,1902.105266
1 Dec 2019 19:15:53.000,51.917,4.142,1908.999850
1 Dec 2019 19:15:54.000,51.905,4.065,1915.895194
1 Dec 2019 19:15:55.000,51.893,3.989,1922.791287
1 Dec 2019 19:15:56.000,51.881,3.913,1929.688110
1 Dec 2019 19:15:57.000,51.869,3.837,1936.585645
1 Dec 2019 19:15:58.000,51.858,3.762,1943.483880
1 Dec 2019 19:15:59.000,51.846,3.687,1950.382798
1 Dec 2019 19:16:00.000,51.834,3.612,1957.282381
1 Dec 2019 19:16:01.000,51.823,3.538,1964.182618
1 Dec 2019 19:16:02.000,51.812,3.463,1971.083492
1 Dec 2019 19:16:03.000,51.801,3.390,1977.984988
1 Dec 2019 19:16:04.000,51.789,3.316,1984.887087
1 Dec 2019 19:16:05.000,51.778,3.243,1991.789783
1 Dec 2019 19:16:06.000,51.768,3.170,1998.693056
1 Dec 2019 19:16:07.000,51.757,3.097,2005.596891
1 Dec 2019 19:16:08.000,51.746,3.025,2012.501278
1 Dec 2019 19:16:09.000,51.736,2.953,2019.406202
1 Dec 2019 19:16:10.000,51.725,2.881,2026.311645
1 Dec 2019 19:16:11.000,51.715,2.809,2033.217599
1 Dec 2019 19:16:12.000,51.704,2.738,2040.124049
1 Dec 2019 19:16:13.000,51.694,2.667,2047.030978
1 Dec 2019 19:16:14.000,51.684,2.597,2053.938379
1 Dec 2019 19:16:15.000,51.674,2.526,2060.846235
1 Dec 2019 19:16:16.000,51.664,2.456,2067.754535
1 Dec 2019 19:16:17.000,51.654,2.386,2074.663263
1 Dec 2019 19:16:18.000,51.644,2.316,2081.572411
1 Dec 2019 19:16:19.000,51.635,2.247,2088.481965
1 Dec 2019 19:16:20.000,51.625,2.178,2095.391909
1 Dec 2019 19:16:21.000,51.616,2.109,2102.302237
1 Dec 2019 19:16:22.000,51.606,2.040,2109.212935
1 Dec 2019 19:16:23.000,51.597,1.972,2116.123986
1 Dec 2019 19:16:24.000,51.588,1.903,2123.035387
1 Dec 2019 19:16:25.000,51.579,1.836,2129.947121
1 Dec 2019 19:16:26.000,51.569,1.768,2136.859178
1 Dec 2019 19:16:27.000,51.560,1.700,2143.771542
1 Dec 2019 19:16:28.000,51.552,1.633,2150.684210
1 Dec 2019 19:16:29.000,51.543,1.566,2157.597166
1 Dec 2019 19:16:30.000,51.534,1.499,2164.510397
1 Dec 2019 19:16:31.000,51.525,1.433,2171.423898
1 Dec 2019 19:16:32.000,51.517,1.366,2178.337655
1 Dec 2019 19:16:33.000,51.508,1.300,2185.251654
1 Dec 2019 19:16:34.000,51.500,1.234,2192.165891
1 Dec 2019 19:16:35.000,51.491,1.169,2199.080352
1 Dec 2019 19:16:36.000,51.483,1.103,2205.995024
1 Dec 2019 19:16:37.000,51.475,1.038,2212.909903
1 Dec 2019 19:16:38.000,51.466,0.973,2219.824975
1 Dec 2019 19:16:39.000,51.458,0.908,2226.740231
1 Dec 2019 19:16:40.000,51.450,0.844,2233.655657
1 Dec 2019 19:16:41.000,51.442,0.779,2240.571250
1 Dec 2019 19:16:42.000,51.434,0.715,2247.486996
1 Dec 2019 19:16:43.000,51.427,0.651,2254.402884
1 Dec 2019 19:16:44.000,51.419,0.587,2261.318910
1 Dec 2019 19:16:45.000,51.411,0.524,2268.235061
1 Dec 2019 19:16:46.000,51.404,0.460,2275.151324
1 Dec 2019 19:16:47.000,51.396,0.397,2282.067697
1 Dec 2019 19:16:48.000,51.388,0.334,2288.984167
1 Dec 2019 19:16:49.000,51.381,0.271,2295.900723
1 Dec 2019 19:16:50.000,51.374,0.209,2302.817360
1 Dec 2019 19:16:51.000,51.366,0.146,2309.734068
1 Dec 2019 19:16:52.000,51.359,0.084,2316.650836
1 Dec 2019 19:16:53.000,51.352,0.022,2323.567655
1 Dec 2019 19:16:54.000,51.345,-0.040,2330.484520
1 Dec 2019 19:16:55.000,51.338,-0.102,2337.401420
1 Dec 2019 19:16:55.368,51.335,-0.124,2339.943803
1 Dec 2019 20:43:32.934,270.758,-0.124,2331.199999
1 Dec 2019 20:43:33.000,270.764,-0.120,2330.803258
1 Dec 2019 20:43:34.000,270.854,-0.066,2324.783455
1 Dec 2019 20:43:35.000,270.944,-0.012,2318.768426
1 Dec 2019 20:43:36.000,271.034,0.042,2312.758211
1 Dec 2019 20:43:37.000,271.125,0.096,2306.752854
1 Dec 2019 20:43:38.000,271.217,0.151,2300.752400
1 Dec 2019 20:43:39.000,271.308,0.205,2294.756895
1 Dec 2019 20:43:40.000,271.401,0.260,2288.766384
1 Dec 2019 20:43:41.000,271.494,0.315,2282.780912
1 Dec 2019 20:43:42.000,271.587,0.370,2276.800527
1 Dec 2019 20:43:43.000,271.681,0.424,2270.825275
1 Dec 2019 20:43:44.000,271.775,0.479,2264.855208
1 Dec 2019 20:43:45.000,271.870,0.535,2258.890365
1 Dec 2019 20:43:46.000,271.965,0.590,2252.930799
1 Dec 2019 20:43:47.000,272.061,0.645,2246.976558
1 Dec 2019 20:43:48.000,272.157,0.701,2241.027691
1 Dec 2019 20:43:49.000,272.253,0.756,2235.084248
1 Dec 2019 20:43:50.000,272.351,0.812,2229.146280
1 Dec 2019 20:43:51.000,272.448,0.868,2223.213835
1 Dec 2019 20:43:52.000,272.547,0.923,2217.286966
1 Dec 2019 20:43:53.000,272.645,0.979,2211.365724
1 Dec 2019 20:43:54.000,272.745,1.036,2205.450161
1 Dec 2019 20:43:55.000,272.844,1.092,2199.540329
1 Dec 2019 20:43:56.000,272.945,1.148,2193.636281
1 Dec 2019 20:43:57.000,273.046,1.204,2187.738071
1 Dec 2019 20:43:58.000,273.147,1.261,2181.845752
1 Dec 2019 20:43:59.000,273.249,1.317,2175.959379
1 Dec 2019 20:44:00.000,273.351,1.374,2170.079007
1 Dec 2019 20:44:01.000,273.454,1.431,2164.204692
1 Dec 2019 20:44:02.000,273.558,1.488,2158.336489
1 Dec 2019 20:44:03.000,273.662,1.545,2152.474455
1 Dec 2019 20:44:04.000,273.767,1.602,2146.618647
1 Dec 2019 20:44:05.000,273.872,1.659,2140.769122
1 Dec 2019 20:44:06.000,273.978,1.717,2134.925940
1 Dec 2019 20:44:07.000,274.084,1.774,2129.089158
1 Dec 2019 20:44:08.000,274.191,1.832,2123.258836
1 Dec 2019 20:44:09.000,274.299,1.889,2117.435034
1 Dec 2019 20:44:10.000,274.407,1.947,2111.617811
1 Dec 2019 20:44:11.000,274.516,2.005,2105.807230
1 Dec 2019 20:44:12.000,274.625,2.063,2100.003352
1 Dec 2019 20:44:13.000,274.735,2.121,2094.206243
1 Dec 2019 20:44:14.000,274.845,2.179,2088.415957
1 Dec 2019 20:44:15.000,274.957,2.238,2082.632563
1 Dec 2019 20:44:16.000,275.068,2.296,2076.856124
1 Dec 2019 20:44:17.000,275.181,2.355,2071.086704
1 Dec 2019 20:44:18.000,275.294,2.414,2065.324370
1 Dec 2019 20:44:19.000,275.407,2.472,2059.569186
1 Dec 2019 20:44:20.000,275.521,2.531,2053.821220
1 Dec 2019 20:44:21.000,275.636,2.590,2048.080539
1 Dec 2019 20:44:22.000,275.752,2.649,2042.347210
1 Dec 2019 20:44:23.000,275.868,2.709,2036.621301
1 Dec 2019 20:44:24.000,275.985,2.768,2030.902883
1 Dec 2019 20:44:25.000,276.102,2.828,2025.192029
1 Dec 2019 20:44:26.000,276.220,2.887,2019.488800
1 Dec 2019 20:44:27.000,276.339,2.947,2013.793274
1 Dec 2019 20:44:28.000,276.459,3.007,2008.105520
1 Dec 2019 20:44:29.000,276.579,3.067,2002.425612
1 Dec 2019 20:44:30.000,276.700,3.127,1996.753624
1 Dec 2019 20:44:31.000,276.821,3.187,1991.089628
1 Dec 2019 20:44:32.000,276.943,3.247,1985.433700
1 Dec 2019 20:44:33.000,277.066,3.308,1979.785916
1 Dec 2019 20:44:34.000,277.190,3.368,1974.146350
1 Dec 2019 20:44:35.000,277.314,3.429,1968.515085
1 Dec 2019 20:44:36.000,277.439,3.489,1962.892190
1 Dec 2019 20:44:37.000,277.565,3.550,1957.277747
1 Dec 2019 20:44:38.000,277.691,3.611,1951.671835
1 Dec 2019 20:44:39.000,277.819,3.672,1946.074535
1 Dec 2019 20:44:40.000,277.947,3.734,1940.485926
1 Dec 2019 20:44:41.000,278.075,3.795,1934.906091
1 Dec 2019 20:44:42.000,278.205,3.856,1929.335116
1 Dec 2019 20:44:43.000,278.335,3.918,1923.773076
1 Dec 2019 20:44:44.000,278.466,3.980,1918.220059
1 Dec 2019 20:44:45.000,278.597,4.041,1912.676149
1 Dec 2019 20:44:46.000,278.730,4.103,1907.141433
1 Dec 2019 20:44:47.000,278.863,4.165,1901.615996
1 Dec 2019 20:44:48.000,278.997,4.228,1896.099926
1 Dec 2019 20:44:49.000,279.132,4.290,1890.593314
1 Dec 2019 20:44:50.000,279.268,4.352,1885.096242
1 Dec 2019 20:44:51.000,279.404,4.415,1879.608804
1 Dec 2019 20:44:52.000,279.541,4.477,1874.131090
1 Dec 2019 20:44:53.000,279.679,4.540,1868.663192
1 Dec 2019 20:44:54.000,279.818,4.603,1863.205202
1 Dec 2019 20:44:55.000,279.958,4.666,1857.757217
1 Dec 2019 20:44:56.000,280.098,4.729,1852.319325
1 Dec 2019 20:44:57.000,280.239,4.792,1846.891623
1 Dec 2019 20:44:58.000,280.382,4.855,1841.474208
1 Dec 2019 20:44:59.000,280.525,4.919,1836.067178
1 Dec 2019 20:45:00.000,280.668,4.982,1830.670633
1 Dec 2019 20:45:01.000,280.813,5.046,1825.284666
1 Dec 2019 20:45:02.000,280.959,5.110,1819.909379
1 Dec 2019 20:45:03.000,281.105,5.174,1814.544874
1 Dec 2019 20:45:04.000,281.253,5.238,1809.191252
1 Dec 2019 20:45:05.000,281.401,5.302,1803.848621
1 Dec 2019 20:45:06.000,281.550,5.366,1798.517075
1 Dec 2019 20:45:07.000,281.700,5.430,1793.196725
1 Dec 2019 20:45:08.000,281.851,5.495,1787.887675
1 Dec 2019 20:45:09.000,282.003,5.559,1782.590036
1 Dec 2019 20:45:10.000,282.156,5.624,1777.303908
1 Dec 2019 20:45:11.000,282.309,5.688,1772.029405
1 Dec 2019 20:45:12.000,282.464,5.753,1766.766635
1 Dec 2019 20:45:13.000,282.619,5.818,1761.515711
1 Dec 2019 20:45:14.000,282.776,5.883,1756.276746
1 Dec 2019 20:45:15.000,282.933,5.948,1751.049848
1 Dec 2019 20:45:16.000,283.092,6.014,1745.835134
1 Dec 2019 20:45:17.000,283.251,6.079,1740.632723
1 Dec 2019 20:45:18.000,283.412,6.145,1735.442724
1 Dec 2019 20:45:19.000,283.573,6.210,1730.265258
1 Dec 2019 20:45:20.000,283.735,6.276,1725.100443
1 Dec 2019 20:45:21.000,283.899,6.342,1719.948403
1 Dec 2019 20:45:22.000,284.063,6.408,1714.809251
1 Dec 2019 20:45:23.000,284.229,6.473,1709.683113
1 Dec 2019 20:45:24.000,284.395,6.540,1704.570111
1 Dec 2019 20:45:25.000,284.562,6.606,1699.470373
1 Dec 2019 20:45:26.000,284.731,6.672,1694.384019
1 Dec 2019 20:45:27.000,284.900,6.738,1689.311176
1 Dec 2019 20:45:28.000,285.071,6.805,1684.251978
1 Dec 2019 20:45:29.000,285.242,6.871,1679.206544
1 Dec 2019 20:45:30.000,285.415,6.938,1674.175010
1 Dec 2019 20:45:31.000,285.589,7.005,1669.157509
1 Dec 2019 20:45:32.000,285.764,7.071,1664.154168
1 Dec 2019 20:45:33.000,285.940,7.138,1659.165122
1 Dec 2019 20:45:34.000,286.117,7.205,1654.190511
1 Dec 2019 20:45:35.000,286.295,7.272,1649.230462
1 Dec 2019 20:45:36.000,286.474,7.340,1644.285118
1 Dec 2019 20:45:37.000,286.654,7.407,1639.354620
1 Dec 2019 20:45:38.000,286.836,7.474,1634.439100
1 Dec 2019 20:45:39.000,287.018,7.541,1629.538703
1 Dec 2019 20:45:40.000,287.202,7.609,1624.653575
1 Dec 2019 20:45:41.000,287.387,7.676,1619.783852
1 Dec 2019 20:45:42.000,287.573,7.744,1614.929686
1 Dec 2019 20:45:43.000,287.760,7.812,1610.091215
1 Dec 2019 20:45:44.000,287.948,7.879,1605.268590
1 Dec 2019 20:45:45.000,288.138,7.947,1600.461964
1 Dec 2019 20:45:46.000,288.329,8.015,1595.671479
1 Dec 2019 20:45:47.000,288.521,8.083,1590.897289
1 Dec 2019 20:45:48.000,288.714,8.151,1586.139551
1 Dec 2019 20:45:49.000,288.908,8.219,1581.398410
1 Dec 2019 20:45:50.000,289.104,8.287,1576.674030
1 Dec 2019 20:45:51.000,289.300,8.355,1571.966558
1 Dec 2019 20:45:52.000,289.498,8.423,1567.276160
