vcc_sched/network/input/aer_vtgs_wj2xms_vcc-b_44431.csv

"Time (UTCG)","Azimuth (deg)","Elevation (deg)","Range (km)"
1 Dec 2019 17:35:32.308,148.898,-0.056,2309.964304
1 Dec 2019 17:35:33.000,148.784,-0.037,2307.891928
1 Dec 2019 17:35:34.000,148.618,-0.010,2304.913131
1 Dec 2019 17:35:35.000,148.453,0.017,2301.951668
1 Dec 2019 17:35:36.000,148.287,0.044,2299.007611
1 Dec 2019 17:35:37.000,148.120,0.071,2296.081030
1 Dec 2019 17:35:38.000,147.953,0.097,2293.171996
1 Dec 2019 17:35:39.000,147.785,0.124,2290.280582
1 Dec 2019 17:35:40.000,147.617,0.150,2287.406857
1 Dec 2019 17:35:41.000,147.449,0.176,2284.550893
1 Dec 2019 17:35:42.000,147.280,0.202,2281.712759
1 Dec 2019 17:35:43.000,147.111,0.228,2278.892528
1 Dec 2019 17:35:44.000,146.942,0.254,2276.090270
1 Dec 2019 17:35:45.000,146.772,0.280,2273.306054
1 Dec 2019 17:35:46.000,146.601,0.305,2270.539952
1 Dec 2019 17:35:47.000,146.430,0.331,2267.792034
1 Dec 2019 17:35:48.000,146.259,0.356,2265.062368
1 Dec 2019 17:35:49.000,146.087,0.381,2262.351028
1 Dec 2019 17:35:50.000,145.915,0.406,2259.658081
1 Dec 2019 17:35:51.000,145.743,0.431,2256.983598
1 Dec 2019 17:35:52.000,145.570,0.456,2254.327649
1 Dec 2019 17:35:53.000,145.396,0.481,2251.690301
1 Dec 2019 17:35:54.000,145.223,0.505,2249.071626
1 Dec 2019 17:35:55.000,145.048,0.529,2246.471692
1 Dec 2019 17:35:56.000,144.874,0.553,2243.890568
1 Dec 2019 17:35:57.000,144.699,0.578,2241.328320
1 Dec 2019 17:35:58.000,144.523,0.601,2238.785022
1 Dec 2019 17:35:59.000,144.348,0.625,2236.260740
1 Dec 2019 17:36:00.000,144.171,0.649,2233.755541
1 Dec 2019 17:36:01.000,143.995,0.672,2231.269494
1 Dec 2019 17:36:02.000,143.818,0.695,2228.802667
1 Dec 2019 17:36:03.000,143.640,0.719,2226.355125
1 Dec 2019 17:36:04.000,143.463,0.741,2223.926939
1 Dec 2019 17:36:05.000,143.284,0.764,2221.518174
1 Dec 2019 17:36:06.000,143.106,0.787,2219.128898
1 Dec 2019 17:36:07.000,142.927,0.809,2216.759177
1 Dec 2019 17:36:08.000,142.748,0.832,2214.409075
1 Dec 2019 17:36:09.000,142.568,0.854,2212.078661
1 Dec 2019 17:36:10.000,142.388,0.876,2209.768001
1 Dec 2019 17:36:11.000,142.207,0.898,2207.477160
1 Dec 2019 17:36:12.000,142.026,0.920,2205.206202
1 Dec 2019 17:36:13.000,141.845,0.941,2202.955190
1 Dec 2019 17:36:14.000,141.664,0.962,2200.724193
1 Dec 2019 17:36:15.000,141.482,0.984,2198.513274
1 Dec 2019 17:36:16.000,141.299,1.005,2196.322494
1 Dec 2019 17:36:17.000,141.116,1.026,2194.151921
1 Dec 2019 17:36:18.000,140.933,1.046,2192.001616
1 Dec 2019 17:36:19.000,140.750,1.067,2189.871643
1 Dec 2019 17:36:20.000,140.566,1.087,2187.762061
1 Dec 2019 17:36:21.000,140.382,1.107,2185.672938
1 Dec 2019 17:36:22.000,140.197,1.127,2183.604333
1 Dec 2019 17:36:23.000,140.012,1.147,2181.556305
1 Dec 2019 17:36:24.000,139.827,1.167,2179.528920
1 Dec 2019 17:36:25.000,139.642,1.186,2177.522236
1 Dec 2019 17:36:26.000,139.456,1.206,2175.536313
1 Dec 2019 17:36:27.000,139.269,1.225,2173.571213
1 Dec 2019 17:36:28.000,139.083,1.244,2171.626995
1 Dec 2019 17:36:29.000,138.896,1.262,2169.703715
1 Dec 2019 17:36:30.000,138.708,1.281,2167.801436
1 Dec 2019 17:36:31.000,138.521,1.299,2165.920215
1 Dec 2019 17:36:32.000,138.333,1.318,2164.060108
1 Dec 2019 17:36:33.000,138.145,1.336,2162.221175
1 Dec 2019 17:36:34.000,137.956,1.354,2160.403473
1 Dec 2019 17:36:35.000,137.767,1.371,2158.607054
1 Dec 2019 17:36:36.000,137.578,1.389,2156.831980
1 Dec 2019 17:36:37.000,137.388,1.406,2155.078301
1 Dec 2019 17:36:38.000,137.198,1.423,2153.346078
1 Dec 2019 17:36:39.000,137.008,1.440,2151.635360
1 Dec 2019 17:36:40.000,136.818,1.457,2149.946206
1 Dec 2019 17:36:41.000,136.627,1.473,2148.278668
1 Dec 2019 17:36:42.000,136.436,1.489,2146.632795
1 Dec 2019 17:36:43.000,136.244,1.505,2145.008645
1 Dec 2019 17:36:44.000,136.053,1.521,2143.406266
1 Dec 2019 17:36:45.000,135.861,1.537,2141.825713
1 Dec 2019 17:36:46.000,135.668,1.553,2140.267033
1 Dec 2019 17:36:47.000,135.476,1.568,2138.730281
1 Dec 2019 17:36:48.000,135.283,1.583,2137.215502
1 Dec 2019 17:36:49.000,135.090,1.598,2135.722751
1 Dec 2019 17:36:50.000,134.897,1.613,2134.252070
1 Dec 2019 17:36:51.000,134.703,1.627,2132.803513
1 Dec 2019 17:36:52.000,134.509,1.641,2131.377122
1 Dec 2019 17:36:53.000,134.315,1.655,2129.972950
1 Dec 2019 17:36:54.000,134.120,1.669,2128.591038
1 Dec 2019 17:36:55.000,133.926,1.683,2127.231436
1 Dec 2019 17:36:56.000,133.731,1.696,2125.894185
1 Dec 2019 17:36:57.000,133.535,1.710,2124.579334
1 Dec 2019 17:36:58.000,133.340,1.723,2123.286922
1 Dec 2019 17:36:59.000,133.144,1.735,2122.016994
1 Dec 2019 17:37:00.000,132.948,1.748,2120.769597
1 Dec 2019 17:37:01.000,132.752,1.760,2119.544766
1 Dec 2019 17:37:02.000,132.556,1.773,2118.342549
1 Dec 2019 17:37:03.000,132.359,1.785,2117.162980
1 Dec 2019 17:37:04.000,132.162,1.796,2116.006102
1 Dec 2019 17:37:05.000,131.965,1.808,2114.871957
1 Dec 2019 17:37:06.000,131.768,1.819,2113.760579
1 Dec 2019 17:37:07.000,131.571,1.830,2112.672010
1 Dec 2019 17:37:08.000,131.373,1.841,2111.606283
1 Dec 2019 17:37:09.000,131.175,1.852,2110.563438
1 Dec 2019 17:37:10.000,130.977,1.862,2109.543511
1 Dec 2019 17:37:11.000,130.779,1.873,2108.546534
1 Dec 2019 17:37:12.000,130.580,1.883,2107.572543
1 Dec 2019 17:37:13.000,130.382,1.892,2106.621575
1 Dec 2019 17:37:14.000,130.183,1.902,2105.693658
1 Dec 2019 17:37:15.000,129.984,1.911,2104.788825
1 Dec 2019 17:37:16.000,129.785,1.920,2103.907113
1 Dec 2019 17:37:17.000,129.585,1.929,2103.048546
1 Dec 2019 17:37:18.000,129.386,1.938,2102.213156
1 Dec 2019 17:37:19.000,129.186,1.946,2101.400974
1 Dec 2019 17:37:20.000,128.986,1.954,2100.612030
1 Dec 2019 17:37:21.000,128.786,1.962,2099.846347
1 Dec 2019 17:37:22.000,128.586,1.970,2099.103954
1 Dec 2019 17:37:23.000,128.386,1.978,2098.384879
1 Dec 2019 17:37:24.000,128.185,1.985,2097.689149
1 Dec 2019 17:37:25.000,127.985,1.992,2097.016783
1 Dec 2019 17:37:26.000,127.784,1.999,2096.367808
1 Dec 2019 17:37:27.000,127.583,2.006,2095.742247
1 Dec 2019 17:37:28.000,127.383,2.012,2095.140127
1 Dec 2019 17:37:29.000,127.181,2.018,2094.561461
1 Dec 2019 17:37:30.000,126.980,2.024,2094.006275
1 Dec 2019 17:37:31.000,126.779,2.030,2093.474588
1 Dec 2019 17:37:32.000,126.578,2.035,2092.966419
1 Dec 2019 17:37:33.000,126.376,2.040,2092.481788
1 Dec 2019 17:37:34.000,126.175,2.045,2092.020713
1 Dec 2019 17:37:35.000,125.973,2.050,2091.583207
1 Dec 2019 17:37:36.000,125.771,2.054,2091.169288
1 Dec 2019 17:37:37.000,125.570,2.059,2090.778972
1 Dec 2019 17:37:38.000,125.368,2.063,2090.412272
1 Dec 2019 17:37:39.000,125.166,2.067,2090.069203
1 Dec 2019 17:37:40.000,124.964,2.070,2089.749777
1 Dec 2019 17:37:41.000,124.762,2.073,2089.454005
1 Dec 2019 17:37:42.000,124.560,2.077,2089.181903
1 Dec 2019 17:37:43.000,124.357,2.079,2088.933474
1 Dec 2019 17:37:44.000,124.155,2.082,2088.708731
1 Dec 2019 17:37:45.000,123.953,2.084,2088.507682
1 Dec 2019 17:37:46.000,123.751,2.087,2088.330335
1 Dec 2019 17:37:47.000,123.548,2.089,2088.176697
1 Dec 2019 17:37:48.000,123.346,2.090,2088.046774
1 Dec 2019 17:37:49.000,123.144,2.092,2087.940571
1 Dec 2019 17:37:50.000,122.941,2.093,2087.858093
1 Dec 2019 17:37:51.000,122.739,2.094,2087.799343
1 Dec 2019 17:37:52.000,122.536,2.095,2087.764325
1 Dec 2019 17:37:53.000,122.334,2.095,2087.753039
1 Dec 2019 17:37:54.000,122.131,2.095,2087.765487
1 Dec 2019 17:37:55.000,121.929,2.095,2087.801670
1 Dec 2019 17:37:56.000,121.727,2.095,2087.861586
1 Dec 2019 17:37:57.000,121.524,2.095,2087.945234
1 Dec 2019 17:37:58.000,121.322,2.094,2088.052612
1 Dec 2019 17:37:59.000,121.119,2.093,2088.183717
1 Dec 2019 17:38:00.000,120.917,2.092,2088.338545
1 Dec 2019 17:38:01.000,120.715,2.090,2088.517091
1 Dec 2019 17:38:02.000,120.512,2.089,2088.719349
1 Dec 2019 17:38:03.000,120.310,2.087,2088.945312
1 Dec 2019 17:38:04.000,120.108,2.085,2089.194975
1 Dec 2019 17:38:05.000,119.906,2.082,2089.468328
1 Dec 2019 17:38:06.000,119.704,2.080,2089.765359
1 Dec 2019 17:38:07.000,119.502,2.077,2090.086065
1 Dec 2019 17:38:08.000,119.300,2.074,2090.430432
1 Dec 2019 17:38:09.000,119.098,2.071,2090.798449
1 Dec 2019 17:38:10.000,118.896,2.067,2091.190103
1 Dec 2019 17:38:11.000,118.695,2.063,2091.605382
1 Dec 2019 17:38:12.000,118.493,2.059,2092.044271
1 Dec 2019 17:38:13.000,118.291,2.055,2092.506755
1 Dec 2019 17:38:14.000,118.090,2.051,2092.992816
1 Dec 2019 17:38:15.000,117.889,2.046,2093.502444
1 Dec 2019 17:38:16.000,117.687,2.041,2094.035619
1 Dec 2019 17:38:17.000,117.486,2.036,2094.592323
1 Dec 2019 17:38:18.000,117.285,2.030,2095.172536
1 Dec 2019 17:38:19.000,117.084,2.025,2095.776239
1 Dec 2019 17:38:20.000,116.883,2.019,2096.403409
1 Dec 2019 17:38:21.000,116.683,2.013,2097.054031
1 Dec 2019 17:38:22.000,116.482,2.007,2097.728080
1 Dec 2019 17:38:23.000,116.282,2.000,2098.425533
1 Dec 2019 17:38:24.000,116.081,1.993,2099.146363
1 Dec 2019 17:38:25.000,115.881,1.986,2099.890553
1 Dec 2019 17:38:26.000,115.681,1.979,2100.658074
1 Dec 2019 17:38:27.000,115.482,1.971,2101.448900
1 Dec 2019 17:38:28.000,115.282,1.964,2102.263001
1 Dec 2019 17:38:29.000,115.082,1.956,2103.100358
1 Dec 2019 17:38:30.000,114.883,1.948,2103.960937
1 Dec 2019 17:38:31.000,114.684,1.939,2104.844711
1 Dec 2019 17:38:32.000,114.485,1.931,2105.751646
1 Dec 2019 17:38:33.000,114.286,1.922,2106.681719
1 Dec 2019 17:38:34.000,114.087,1.913,2107.634895
1 Dec 2019 17:38:35.000,113.889,1.903,2108.611140
1 Dec 2019 17:38:36.000,113.691,1.894,2109.610426
1 Dec 2019 17:38:37.000,113.492,1.884,2110.632718
1 Dec 2019 17:38:38.000,113.295,1.874,2111.677978
1 Dec 2019 17:38:39.000,113.097,1.864,2112.746179
1 Dec 2019 17:38:40.000,112.899,1.854,2113.837281
1 Dec 2019 17:38:41.000,112.702,1.843,2114.951245
1 Dec 2019 17:38:42.000,112.505,1.832,2116.088041
1 Dec 2019 17:38:43.000,112.308,1.821,2117.247624
1 Dec 2019 17:38:44.000,112.112,1.810,2118.429964
1 Dec 2019 17:38:45.000,111.915,1.798,2119.635018
1 Dec 2019 17:38:46.000,111.719,1.787,2120.862742
1 Dec 2019 17:38:47.000,111.523,1.775,2122.113105
1 Dec 2019 17:38:48.000,111.328,1.763,2123.386057
1 Dec 2019 17:38:49.000,111.132,1.750,2124.681564
1 Dec 2019 17:38:50.000,110.937,1.738,2125.999582
1 Dec 2019 17:38:51.000,110.742,1.725,2127.340063
1 Dec 2019 17:38:52.000,110.547,1.712,2128.702970
1 Dec 2019 17:38:53.000,110.353,1.699,2130.088254
1 Dec 2019 17:38:54.000,110.159,1.685,2131.495876
1 Dec 2019 17:38:55.000,109.965,1.672,2132.925784
1 Dec 2019 17:38:56.000,109.771,1.658,2134.377939
1 Dec 2019 17:38:57.000,109.578,1.644,2135.852288
1 Dec 2019 17:38:58.000,109.385,1.630,2137.348790
1 Dec 2019 17:38:59.000,109.192,1.615,2138.867392
1 Dec 2019 17:39:00.000,108.999,1.601,2140.408050
1 Dec 2019 17:39:01.000,108.807,1.586,2141.970711
1 Dec 2019 17:39:02.000,108.615,1.571,2143.555331
1 Dec 2019 17:39:03.000,108.423,1.556,2145.161853
1 Dec 2019 17:39:04.000,108.232,1.540,2146.790234
1 Dec 2019 17:39:05.000,108.041,1.524,2148.440417
1 Dec 2019 17:39:06.000,107.850,1.509,2150.112355
1 Dec 2019 17:39:07.000,107.660,1.493,2151.805991
1 Dec 2019 17:39:08.000,107.470,1.476,2153.521275
1 Dec 2019 17:39:09.000,107.280,1.460,2155.258158
1 Dec 2019 17:39:10.000,107.090,1.443,2157.016578
1 Dec 2019 17:39:11.000,106.901,1.427,2158.796489
1 Dec 2019 17:39:12.000,106.712,1.409,2160.597830
1 Dec 2019 17:39:13.000,106.523,1.392,2162.420547
1 Dec 2019 17:39:14.000,106.335,1.375,2164.264591
1 Dec 2019 17:39:15.000,106.147,1.357,2166.129896
1 Dec 2019 17:39:16.000,105.960,1.340,2168.016414
1 Dec 2019 17:39:17.000,105.772,1.322,2169.924081
1 Dec 2019 17:39:18.000,105.586,1.303,2171.852843
1 Dec 2019 17:39:19.000,105.399,1.285,2173.802646
1 Dec 2019 17:39:20.000,105.213,1.267,2175.773423
1 Dec 2019 17:39:21.000,105.027,1.248,2177.765121
1 Dec 2019 17:39:22.000,104.841,1.229,2179.777683
1 Dec 2019 17:39:23.000,104.656,1.210,2181.811043
1 Dec 2019 17:39:24.000,104.471,1.191,2183.865144
1 Dec 2019 17:39:25.000,104.287,1.171,2185.939930
1 Dec 2019 17:39:26.000,104.103,1.152,2188.035332
1 Dec 2019 17:39:27.000,103.919,1.132,2190.151294
1 Dec 2019 17:39:28.000,103.735,1.112,2192.287757
1 Dec 2019 17:39:29.000,103.552,1.092,2194.444653
1 Dec 2019 17:39:30.000,103.370,1.072,2196.621922
1 Dec 2019 17:39:31.000,103.187,1.051,2198.819502
1 Dec 2019 17:39:32.000,103.006,1.031,2201.037334
1 Dec 2019 17:39:33.000,102.824,1.010,2203.275347
1 Dec 2019 17:39:34.000,102.643,0.989,2205.533482
1 Dec 2019 17:39:35.000,102.462,0.968,2207.811675
1 Dec 2019 17:39:36.000,102.282,0.946,2210.109864
1 Dec 2019 17:39:37.000,102.102,0.925,2212.427979
1 Dec 2019 17:39:38.000,101.922,0.903,2214.765958
1 Dec 2019 17:39:39.000,101.743,0.882,2217.123737
1 Dec 2019 17:39:40.000,101.564,0.860,2219.501252
1 Dec 2019 17:39:41.000,101.385,0.838,2221.898432
1 Dec 2019 17:39:42.000,101.207,0.815,2224.315215
1 Dec 2019 17:39:43.000,101.030,0.793,2226.751533
1 Dec 2019 17:39:44.000,100.852,0.770,2229.207321
1 Dec 2019 17:39:45.000,100.675,0.748,2231.682513
1 Dec 2019 17:39:46.000,100.499,0.725,2234.177044
1 Dec 2019 17:39:47.000,100.323,0.702,2236.690840
1 Dec 2019 17:39:48.000,100.147,0.678,2239.223838
1 Dec 2019 17:39:49.000,99.972,0.655,2241.775970
1 Dec 2019 17:39:50.000,99.797,0.632,2244.347169
1 Dec 2019 17:39:51.000,99.622,0.608,2246.937366
1 Dec 2019 17:39:52.000,99.448,0.584,2249.546497
1 Dec 2019 17:39:53.000,99.275,0.560,2252.174486
1 Dec 2019 17:39:54.000,99.102,0.536,2254.821269
1 Dec 2019 17:39:55.000,98.929,0.512,2257.486776
1 Dec 2019 17:39:56.000,98.756,0.488,2260.170939
1 Dec 2019 17:39:57.000,98.584,0.463,2262.873688
1 Dec 2019 17:39:58.000,98.413,0.438,2265.594955
1 Dec 2019 17:39:59.000,98.242,0.414,2268.334670
1 Dec 2019 17:40:00.000,98.071,0.389,2271.092764
1 Dec 2019 17:40:01.000,97.901,0.364,2273.869167
1 Dec 2019 17:40:02.000,97.731,0.339,2276.663813
1 Dec 2019 17:40:03.000,97.561,0.313,2279.476624
1 Dec 2019 17:40:04.000,97.392,0.288,2282.307535
1 Dec 2019 17:40:05.000,97.224,0.262,2285.156475
1 Dec 2019 17:40:06.000,97.056,0.236,2288.023374
1 Dec 2019 17:40:07.000,96.888,0.211,2290.908162
1 Dec 2019 17:40:08.000,96.720,0.185,2293.810768
1 Dec 2019 17:40:09.000,96.554,0.158,2296.731122
1 Dec 2019 17:40:10.000,96.387,0.132,2299.669153
1 Dec 2019 17:40:11.000,96.221,0.106,2302.624791
1 Dec 2019 17:40:12.000,96.056,0.079,2305.597964
1 Dec 2019 17:40:13.000,95.890,0.053,2308.588603
1 Dec 2019 17:40:14.000,95.726,0.026,2311.596636
1 Dec 2019 17:40:15.000,95.561,-0.001,2314.621993
1 Dec 2019 17:40:16.000,95.398,-0.028,2317.664602
1 Dec 2019 17:40:17.000,95.234,-0.055,2320.724392
1 Dec 2019 17:40:17.018,95.231,-0.055,2320.780909
1 Dec 2019 19:08:23.564,215.547,-0.055,2310.517794
1 Dec 2019 19:08:24.000,215.535,-0.028,2307.532025
1 Dec 2019 19:08:25.000,215.506,0.033,2300.689331
1 Dec 2019 19:08:26.000,215.477,0.095,2293.847243
1 Dec 2019 19:08:27.000,215.447,0.157,2287.005771
1 Dec 2019 19:08:28.000,215.418,0.220,2280.164930
1 Dec 2019 19:08:29.000,215.388,0.282,2273.324731
1 Dec 2019 19:08:30.000,215.358,0.345,2266.485193
1 Dec 2019 19:08:31.000,215.328,0.408,2259.646328
1 Dec 2019 19:08:32.000,215.297,0.471,2252.808147
1 Dec 2019 19:08:33.000,215.267,0.534,2245.970670
1 Dec 2019 19:08:34.000,215.236,0.598,2239.133910
1 Dec 2019 19:08:35.000,215.205,0.661,2232.297881
1 Dec 2019 19:08:36.000,215.174,0.725,2225.462595
1 Dec 2019 19:08:37.000,215.143,0.789,2218.628073
1 Dec 2019 19:08:38.000,215.111,0.853,2211.794327
1 Dec 2019 19:08:39.000,215.080,0.918,2204.961373
1 Dec 2019 19:08:40.000,215.048,0.982,2198.129224
1 Dec 2019 19:08:41.000,215.016,1.047,2191.297901
1 Dec 2019 19:08:42.000,214.983,1.112,2184.467417
1 Dec 2019 19:08:43.000,214.951,1.178,2177.637786
1 Dec 2019 19:08:44.000,214.918,1.243,2170.809029
1 Dec 2019 19:08:45.000,214.885,1.309,2163.981160
1 Dec 2019 19:08:46.000,214.852,1.375,2157.154195
1 Dec 2019 19:08:47.000,214.818,1.441,2150.328150
1 Dec 2019 19:08:48.000,214.784,1.507,2143.503046
1 Dec 2019 19:08:49.000,214.751,1.574,2136.678897
1 Dec 2019 19:08:50.000,214.716,1.640,2129.855720
1 Dec 2019 19:08:51.000,214.682,1.707,2123.033535
1 Dec 2019 19:08:52.000,214.647,1.775,2116.212359
1 Dec 2019 19:08:53.000,214.613,1.842,2109.392209
1 Dec 2019 19:08:54.000,214.578,1.910,2102.573102
1 Dec 2019 19:08:55.000,214.542,1.978,2095.755060
1 Dec 2019 19:08:56.000,214.507,2.046,2088.938100
1 Dec 2019 19:08:57.000,214.471,2.114,2082.122241
1 Dec 2019 19:08:58.000,214.435,2.183,2075.307499
1 Dec 2019 19:08:59.000,214.398,2.252,2068.493897
1 Dec 2019 19:09:00.000,214.362,2.321,2061.681455
1 Dec 2019 19:09:01.000,214.325,2.390,2054.870188
1 Dec 2019 19:09:02.000,214.288,2.460,2048.060121
1 Dec 2019 19:09:03.000,214.251,2.530,2041.251273
1 Dec 2019 19:09:04.000,214.213,2.600,2034.443663
1 Dec 2019 19:09:05.000,214.175,2.670,2027.637311
1 Dec 2019 19:09:06.000,214.137,2.741,2020.832241
1 Dec 2019 19:09:07.000,214.099,2.812,2014.028472
1 Dec 2019 19:09:08.000,214.060,2.883,2007.226026
1 Dec 2019 19:09:09.000,214.021,2.954,2000.424922
1 Dec 2019 19:09:10.000,213.982,3.026,1993.625187
1 Dec 2019 19:09:11.000,213.942,3.098,1986.826840
1 Dec 2019 19:09:12.000,213.902,3.170,1980.029903
1 Dec 2019 19:09:13.000,213.862,3.243,1973.234401
1 Dec 2019 19:09:14.000,213.822,3.316,1966.440357
1 Dec 2019 19:09:15.000,213.781,3.389,1959.647792
1 Dec 2019 19:09:16.000,213.740,3.462,1952.856730
1 Dec 2019 19:09:17.000,213.699,3.536,1946.067197
1 Dec 2019 19:09:18.000,213.657,3.610,1939.279216
1 Dec 2019 19:09:19.000,213.615,3.684,1932.492812
1 Dec 2019 19:09:20.000,213.573,3.759,1925.708007
1 Dec 2019 19:09:21.000,213.530,3.833,1918.924830
1 Dec 2019 19:09:22.000,213.487,3.909,1912.143306
1 Dec 2019 19:09:23.000,213.444,3.984,1905.363459
1 Dec 2019 19:09:24.000,213.401,4.060,1898.585315
1 Dec 2019 19:09:25.000,213.357,4.136,1891.808902
1 Dec 2019 19:09:26.000,213.312,4.212,1885.034247
1 Dec 2019 19:09:27.000,213.268,4.289,1878.261376
1 Dec 2019 19:09:28.000,213.223,4.366,1871.490315
1 Dec 2019 19:09:29.000,213.178,4.443,1864.721096
1 Dec 2019 19:09:30.000,213.132,4.521,1857.953744
1 Dec 2019 19:09:31.000,213.086,4.599,1851.188290
1 Dec 2019 19:09:32.000,213.040,4.677,1844.424759
1 Dec 2019 19:09:33.000,212.993,4.756,1837.663185
1 Dec 2019 19:09:34.000,212.946,4.835,1830.903596
1 Dec 2019 19:09:35.000,212.899,4.914,1824.146020
1 Dec 2019 19:09:36.000,212.851,4.994,1817.390491
1 Dec 2019 19:09:37.000,212.803,5.074,1810.637039
1 Dec 2019 19:09:38.000,212.754,5.155,1803.885696
1 Dec 2019 19:09:39.000,212.705,5.235,1797.136490
1 Dec 2019 19:09:40.000,212.656,5.317,1790.389459
1 Dec 2019 19:09:41.000,212.606,5.398,1783.644632
1 Dec 2019 19:09:42.000,212.556,5.480,1776.902045
1 Dec 2019 19:09:43.000,212.505,5.562,1770.161727
1 Dec 2019 19:09:44.000,212.454,5.645,1763.423717
1 Dec 2019 19:09:45.000,212.403,5.728,1756.688048
1 Dec 2019 19:09:46.000,212.351,5.811,1749.954755
1 Dec 2019 19:09:47.000,212.299,5.895,1743.223872
1 Dec 2019 19:09:48.000,212.246,5.979,1736.495438
1 Dec 2019 19:09:49.000,212.193,6.064,1729.769489
1 Dec 2019 19:09:50.000,212.139,6.149,1723.046061
1 Dec 2019 19:09:51.000,212.085,6.234,1716.325193
1 Dec 2019 19:09:52.000,212.031,6.320,1709.606920
1 Dec 2019 19:09:53.000,211.976,6.406,1702.891285
1 Dec 2019 19:09:54.000,211.920,6.493,1696.178327
1 Dec 2019 19:09:55.000,211.865,6.580,1689.468084
1 Dec 2019 19:09:56.000,211.808,6.668,1682.760595
1 Dec 2019 19:09:57.000,211.751,6.756,1676.055906
1 Dec 2019 19:09:58.000,211.694,6.844,1669.354056
1 Dec 2019 19:09:59.000,211.636,6.933,1662.655088
1 Dec 2019 19:10:00.000,211.578,7.022,1655.959043
1 Dec 2019 19:10:01.000,211.519,7.112,1649.265967
1 Dec 2019 19:10:02.000,211.459,7.202,1642.575905
1 Dec 2019 19:10:03.000,211.399,7.293,1635.888900
1 Dec 2019 19:10:04.000,211.339,7.384,1629.204997
1 Dec 2019 19:10:05.000,211.278,7.476,1622.524245
1 Dec 2019 19:10:06.000,211.216,7.568,1615.846691
1 Dec 2019 19:10:07.000,211.154,7.661,1609.172381
1 Dec 2019 19:10:08.000,211.092,7.754,1602.501364
1 Dec 2019 19:10:09.000,211.029,7.847,1595.833689
1 Dec 2019 19:10:10.000,210.965,7.941,1589.169408
1 Dec 2019 19:10:11.000,210.900,8.036,1582.508570
1 Dec 2019 19:10:12.000,210.835,8.131,1575.851228
1 Dec 2019 19:10:13.000,210.770,8.227,1569.197432
1 Dec 2019 19:10:14.000,210.704,8.323,1562.547238
1 Dec 2019 19:10:15.000,210.637,8.420,1555.900700
1 Dec 2019 19:10:16.000,210.569,8.517,1549.257873
1 Dec 2019 19:10:17.000,210.501,8.615,1542.618811
1 Dec 2019 19:10:18.000,210.433,8.713,1535.983571
1 Dec 2019 19:10:19.000,210.363,8.812,1529.352214
1 Dec 2019 19:10:20.000,210.293,8.912,1522.724796
1 Dec 2019 19:10:21.000,210.223,9.012,1516.101377
1 Dec 2019 19:10:22.000,210.151,9.112,1509.482019
1 Dec 2019 19:10:23.000,210.079,9.214,1502.866779
1 Dec 2019 19:10:24.000,210.007,9.315,1496.255726
1 Dec 2019 19:10:25.000,209.933,9.418,1489.648920
1 Dec 2019 19:10:26.000,209.859,9.521,1483.046427
1 Dec 2019 19:10:27.000,209.784,9.625,1476.448310
1 Dec 2019 19:10:28.000,209.709,9.729,1469.854639
1 Dec 2019 19:10:29.000,209.632,9.834,1463.265482
1 Dec 2019 19:10:30.000,209.555,9.939,1456.680908
1 Dec 2019 19:10:31.000,209.477,10.046,1450.100986
1 Dec 2019 19:10:32.000,209.399,10.152,1443.525786
1 Dec 2019 19:10:33.000,209.319,10.260,1436.955385
1 Dec 2019 19:10:34.000,209.239,10.368,1430.389855
1 Dec 2019 19:10:35.000,209.158,10.477,1423.829271
1 Dec 2019 19:10:36.000,209.076,10.586,1417.273710
1 Dec 2019 19:10:37.000,208.993,10.697,1410.723250
1 Dec 2019 19:10:38.000,208.910,10.808,1404.177968
1 Dec 2019 19:10:39.000,208.825,10.919,1397.637948
1 Dec 2019 19:10:40.000,208.740,11.032,1391.103271
1 Dec 2019 19:10:41.000,208.654,11.145,1384.574020
1 Dec 2019 19:10:42.000,208.566,11.259,1378.050281
1 Dec 2019 19:10:43.000,208.478,11.373,1371.532137
1 Dec 2019 19:10:44.000,208.389,11.488,1365.019681
1 Dec 2019 19:10:45.000,208.300,11.605,1358.513000
1 Dec 2019 19:10:46.000,208.209,11.721,1352.012186
1 Dec 2019 19:10:47.000,208.117,11.839,1345.517331
1 Dec 2019 19:10:48.000,208.024,11.958,1339.028530
1 Dec 2019 19:10:49.000,207.930,12.077,1332.545878
1 Dec 2019 19:10:50.000,207.835,12.197,1326.069475
1 Dec 2019 19:10:51.000,207.739,12.318,1319.599420
1 Dec 2019 19:10:52.000,207.642,12.439,1313.135815
1 Dec 2019 19:10:53.000,207.544,12.562,1306.678763
1 Dec 2019 19:10:54.000,207.445,12.685,1300.228370
1 Dec 2019 19:10:55.000,207.345,12.810,1293.784742
1 Dec 2019 19:10:56.000,207.244,12.935,1287.347988
1 Dec 2019 19:10:57.000,207.141,13.061,1280.918222
1 Dec 2019 19:10:58.000,207.037,13.188,1274.495556
1 Dec 2019 19:10:59.000,206.933,13.316,1268.080105
1 Dec 2019 19:11:00.000,206.827,13.444,1261.671988
1 Dec 2019 19:11:01.000,206.719,13.574,1255.271325
1 Dec 2019 19:11:02.000,206.611,13.705,1248.878237
1 Dec 2019 19:11:03.000,206.501,13.836,1242.492848
1 Dec 2019 19:11:04.000,206.390,13.969,1236.115288
1 Dec 2019 19:11:05.000,206.278,14.102,1229.745685
1 Dec 2019 19:11:06.000,206.164,14.237,1223.384171
1 Dec 2019 19:11:07.000,206.049,14.373,1217.030880
1 Dec 2019 19:11:08.000,205.932,14.509,1210.685950
1 Dec 2019 19:11:09.000,205.815,14.647,1204.349519
1 Dec 2019 19:11:10.000,205.695,14.785,1198.021732
1 Dec 2019 19:11:11.000,205.575,14.925,1191.702731
1 Dec 2019 19:11:12.000,205.453,15.066,1185.392667
1 Dec 2019 19:11:13.000,205.329,15.208,1179.091691
1 Dec 2019 19:11:14.000,205.204,15.350,1172.799955
1 Dec 2019 19:11:15.000,205.077,15.494,1166.517619
1 Dec 2019 19:11:16.000,204.949,15.640,1160.244840
1 Dec 2019 19:11:17.000,204.819,15.786,1153.981784
1 Dec 2019 19:11:18.000,204.688,15.933,1147.728616
1 Dec 2019 19:11:19.000,204.554,16.082,1141.485507
1 Dec 2019 19:11:20.000,204.420,16.232,1135.252630
1 Dec 2019 19:11:21.000,204.283,16.383,1129.030163
1 Dec 2019 19:11:22.000,204.145,16.535,1122.818283
1 Dec 2019 19:11:23.000,204.005,16.688,1116.617179
1 Dec 2019 19:11:24.000,203.863,16.843,1110.427037
1 Dec 2019 19:11:25.000,203.719,16.999,1104.248048
1 Dec 2019 19:11:26.000,203.573,17.156,1098.080409
1 Dec 2019 19:11:27.000,203.426,17.315,1091.924319
1 Dec 2019 19:11:28.000,203.276,17.474,1085.779981
1 Dec 2019 19:11:29.000,203.124,17.636,1079.647605
1 Dec 2019 19:11:30.000,202.971,17.798,1073.527402
1 Dec 2019 19:11:31.000,202.815,17.962,1067.419589
1 Dec 2019 19:11:32.000,202.657,18.127,1061.324388
1 Dec 2019 19:11:33.000,202.498,18.293,1055.242024
1 Dec 2019 19:11:34.000,202.335,18.461,1049.172727
1 Dec 2019 19:11:35.000,202.171,18.631,1043.116734
1 Dec 2019 19:11:36.000,202.005,18.801,1037.074284
1 Dec 2019 19:11:37.000,201.836,18.974,1031.045624
1 Dec 2019 19:11:38.000,201.664,19.147,1025.031003
1 Dec 2019 19:11:39.000,201.491,19.322,1019.030677
1 Dec 2019 19:11:40.000,201.314,19.499,1013.044907
1 Dec 2019 19:11:41.000,201.136,19.677,1007.073961
1 Dec 2019 19:11:42.000,200.954,19.857,1001.118111
1 Dec 2019 19:11:43.000,200.771,20.038,995.177635
1 Dec 2019 19:11:44.000,200.584,20.221,989.252817
1 Dec 2019 19:11:45.000,200.395,20.405,983.343947
1 Dec 2019 19:11:46.000,200.203,20.591,977.451321
1 Dec 2019 19:11:47.000,200.008,20.779,971.575243
1 Dec 2019 19:11:48.000,199.810,20.968,965.716021
1 Dec 2019 19:11:49.000,199.609,21.159,959.873971
1 Dec 2019 19:11:50.000,199.406,21.352,954.049416
1 Dec 2019 19:11:51.000,199.199,21.546,948.242685
1 Dec 2019 19:11:52.000,198.989,21.742,942.454114
1 Dec 2019 19:11:53.000,198.776,21.939,936.684047
1 Dec 2019 19:11:54.000,198.559,22.139,930.932835
1 Dec 2019 19:11:55.000,198.340,22.340,925.200836
1 Dec 2019 19:11:56.000,198.116,22.543,919.488419
1 Dec 2019 19:11:57.000,197.890,22.747,913.795954
1 Dec 2019 19:11:58.000,197.660,22.954,908.123826
1 Dec 2019 19:11:59.000,197.426,23.162,902.472423
1 Dec 2019 19:12:00.000,197.188,23.372,896.842145
1 Dec 2019 19:12:01.000,196.947,23.584,891.233400
1 Dec 2019 19:12:02.000,196.702,23.798,885.646602
1 Dec 2019 19:12:03.000,196.452,24.013,880.082176
1 Dec 2019 19:12:04.000,196.199,24.231,874.540558
1 Dec 2019 19:12:05.000,195.942,24.450,869.022188
1 Dec 2019 19:12:06.000,195.680,24.671,863.527520
1 Dec 2019 19:12:07.000,195.414,24.894,858.057015
1 Dec 2019 19:12:08.000,195.144,25.119,852.611145
1 Dec 2019 19:12:09.000,194.869,25.346,847.190392
1 Dec 2019 19:12:10.000,194.589,25.575,841.795249
1 Dec 2019 19:12:11.000,194.305,25.806,836.426215
1 Dec 2019 19:12:12.000,194.016,26.038,831.083804
1 Dec 2019 19:12:13.000,193.722,26.273,825.768540
1 Dec 2019 19:12:14.000,193.423,26.510,820.480955
1 Dec 2019 19:12:15.000,193.119,26.748,815.221597
1 Dec 2019 19:12:16.000,192.809,26.989,809.991019
1 Dec 2019 19:12:17.000,192.494,27.231,804.789790
1 Dec 2019 19:12:18.000,192.174,27.475,799.618489
1 Dec 2019 19:12:19.000,191.848,27.721,794.477707
1 Dec 2019 19:12:20.000,191.516,27.970,789.368045
1 Dec 2019 19:12:21.000,191.178,28.220,784.290118
1 Dec 2019 19:12:22.000,190.834,28.472,779.244553
1 Dec 2019 19:12:23.000,190.485,28.725,774.231989
1 Dec 2019 19:12:24.000,190.128,28.981,769.253075
1 Dec 2019 19:12:25.000,189.766,29.239,764.308478
1 Dec 2019 19:12:26.000,189.396,29.498,759.398872
1 Dec 2019 19:12:27.000,189.020,29.759,754.524946
1 Dec 2019 19:12:28.000,188.637,30.022,749.687403
1 Dec 2019 19:12:29.000,188.247,30.287,744.886956
1 Dec 2019 19:12:30.000,187.850,30.553,740.124334
1 Dec 2019 19:12:31.000,187.445,30.822,735.400277
1 Dec 2019 19:12:32.000,187.033,31.091,730.715539
1 Dec 2019 19:12:33.000,186.613,31.363,726.070886
1 Dec 2019 19:12:34.000,186.185,31.636,721.467098
1 Dec 2019 19:12:35.000,185.749,31.910,716.904969
1 Dec 2019 19:12:36.000,185.305,32.186,712.385303
1 Dec 2019 19:12:37.000,184.852,32.463,707.908920
1 Dec 2019 19:12:38.000,184.391,32.742,703.476651
1 Dec 2019 19:12:39.000,183.921,33.021,699.089341
1 Dec 2019 19:12:40.000,183.442,33.302,694.747846
1 Dec 2019 19:12:41.000,182.954,33.584,690.453036
1 Dec 2019 19:12:42.000,182.456,33.867,686.205794
1 Dec 2019 19:12:43.000,181.949,34.151,682.007012
1 Dec 2019 19:12:44.000,181.432,34.436,677.857596
1 Dec 2019 19:12:45.000,180.906,34.722,673.758464
1 Dec 2019 19:12:46.000,180.369,35.008,669.710543
1 Dec 2019 19:12:47.000,179.821,35.294,665.714772
1 Dec 2019 19:12:48.000,179.263,35.581,661.772102
1 Dec 2019 19:12:49.000,178.695,35.868,657.883491
1 Dec 2019 19:12:50.000,178.115,36.155,654.049908
1 Dec 2019 19:12:51.000,177.525,36.443,650.272332
1 Dec 2019 19:12:52.000,176.923,36.729,646.551748
1 Dec 2019 19:12:53.000,176.309,37.016,642.889151
1 Dec 2019 19:12:54.000,175.684,37.302,639.285541
1 Dec 2019 19:12:55.000,175.047,37.587,635.741926
1 Dec 2019 19:12:56.000,174.398,37.872,632.259318
1 Dec 2019 19:12:57.000,173.736,38.155,628.838737
1 Dec 2019 19:12:58.000,173.062,38.437,625.481203
1 Dec 2019 19:12:59.000,172.376,38.717,622.187740
1 Dec 2019 19:13:00.000,171.677,38.996,618.959377
1 Dec 2019 19:13:01.000,170.965,39.273,615.797141
1 Dec 2019 19:13:02.000,170.240,39.548,612.702058
1 Dec 2019 19:13:03.000,169.501,39.820,609.675157
1 Dec 2019 19:13:04.000,168.750,40.089,606.717460
1 Dec 2019 19:13:05.000,167.985,40.356,603.829989
1 Dec 2019 19:13:06.000,167.207,40.619,601.013758
1 Dec 2019 19:13:07.000,166.416,40.879,598.269779
1 Dec 2019 19:13:08.000,165.611,41.135,595.599051
1 Dec 2019 19:13:09.000,164.792,41.387,593.002569
1 Dec 2019 19:13:10.000,163.960,41.635,590.481315
1 Dec 2019 19:13:11.000,163.115,41.878,588.036259
1 Dec 2019 19:13:12.000,162.256,42.117,585.668358
1 Dec 2019 19:13:13.000,161.383,42.350,583.378556
1 Dec 2019 19:13:14.000,160.498,42.577,581.167779
1 Dec 2019 19:13:15.000,159.599,42.799,579.036933
1 Dec 2019 19:13:16.000,158.688,43.014,576.986907
1 Dec 2019 19:13:17.000,157.763,43.224,575.018568
1 Dec 2019 19:13:18.000,156.826,43.426,573.132760
1 Dec 2019 19:13:19.000,155.877,43.621,571.330302
1 Dec 2019 19:13:20.000,154.916,43.809,569.611989
1 Dec 2019 19:13:21.000,153.943,43.989,567.978584
1 Dec 2019 19:13:22.000,152.959,44.162,566.430827
1 Dec 2019 19:13:23.000,151.963,44.326,564.969421
1 Dec 2019 19:13:24.000,150.958,44.482,563.595041
1 Dec 2019 19:13:25.000,149.942,44.628,562.308325
1 Dec 2019 19:13:26.000,148.917,44.766,561.109881
1 Dec 2019 19:13:27.000,147.882,44.895,560.000273
1 Dec 2019 19:13:28.000,146.840,45.013,558.980034
1 Dec 2019 19:13:29.000,145.789,45.123,558.049657
1 Dec 2019 19:13:30.000,144.731,45.222,557.209589
1 Dec 2019 19:13:31.000,143.667,45.311,556.460242
1 Dec 2019 19:13:32.000,142.597,45.390,555.801986
1 Dec 2019 19:13:33.000,141.522,45.458,555.235142
1 Dec 2019 19:13:34.000,140.442,45.516,554.759994
1 Dec 2019 19:13:35.000,139.358,45.562,554.376776
1 Dec 2019 19:13:36.000,138.272,45.599,554.085681
1 Dec 2019 19:13:37.000,137.183,45.624,553.886854
1 Dec 2019 19:13:38.000,136.094,45.638,553.780394
1 Dec 2019 19:13:39.000,135.003,45.642,553.766356
1 Dec 2019 19:13:40.000,133.913,45.634,553.844746
1 Dec 2019 19:13:41.000,132.823,45.615,554.015525
1 Dec 2019 19:13:42.000,131.736,45.586,554.278608
1 Dec 2019 19:13:43.000,130.651,45.546,554.633862
1 Dec 2019 19:13:44.000,129.569,45.494,555.081110
1 Dec 2019 19:13:45.000,128.492,45.433,555.620130
1 Dec 2019 19:13:46.000,127.419,45.360,556.250655
1 Dec 2019 19:13:47.000,126.352,45.278,556.972370
1 Dec 2019 19:13:48.000,125.291,45.185,557.784926
1 Dec 2019 19:13:49.000,124.237,45.082,558.687922
1 Dec 2019 19:13:50.000,123.191,44.969,559.680920
1 Dec 2019 19:13:51.000,122.152,44.847,560.763438
1 Dec 2019 19:13:52.000,121.123,44.715,561.934963
1 Dec 2019 19:13:53.000,120.103,44.574,563.194933
1 Dec 2019 19:13:54.000,119.092,44.424,564.542758
1 Dec 2019 19:13:55.000,118.092,44.265,565.977808
1 Dec 2019 19:13:56.000,117.102,44.098,567.499416
1 Dec 2019 19:13:57.000,116.124,43.923,569.106892
1 Dec 2019 19:13:58.000,115.157,43.740,570.799502
1 Dec 2019 19:13:59.000,114.202,43.550,572.576494
1 Dec 2019 19:14:00.000,113.260,43.352,574.437082
1 Dec 2019 19:14:01.000,112.329,43.148,576.380452
1 Dec 2019 19:14:02.000,111.412,42.937,578.405772
1 Dec 2019 19:14:03.000,110.507,42.720,580.512175
1 Dec 2019 19:14:04.000,109.615,42.496,582.698783
1 Dec 2019 19:14:05.000,108.737,42.267,584.964695
1 Dec 2019 19:14:06.000,107.872,42.033,587.308991
1 Dec 2019 19:14:07.000,107.020,41.794,589.730729
1 Dec 2019 19:14:08.000,106.182,41.549,592.228959
1 Dec 2019 19:14:09.000,105.357,41.301,594.802714
1 Dec 2019 19:14:10.000,104.545,41.048,597.451015
1 Dec 2019 19:14:11.000,103.748,40.791,600.172873
1 Dec 2019 19:14:12.000,102.963,40.531,602.967286
1 Dec 2019 19:14:13.000,102.192,40.267,605.833252
1 Dec 2019 19:14:14.000,101.435,40.001,608.769751
1 Dec 2019 19:14:15.000,100.691,39.731,611.775765
1 Dec 2019 19:14:16.000,99.959,39.459,614.850273
1 Dec 2019 19:14:17.000,99.241,39.185,617.992248
1 Dec 2019 19:14:18.000,98.536,38.908,621.200660
1 Dec 2019 19:14:19.000,97.844,38.630,624.474486
1 Dec 2019 19:14:20.000,97.164,38.350,627.812697
1 Dec 2019 19:14:21.000,96.497,38.069,631.214268
1 Dec 2019 19:14:22.000,95.842,37.787,634.678174
1 Dec 2019 19:14:23.000,95.200,37.503,638.203398
1 Dec 2019 19:14:24.000,94.569,37.219,641.788925
1 Dec 2019 19:14:25.000,93.950,36.934,645.433742
1 Dec 2019 19:14:26.000,93.343,36.648,649.136852
1 Dec 2019 19:14:27.000,92.747,36.363,652.897256
1 Dec 2019 19:14:28.000,92.162,36.077,656.713966
1 Dec 2019 19:14:29.000,91.589,35.791,660.585998
1 Dec 2019 19:14:30.000,91.026,35.505,664.512386
1 Dec 2019 19:14:31.000,90.474,35.220,668.492164
1 Dec 2019 19:14:32.000,89.932,34.935,672.524378
1 Dec 2019 19:14:33.000,89.401,34.650,676.608091
1 Dec 2019 19:14:34.000,88.879,34.366,680.742368
1 Dec 2019 19:14:35.000,88.368,34.083,684.926286
1 Dec 2019 19:14:36.000,87.866,33.801,689.158941
1 Dec 2019 19:14:37.000,87.374,33.519,693.439434
1 Dec 2019 19:14:38.000,86.890,33.239,697.766875
1 Dec 2019 19:14:39.000,86.416,32.960,702.140397
1 Dec 2019 19:14:40.000,85.951,32.682,706.559135
1 Dec 2019 19:14:41.000,85.495,32.405,711.022244
1 Dec 2019 19:14:42.000,85.047,32.130,715.528884
1 Dec 2019 19:14:43.000,84.607,31.856,720.078239
1 Dec 2019 19:14:44.000,84.176,31.583,724.669491
1 Dec 2019 19:14:45.000,83.752,31.312,729.301851
1 Dec 2019 19:14:46.000,83.337,31.043,733.974528
1 Dec 2019 19:14:47.000,82.929,30.775,738.686758
1 Dec 2019 19:14:48.000,82.528,30.509,743.437777
1 Dec 2019 19:14:49.000,82.135,30.244,748.226844
1 Dec 2019 19:14:50.000,81.749,29.982,753.053230
1 Dec 2019 19:14:51.000,81.370,29.721,757.916210
1 Dec 2019 19:14:52.000,80.998,29.461,762.815082
1 Dec 2019 19:14:53.000,80.632,29.204,767.749156
1 Dec 2019 19:14:54.000,80.273,28.948,772.717745
1 Dec 2019 19:14:55.000,79.920,28.694,777.720189
1 Dec 2019 19:14:56.000,79.574,28.442,782.755826
1 Dec 2019 19:14:57.000,79.234,28.192,787.824016
1 Dec 2019 19:14:58.000,78.899,27.944,792.924130
1 Dec 2019 19:14:59.000,78.571,27.698,798.055552
1 Dec 2019 19:15:00.000,78.248,27.454,803.217671
1 Dec 2019 19:15:01.000,77.931,27.211,808.409894
1 Dec 2019 19:15:02.000,77.619,26.971,813.631643
1 Dec 2019 19:15:03.000,77.313,26.732,818.882340
1 Dec 2019 19:15:04.000,77.011,26.496,824.161430
1 Dec 2019 19:15:05.000,76.715,26.261,829.468362
1 Dec 2019 19:15:06.000,76.424,26.028,834.802605
1 Dec 2019 19:15:07.000,76.138,25.797,840.163623
1 Dec 2019 19:15:08.000,75.857,25.568,845.550906
1 Dec 2019 19:15:09.000,75.580,25.341,850.963948
1 Dec 2019 19:15:10.000,75.308,25.116,856.402253
1 Dec 2019 19:15:11.000,75.040,24.893,861.865341
1 Dec 2019 19:15:12.000,74.777,24.671,867.352730
1 Dec 2019 19:15:13.000,74.518,24.452,872.863959
1 Dec 2019 19:15:14.000,74.263,24.234,878.398572
1 Dec 2019 19:15:15.000,74.012,24.018,883.956124
1 Dec 2019 19:15:16.000,73.765,23.805,889.536178
1 Dec 2019 19:15:17.000,73.522,23.592,895.138306
1 Dec 2019 19:15:18.000,73.283,23.382,900.762093
1 Dec 2019 19:15:19.000,73.048,23.174,906.407124
1 Dec 2019 19:15:20.000,72.816,22.967,912.072999
1 Dec 2019 19:15:21.000,72.588,22.762,917.759327
1 Dec 2019 19:15:22.000,72.364,22.559,923.465722
1 Dec 2019 19:15:23.000,72.143,22.358,929.191808
1 Dec 2019 19:15:24.000,71.925,22.158,934.937217
1 Dec 2019 19:15:25.000,71.711,21.960,940.701588
1 Dec 2019 19:15:26.000,71.500,21.764,946.484567
1 Dec 2019 19:15:27.000,71.292,21.570,952.285808
1 Dec 2019 19:15:28.000,71.087,21.377,958.104977
1 Dec 2019 19:15:29.000,70.886,21.186,963.941734
1 Dec 2019 19:15:30.000,70.687,20.997,969.795760
1 Dec 2019 19:15:31.000,70.491,20.809,975.666735
1 Dec 2019 19:15:32.000,70.298,20.622,981.554349
1 Dec 2019 19:15:33.000,70.108,20.438,987.458298
1 Dec 2019 19:15:34.000,69.920,20.255,993.378282
1 Dec 2019 19:15:35.000,69.736,20.073,999.314011
1 Dec 2019 19:15:36.000,69.554,19.893,1005.265197
1 Dec 2019 19:15:37.000,69.374,19.715,1011.231562
1 Dec 2019 19:15:38.000,69.197,19.538,1017.212830
1 Dec 2019 19:15:39.000,69.023,19.363,1023.208734
1 Dec 2019 19:15:40.000,68.851,19.189,1029.219010
1 Dec 2019 19:15:41.000,68.681,19.016,1035.243401
1 Dec 2019 19:15:42.000,68.514,18.845,1041.281655
1 Dec 2019 19:15:43.000,68.349,18.676,1047.333525
1 Dec 2019 19:15:44.000,68.186,18.508,1053.398769
1 Dec 2019 19:15:45.000,68.026,18.341,1059.477150
1 Dec 2019 19:15:46.000,67.867,18.176,1065.568436
1 Dec 2019 19:15:47.000,67.711,18.012,1071.672400
1 Dec 2019 19:15:48.000,67.557,17.849,1077.788819
1 Dec 2019 19:15:49.000,67.405,17.688,1083.917476
1 Dec 2019 19:15:50.000,67.255,17.528,1090.058155
1 Dec 2019 19:15:51.000,67.107,17.369,1096.210645
1 Dec 2019 19:15:52.000,66.961,17.212,1102.374748
1 Dec 2019 19:15:53.000,66.817,17.055,1108.550258
1 Dec 2019 19:15:54.000,66.674,16.901,1114.736980
1 Dec 2019 19:15:55.000,66.534,16.747,1120.934719
1 Dec 2019 19:15:56.000,66.395,16.595,1127.143287
1 Dec 2019 19:15:57.000,66.258,16.443,1133.362499
1 Dec 2019 19:15:58.000,66.123,16.293,1139.592173
1 Dec 2019 19:15:59.000,65.990,16.145,1145.832131
1 Dec 2019 19:16:00.000,65.858,15.997,1152.082198
1 Dec 2019 19:16:01.000,65.728,15.850,1158.342203
1 Dec 2019 19:16:02.000,65.599,15.705,1164.611979
1 Dec 2019 19:16:03.000,65.472,15.561,1170.891361
1 Dec 2019 19:16:04.000,65.347,15.418,1177.180188
1 Dec 2019 19:16:05.000,65.223,15.276,1183.478298
1 Dec 2019 19:16:06.000,65.101,15.135,1189.785544
1 Dec 2019 19:16:07.000,64.980,14.995,1196.101770
1 Dec 2019 19:16:08.000,64.860,14.856,1202.426827
1 Dec 2019 19:16:09.000,64.743,14.718,1208.760569
1 Dec 2019 19:16:10.000,64.626,14.582,1215.102852
1 Dec 2019 19:16:11.000,64.511,14.446,1221.453536
1 Dec 2019 19:16:12.000,64.397,14.311,1227.812483
1 Dec 2019 19:16:13.000,64.285,14.177,1234.179559
1 Dec 2019 19:16:14.000,64.173,14.045,1240.554625
1 Dec 2019 19:16:15.000,64.064,13.913,1246.937560
1 Dec 2019 19:16:16.000,63.955,13.782,1253.328232
1 Dec 2019 19:16:17.000,63.848,13.652,1259.726516
1 Dec 2019 19:16:18.000,63.742,13.523,1266.132289
1 Dec 2019 19:16:19.000,63.637,13.395,1272.545429
1 Dec 2019 19:16:20.000,63.533,13.268,1278.965819
1 Dec 2019 19:16:21.000,63.431,13.142,1285.393340
1 Dec 2019 19:16:22.000,63.329,13.017,1291.827882
1 Dec 2019 19:16:23.000,63.229,12.892,1298.269332
1 Dec 2019 19:16:24.000,63.130,12.769,1304.717580
1 Dec 2019 19:16:25.000,63.032,12.646,1311.172516
1 Dec 2019 19:16:26.000,62.935,12.524,1317.634036
1 Dec 2019 19:16:27.000,62.839,12.403,1324.102035
1 Dec 2019 19:16:28.000,62.745,12.283,1330.576408
1 Dec 2019 19:16:29.000,62.651,12.163,1337.057061
1 Dec 2019 19:16:30.000,62.558,12.045,1343.543892
1 Dec 2019 19:16:31.000,62.467,11.927,1350.036805
1 Dec 2019 19:16:32.000,62.376,11.810,1356.535704
1 Dec 2019 19:16:33.000,62.286,11.694,1363.040496
1 Dec 2019 19:16:34.000,62.197,11.578,1369.551087
1 Dec 2019 19:16:35.000,62.109,11.464,1376.067392
1 Dec 2019 19:16:36.000,62.022,11.350,1382.589319
1 Dec 2019 19:16:37.000,61.936,11.236,1389.116783
1 Dec 2019 19:16:38.000,61.851,11.124,1395.649697
1 Dec 2019 19:16:39.000,61.767,11.012,1402.187974
1 Dec 2019 19:16:40.000,61.684,10.901,1408.731539
1 Dec 2019 19:16:41.000,61.601,10.791,1415.280306
1 Dec 2019 19:16:42.000,61.520,10.681,1421.834197
1 Dec 2019 19:16:43.000,61.439,10.572,1428.393133
1 Dec 2019 19:16:44.000,61.359,10.464,1434.957036
1 Dec 2019 19:16:45.000,61.280,10.356,1441.525829
1 Dec 2019 19:16:46.000,61.201,10.249,1448.099443
1 Dec 2019 19:16:47.000,61.124,10.143,1454.677802
1 Dec 2019 19:16:48.000,61.047,10.037,1461.260833
1 Dec 2019 19:16:49.000,60.971,9.932,1467.848467
1 Dec 2019 19:16:50.000,60.896,9.828,1474.440631
1 Dec 2019 19:16:51.000,60.821,9.724,1481.037262
1 Dec 2019 19:16:52.000,60.747,9.621,1487.638290
1 Dec 2019 19:16:53.000,60.674,9.518,1494.243649
1 Dec 2019 19:16:54.000,60.602,9.416,1500.853274
1 Dec 2019 19:16:55.000,60.530,9.315,1507.467098
1 Dec 2019 19:16:56.000,60.459,9.214,1514.085064
1 Dec 2019 19:16:57.000,60.389,9.114,1520.707107
1 Dec 2019 19:16:58.000,60.319,9.014,1527.333167
1 Dec 2019 19:16:59.000,60.250,8.915,1533.963183
1 Dec 2019 19:17:00.000,60.182,8.817,1540.597093
1 Dec 2019 19:17:01.000,60.114,8.719,1547.234846
1 Dec 2019 19:17:02.000,60.047,8.622,1553.876381
1 Dec 2019 19:17:03.000,59.981,8.525,1560.521642
1 Dec 2019 19:17:04.000,59.915,8.428,1567.170571
1 Dec 2019 19:17:05.000,59.850,8.333,1573.823120
1 Dec 2019 19:17:06.000,59.786,8.237,1580.479231
1 Dec 2019 19:17:07.000,59.722,8.143,1587.138853
1 Dec 2019 19:17:08.000,59.658,8.048,1593.801932
1 Dec 2019 19:17:09.000,59.596,7.955,1600.468416
1 Dec 2019 19:17:10.000,59.533,7.862,1607.138260
1 Dec 2019 19:17:11.000,59.472,7.769,1613.811410
1 Dec 2019 19:17:12.000,59.411,7.677,1620.487820
1 Dec 2019 19:17:13.000,59.350,7.585,1627.167436
1 Dec 2019 19:17:14.000,59.290,7.494,1633.850219
1 Dec 2019 19:17:15.000,59.231,7.403,1640.536118
1 Dec 2019 19:17:16.000,59.172,7.313,1647.225088
1 Dec 2019 19:17:17.000,59.114,7.223,1653.917083
1 Dec 2019 19:17:18.000,59.056,7.133,1660.612056
1 Dec 2019 19:17:19.000,58.999,7.044,1667.309969
1 Dec 2019 19:17:20.000,58.942,6.956,1674.010776
1 Dec 2019 19:17:21.000,58.885,6.868,1680.714434
1 Dec 2019 19:17:22.000,58.830,6.780,1687.420898
1 Dec 2019 19:17:23.000,58.774,6.693,1694.130134
1 Dec 2019 19:17:24.000,58.719,6.606,1700.842096
1 Dec 2019 19:17:25.000,58.665,6.520,1707.556746
1 Dec 2019 19:17:26.000,58.611,6.434,1714.274040
1 Dec 2019 19:17:27.000,58.558,6.349,1720.993946
1 Dec 2019 19:17:28.000,58.505,6.263,1727.716422
1 Dec 2019 19:17:29.000,58.452,6.179,1734.441430
1 Dec 2019 19:17:30.000,58.400,6.094,1741.168930
1 Dec 2019 19:17:31.000,58.348,6.011,1747.898891
1 Dec 2019 19:17:32.000,58.297,5.927,1754.631275
1 Dec 2019 19:17:33.000,58.246,5.844,1761.366044
1 Dec 2019 19:17:34.000,58.196,5.761,1768.103161
1 Dec 2019 19:17:35.000,58.146,5.679,1774.842597
1 Dec 2019 19:17:36.000,58.097,5.597,1781.584315
1 Dec 2019 19:17:37.000,58.047,5.515,1788.328281
1 Dec 2019 19:17:38.000,57.999,5.434,1795.074458
1 Dec 2019 19:17:39.000,57.950,5.353,1801.822820
1 Dec 2019 19:17:40.000,57.903,5.273,1808.573331
1 Dec 2019 19:17:41.000,57.855,5.193,1815.325960
1 Dec 2019 19:17:42.000,57.808,5.113,1822.080671
1 Dec 2019 19:17:43.000,57.761,5.034,1828.837440
1 Dec 2019 19:17:44.000,57.715,4.954,1835.596233
1 Dec 2019 19:17:45.000,57.669,4.876,1842.357020
1 Dec 2019 19:17:46.000,57.623,4.797,1849.119767
1 Dec 2019 19:17:47.000,57.578,4.719,1855.884451
1 Dec 2019 19:17:48.000,57.533,4.641,1862.651040
1 Dec 2019 19:17:49.000,57.488,4.564,1869.419506
1 Dec 2019 19:17:50.000,57.444,4.487,1876.189816
1 Dec 2019 19:17:51.000,57.400,4.410,1882.961950
1 Dec 2019 19:17:52.000,57.357,4.334,1889.735876
1 Dec 2019 19:17:53.000,57.314,4.258,1896.511567
1 Dec 2019 19:17:54.000,57.271,4.182,1903.288993
1 Dec 2019 19:17:55.000,57.229,4.106,1910.068134
1 Dec 2019 19:17:56.000,57.186,4.031,1916.848960
1 Dec 2019 19:17:57.000,57.145,3.956,1923.631447
1 Dec 2019 19:17:58.000,57.103,3.882,1930.415564
1 Dec 2019 19:17:59.000,57.062,3.807,1937.201293
1 Dec 2019 19:18:00.000,57.021,3.733,1943.988605
1 Dec 2019 19:18:01.000,56.981,3.660,1950.777478
1 Dec 2019 19:18:02.000,56.940,3.586,1957.567882
1 Dec 2019 19:18:03.000,56.900,3.513,1964.359800
1 Dec 2019 19:18:04.000,56.861,3.440,1971.153206
1 Dec 2019 19:18:05.000,56.821,3.368,1977.948072
1 Dec 2019 19:18:06.000,56.782,3.295,1984.744383
1 Dec 2019 19:18:07.000,56.744,3.223,1991.542111
1 Dec 2019 19:18:08.000,56.705,3.152,1998.341235
1 Dec 2019 19:18:09.000,56.667,3.080,2005.141729
1 Dec 2019 19:18:10.000,56.629,3.009,2011.943577
1 Dec 2019 19:18:11.000,56.592,2.938,2018.746755
1 Dec 2019 19:18:12.000,56.554,2.867,2025.551241
1 Dec 2019 19:18:13.000,56.517,2.797,2032.357010
1 Dec 2019 19:18:14.000,56.481,2.727,2039.164049
1 Dec 2019 19:18:15.000,56.444,2.657,2045.972332
1 Dec 2019 19:18:16.000,56.408,2.587,2052.781840
1 Dec 2019 19:18:17.000,56.372,2.518,2059.592550
1 Dec 2019 19:18:18.000,56.336,2.449,2066.404447
1 Dec 2019 19:18:19.000,56.301,2.380,2073.217508
1 Dec 2019 19:18:20.000,56.266,2.311,2080.031712
1 Dec 2019 19:18:21.000,56.231,2.243,2086.847044
1 Dec 2019 19:18:22.000,56.196,2.174,2093.663483
1 Dec 2019 19:18:23.000,56.162,2.106,2100.481010
1 Dec 2019 19:18:24.000,56.127,2.039,2107.299603
1 Dec 2019 19:18:25.000,56.093,1.971,2114.119249
1 Dec 2019 19:18:26.000,56.060,1.904,2120.939928
1 Dec 2019 19:18:27.000,56.026,1.837,2127.761622
1 Dec 2019 19:18:28.000,55.993,1.770,2134.584309
1 Dec 2019 19:18:29.000,55.960,1.703,2141.407978
1 Dec 2019 19:18:30.000,55.927,1.637,2148.232609
1 Dec 2019 19:18:31.000,55.895,1.571,2155.058181
1 Dec 2019 19:18:32.000,55.862,1.505,2161.884683
1 Dec 2019 19:18:33.000,55.830,1.439,2168.712096
1 Dec 2019 19:18:34.000,55.799,1.374,2175.540402
1 Dec 2019 19:18:35.000,55.767,1.308,2182.369583
1 Dec 2019 19:18:36.000,55.736,1.243,2189.199627
1 Dec 2019 19:18:37.000,55.704,1.179,2196.030517
1 Dec 2019 19:18:38.000,55.673,1.114,2202.862232
1 Dec 2019 19:18:39.000,55.643,1.049,2209.694763
1 Dec 2019 19:18:40.000,55.612,0.985,2216.528091
1 Dec 2019 19:18:41.000,55.582,0.921,2223.362201
1 Dec 2019 19:18:42.000,55.552,0.857,2230.197075
1 Dec 2019 19:18:43.000,55.522,0.793,2237.032703
1 Dec 2019 19:18:44.000,55.492,0.730,2243.869068
1 Dec 2019 19:18:45.000,55.462,0.667,2250.706154
1 Dec 2019 19:18:46.000,55.433,0.604,2257.543944
1 Dec 2019 19:18:47.000,55.404,0.541,2264.382430
1 Dec 2019 19:18:48.000,55.375,0.478,2271.221594
1 Dec 2019 19:18:49.000,55.346,0.415,2278.061418
1 Dec 2019 19:18:50.000,55.318,0.353,2284.901896
1 Dec 2019 19:18:51.000,55.289,0.291,2291.743009
1 Dec 2019 19:18:52.000,55.261,0.229,2298.584743
1 Dec 2019 19:18:53.000,55.233,0.167,2305.427084
1 Dec 2019 19:18:54.000,55.205,0.106,2312.270022
1 Dec 2019 19:18:55.000,55.178,0.044,2319.113541
1 Dec 2019 19:18:56.000,55.150,-0.017,2325.957626
1 Dec 2019 19:18:56.624,55.133,-0.055,2330.231012
1 Dec 2019 20:45:20.145,263.322,-0.056,2320.384074
1 Dec 2019 20:45:21.000,263.387,-0.007,2315.004119
1 Dec 2019 20:45:22.000,263.463,0.050,2308.712535
1 Dec 2019 20:45:23.000,263.540,0.107,2302.424386
1 Dec 2019 20:45:24.000,263.617,0.164,2296.139707
1 Dec 2019 20:45:25.000,263.694,0.221,2289.858533
1 Dec 2019 20:45:26.000,263.772,0.278,2283.580900
1 Dec 2019 20:45:27.000,263.851,0.336,2277.306846
1 Dec 2019 20:45:28.000,263.929,0.393,2271.036406
1 Dec 2019 20:45:29.000,264.009,0.451,2264.769614
1 Dec 2019 20:45:30.000,264.088,0.509,2258.506515
1 Dec 2019 20:45:31.000,264.168,0.567,2252.247143
1 Dec 2019 20:45:32.000,264.249,0.625,2245.991536
1 Dec 2019 20:45:33.000,264.330,0.683,2239.739734
1 Dec 2019 20:45:34.000,264.411,0.741,2233.491774
1 Dec 2019 20:45:35.000,264.493,0.800,2227.247696
1 Dec 2019 20:45:36.000,264.575,0.858,2221.007541
1 Dec 2019 20:45:37.000,264.658,0.917,2214.771347
1 Dec 2019 20:45:38.000,264.741,0.976,2208.539157
1 Dec 2019 20:45:39.000,264.825,1.035,2202.311010
1 Dec 2019 20:45:40.000,264.909,1.094,2196.086949
1 Dec 2019 20:45:41.000,264.993,1.154,2189.867011
1 Dec 2019 20:45:42.000,265.078,1.213,2183.651247
1 Dec 2019 20:45:43.000,265.164,1.273,2177.439694
1 Dec 2019 20:45:44.000,265.250,1.332,2171.232397
1 Dec 2019 20:45:45.000,265.336,1.392,2165.029399
1 Dec 2019 20:45:46.000,265.423,1.452,2158.830743
1 Dec 2019 20:45:47.000,265.511,1.512,2152.636475
1 Dec 2019 20:45:48.000,265.598,1.573,2146.446640
1 Dec 2019 20:45:49.000,265.687,1.633,2140.261282
1 Dec 2019 20:45:50.000,265.776,1.694,2134.080448
1 Dec 2019 20:45:51.000,265.865,1.755,2127.904184
1 Dec 2019 20:45:52.000,265.955,1.815,2121.732537
1 Dec 2019 20:45:53.000,266.046,1.876,2115.565554
1 Dec 2019 20:45:54.000,266.137,1.938,2109.403284
1 Dec 2019 20:45:55.000,266.228,1.999,2103.245773
1 Dec 2019 20:45:56.000,266.320,2.061,2097.093073
1 Dec 2019 20:45:57.000,266.413,2.122,2090.945227
1 Dec 2019 20:45:58.000,266.506,2.184,2084.802294
1 Dec 2019 20:45:59.000,266.600,2.246,2078.664319
1 Dec 2019 20:46:00.000,266.694,2.308,2072.531355
1 Dec 2019 20:46:01.000,266.789,2.370,2066.403452
1 Dec 2019 20:46:02.000,266.884,2.433,2060.280663
1 Dec 2019 20:46:03.000,266.980,2.495,2054.163040
1 Dec 2019 20:46:04.000,267.076,2.558,2048.050636
1 Dec 2019 20:46:05.000,267.173,2.621,2041.943506
1 Dec 2019 20:46:06.000,267.271,2.684,2035.841702
1 Dec 2019 20:46:07.000,267.369,2.747,2029.745281
1 Dec 2019 20:46:08.000,267.468,2.811,2023.654298
1 Dec 2019 20:46:09.000,267.567,2.874,2017.568808
1 Dec 2019 20:46:10.000,267.667,2.938,2011.488869
1 Dec 2019 20:46:11.000,267.768,3.002,2005.414538
1 Dec 2019 20:46:12.000,267.869,3.066,1999.345873
1 Dec 2019 20:46:13.000,267.971,3.130,1993.282931
1 Dec 2019 20:46:14.000,268.073,3.194,1987.225774
1 Dec 2019 20:46:15.000,268.176,3.259,1981.174459
1 Dec 2019 20:46:16.000,268.280,3.324,1975.129049
1 Dec 2019 20:46:17.000,268.384,3.389,1969.089603
1 Dec 2019 20:46:18.000,268.489,3.454,1963.056184
1 Dec 2019 20:46:19.000,268.594,3.519,1957.028855
1 Dec 2019 20:46:20.000,268.701,3.584,1951.007677
1 Dec 2019 20:46:21.000,268.807,3.650,1944.992716
1 Dec 2019 20:46:22.000,268.915,3.716,1938.984036
1 Dec 2019 20:46:23.000,269.023,3.782,1932.981703
1 Dec 2019 20:46:24.000,269.132,3.848,1926.985781
1 Dec 2019 20:46:25.000,269.242,3.914,1920.996339
1 Dec 2019 20:46:26.000,269.352,3.981,1915.013442
1 Dec 2019 20:46:27.000,269.463,4.047,1909.037161
1 Dec 2019 20:46:28.000,269.574,4.114,1903.067563
1 Dec 2019 20:46:29.000,269.687,4.181,1897.104719
1 Dec 2019 20:46:30.000,269.800,4.248,1891.148698
1 Dec 2019 20:46:31.000,269.913,4.316,1885.199573
1 Dec 2019 20:46:32.000,270.028,4.383,1879.257416
1 Dec 2019 20:46:33.000,270.143,4.451,1873.322298
1 Dec 2019 20:46:34.000,270.259,4.519,1867.394295
1 Dec 2019 20:46:35.000,270.376,4.587,1861.473481
1 Dec 2019 20:46:36.000,270.493,4.655,1855.559930
1 Dec 2019 20:46:37.000,270.612,4.724,1849.653720
1 Dec 2019 20:46:38.000,270.730,4.792,1843.754928
1 Dec 2019 20:46:39.000,270.850,4.861,1837.863631
1 Dec 2019 20:46:40.000,270.971,4.930,1831.979908
1 Dec 2019 20:46:41.000,271.092,5.000,1826.103840
1 Dec 2019 20:46:42.000,271.214,5.069,1820.235506
1 Dec 2019 20:46:43.000,271.337,5.139,1814.374989
1 Dec 2019 20:46:44.000,271.461,5.209,1808.522371
1 Dec 2019 20:46:45.000,271.585,5.279,1802.677735
1 Dec 2019 20:46:46.000,271.711,5.349,1796.841166
1 Dec 2019 20:46:47.000,271.837,5.419,1791.012749
1 Dec 2019 20:46:48.000,271.964,5.490,1785.192570
1 Dec 2019 20:46:49.000,272.092,5.561,1779.380717
1 Dec 2019 20:46:50.000,272.220,5.632,1773.577282
1 Dec 2019 20:46:51.000,272.350,5.703,1767.782347
1 Dec 2019 20:46:52.000,272.480,5.774,1761.996005
1 Dec 2019 20:46:53.000,272.611,5.846,1756.218348
1 Dec 2019 20:46:54.000,272.744,5.918,1750.449469
1 Dec 2019 20:46:55.000,272.877,5.990,1744.689461
1 Dec 2019 20:46:56.000,273.011,6.062,1738.938418
1 Dec 2019 20:46:57.000,273.145,6.134,1733.196436
1 Dec 2019 20:46:58.000,273.281,6.207,1727.463612
1 Dec 2019 20:46:59.000,273.418,6.280,1721.740044
1 Dec 2019 20:47:00.000,273.556,6.353,1716.025831
1 Dec 2019 20:47:01.000,273.694,6.426,1710.321072
1 Dec 2019 20:47:02.000,273.834,6.499,1704.625873
1 Dec 2019 20:47:03.000,273.974,6.573,1698.940328
1 Dec 2019 20:47:04.000,274.116,6.647,1693.264546
1 Dec 2019 20:47:05.000,274.258,6.721,1687.598630
1 Dec 2019 20:47:06.000,274.401,6.795,1681.942687
1 Dec 2019 20:47:07.000,274.546,6.870,1676.296824
1 Dec 2019 20:47:08.000,274.691,6.944,1670.661149
1 Dec 2019 20:47:09.000,274.838,7.019,1665.035772
1 Dec 2019 20:47:10.000,274.985,7.094,1659.420804
1 Dec 2019 20:47:11.000,275.134,7.170,1653.816361
1 Dec 2019 20:47:12.000,275.283,7.245,1648.222549
1 Dec 2019 20:47:13.000,275.434,7.321,1642.639486
1 Dec 2019 20:47:14.000,275.585,7.397,1637.067289
1 Dec 2019 20:47:15.000,275.738,7.473,1631.506076
1 Dec 2019 20:47:16.000,275.892,7.549,1625.955964
1 Dec 2019 20:47:17.000,276.046,7.626,1620.417074
1 Dec 2019 20:47:18.000,276.202,7.703,1614.889532
1 Dec 2019 20:47:19.000,276.359,7.779,1609.373452
1 Dec 2019 20:47:20.000,276.518,7.857,1603.868964
1 Dec 2019 20:47:21.000,276.677,7.934,1598.376192
1 Dec 2019 20:47:22.000,276.837,8.012,1592.895265
1 Dec 2019 20:47:23.000,276.999,8.089,1587.426310
1 Dec 2019 20:47:24.000,277.162,8.167,1581.969462
1 Dec 2019 20:47:25.000,277.326,8.246,1576.524845
1 Dec 2019 20:47:26.000,277.491,8.324,1571.092596
1 Dec 2019 20:47:27.000,277.657,8.403,1565.672850
1 Dec 2019 20:47:28.000,277.825,8.482,1560.265742
1 Dec 2019 20:47:29.000,277.993,8.561,1554.871414
1 Dec 2019 20:47:30.000,278.163,8.640,1549.489999
1 Dec 2019 20:47:31.000,278.334,8.719,1544.121640
1 Dec 2019 20:47:32.000,278.507,8.799,1538.766481
1 Dec 2019 20:47:33.000,278.680,8.879,1533.424665
1 Dec 2019 20:47:34.000,278.855,8.959,1528.096342
1 Dec 2019 20:47:35.000,279.032,9.039,1522.781653
1 Dec 2019 20:47:36.000,279.209,9.120,1517.480749
1 Dec 2019 20:47:37.000,279.388,9.200,1512.193781
1 Dec 2019 20:47:38.000,279.568,9.281,1506.920907
1 Dec 2019 20:47:39.000,279.749,9.362,1501.662272
1 Dec 2019 20:47:40.000,279.932,9.444,1496.418036
1 Dec 2019 20:47:41.000,280.116,9.525,1491.188356
1 Dec 2019 20:47:42.000,280.302,9.607,1485.973397
1 Dec 2019 20:47:43.000,280.489,9.689,1480.773311
1 Dec 2019 20:47:44.000,280.677,9.771,1475.588266
1 Dec 2019 20:47:45.000,280.867,9.853,1470.418425
1 Dec 2019 20:47:46.000,281.058,9.935,1465.263960
1 Dec 2019 20:47:47.000,281.250,10.018,1460.125030
1 Dec 2019 20:47:48.000,281.444,10.101,1455.001812
1 Dec 2019 20:47:49.000,281.640,10.184,1449.894475
1 Dec 2019 20:47:50.000,281.836,10.267,1444.803198
1 Dec 2019 20:47:51.000,282.035,10.350,1439.728150
1 Dec 2019 20:47:52.000,282.235,10.434,1434.669512
1 Dec 2019 20:47:53.000,282.436,10.518,1429.627467
1 Dec 2019 20:47:54.000,282.639,10.602,1424.602189
1 Dec 2019 20:47:55.000,282.843,10.686,1419.593866
1 Dec 2019 20:47:56.000,283.049,10.770,1414.602687
1 Dec 2019 20:47:57.000,283.256,10.854,1409.628832
1 Dec 2019 20:47:58.000,283.465,10.939,1404.672494
1 Dec 2019 20:47:59.000,283.676,11.023,1399.733869
1 Dec 2019 20:48:00.000,283.888,11.108,1394.813141
1 Dec 2019 20:48:01.000,284.102,11.193,1389.910512
1 Dec 2019 20:48:02.000,284.317,11.278,1385.026180
1 Dec 2019 20:48:03.000,284.534,11.364,1380.160340
1 Dec 2019 20:48:04.000,284.753,11.449,1375.313199
1 Dec 2019 20:48:05.000,284.973,11.535,1370.484953
1 Dec 2019 20:48:06.000,285.195,11.621,1365.675813
1 Dec 2019 20:48:07.000,285.419,11.706,1360.885990
1 Dec 2019 20:48:08.000,285.644,11.792,1356.115685
1 Dec 2019 20:48:09.000,285.871,11.878,1351.365119
1 Dec 2019 20:48:10.000,286.100,11.965,1346.634497
1 Dec 2019 20:48:11.000,286.331,12.051,1341.924040
1 Dec 2019 20:48:12.000,286.563,12.137,1337.233969
1 Dec 2019 20:48:13.000,286.797,12.224,1332.564498
1 Dec 2019 20:48:14.000,287.033,12.311,1327.915855
1 Dec 2019 20:48:15.000,287.270,12.397,1323.288258
1 Dec 2019 20:48:16.000,287.510,12.484,1318.681941
1 Dec 2019 20:48:17.000,287.751,12.571,1314.097125
1 Dec 2019 20:48:18.000,287.994,12.658,1309.534048
1 Dec 2019 20:48:19.000,288.239,12.745,1304.992936
1 Dec 2019 20:48:20.000,288.486,12.832,1300.474031
1 Dec 2019 20:48:21.000,288.734,12.920,1295.977563
1 Dec 2019 20:48:22.000,288.985,13.007,1291.503778
1 Dec 2019 20:48:23.000,289.237,13.094,1287.052910
1 Dec 2019 20:48:24.000,289.492,13.181,1282.625210
1 Dec 2019 20:48:25.000,289.748,13.269,1278.220916
1 Dec 2019 20:48:26.000,290.006,13.356,1273.840283
1 Dec 2019 20:48:27.000,290.266,13.443,1269.483553
1 Dec 2019 20:48:28.000,290.528,13.531,1265.150984
1 Dec 2019 20:48:29.000,290.792,13.618,1260.842823
1 Dec 2019 20:48:30.000,291.058,13.706,1256.559334
1 Dec 2019 20:48:31.000,291.326,13.793,1252.300766
1 Dec 2019 20:48:32.000,291.596,13.880,1248.067386
1 Dec 2019 20:48:33.000,291.868,13.968,1243.859452
1 Dec 2019 20:48:34.000,292.142,14.055,1239.677224
1 Dec 2019 20:48:35.000,292.418,14.142,1235.520975
1 Dec 2019 20:48:36.000,292.696,14.229,1231.390966
1 Dec 2019 20:48:37.000,292.977,14.316,1227.287471
1 Dec 2019 20:48:38.000,293.259,14.403,1223.210759
1 Dec 2019 20:48:39.000,293.543,14.490,1219.161100
1 Dec 2019 20:48:40.000,293.830,14.577,1215.138775
1 Dec 2019 20:48:41.000,294.118,14.664,1211.144057
1 Dec 2019 20:48:42.000,294.409,14.750,1207.177220
1 Dec 2019 20:48:43.000,294.702,14.837,1203.238552
1 Dec 2019 20:48:44.000,294.996,14.923,1199.328331
1 Dec 2019 20:48:45.000,295.293,15.009,1195.446837
1 Dec 2019 20:48:46.000,295.593,15.095,1191.594360
1 Dec 2019 20:48:47.000,295.894,15.181,1187.771185
1 Dec 2019 20:48:48.000,296.198,15.267,1183.977598
1 Dec 2019 20:48:49.000,296.503,15.352,1180.213886
1 Dec 2019 20:48:50.000,296.811,15.437,1176.480345
1 Dec 2019 20:48:51.000,297.121,15.522,1172.777266
1 Dec 2019 20:48:52.000,297.433,15.607,1169.104939
1 Dec 2019 20:48:53.000,297.748,15.692,1165.463659
1 Dec 2019 20:48:54.000,298.064,15.776,1161.853725
1 Dec 2019 20:48:55.000,298.383,15.860,1158.275431
1 Dec 2019 20:48:56.000,298.704,15.943,1154.729076
1 Dec 2019 20:48:57.000,299.028,16.027,1151.214958
1 Dec 2019 20:48:58.000,299.353,16.110,1147.733374
1 Dec 2019 20:48:59.000,299.681,16.192,1144.284631
1 Dec 2019 20:49:00.000,300.011,16.274,1140.869025
1 Dec 2019 20:49:01.000,300.343,16.356,1137.486861
1 Dec 2019 20:49:02.000,300.677,16.438,1134.138439
1 Dec 2019 20:49:03.000,301.014,16.519,1130.824064
1 Dec 2019 20:49:04.000,301.353,16.600,1127.544038
1 Dec 2019 20:49:05.000,301.694,16.680,1124.298666
1 Dec 2019 20:49:06.000,302.038,16.760,1121.088249
1 Dec 2019 20:49:07.000,302.383,16.839,1117.913097
1 Dec 2019 20:49:08.000,302.731,16.918,1114.773512
1 Dec 2019 20:49:09.000,303.081,16.996,1111.669797
1 Dec 2019 20:49:10.000,303.433,17.074,1108.602259
1 Dec 2019 20:49:11.000,303.788,17.151,1105.571199
1 Dec 2019 20:49:12.000,304.144,17.228,1102.576923
1 Dec 2019 20:49:13.000,304.503,17.304,1099.619734
1 Dec 2019 20:49:14.000,304.864,17.379,1096.699935
1 Dec 2019 20:49:15.000,305.228,17.454,1093.817827
1 Dec 2019 20:49:16.000,305.593,17.528,1090.973713
1 Dec 2019 20:49:17.000,305.961,17.602,1088.167892
1 Dec 2019 20:49:18.000,306.331,17.675,1085.400666
1 Dec 2019 20:49:19.000,306.703,17.747,1082.672335
1 Dec 2019 20:49:20.000,307.077,17.819,1079.983190
1 Dec 2019 20:49:21.000,307.453,17.890,1077.333531
1 Dec 2019 20:49:22.000,307.832,17.960,1074.723653
1 Dec 2019 20:49:23.000,308.212,18.029,1072.153848
1 Dec 2019 20:49:24.000,308.595,18.097,1069.624407
1 Dec 2019 20:49:25.000,308.980,18.165,1067.135620
1 Dec 2019 20:49:26.000,309.366,18.232,1064.687777
1 Dec 2019 20:49:27.000,309.755,18.298,1062.281157
1 Dec 2019 20:49:28.000,310.146,18.363,1059.916048
1 Dec 2019 20:49:29.000,310.539,18.427,1057.592728
1 Dec 2019 20:49:30.000,310.934,18.491,1055.311477
1 Dec 2019 20:49:31.000,311.331,18.553,1053.072572
1 Dec 2019 20:49:32.000,311.729,18.615,1050.876281
1 Dec 2019 20:49:33.000,312.130,18.675,1048.722876
1 Dec 2019 20:49:34.000,312.533,18.735,1046.612624
1 Dec 2019 20:49:35.000,312.937,18.793,1044.545791
1 Dec 2019 20:49:36.000,313.344,18.851,1042.522632
1 Dec 2019 20:49:37.000,313.752,18.907,1040.543405
1 Dec 2019 20:49:38.000,314.162,18.963,1038.608366
1 Dec 2019 20:49:39.000,314.574,19.017,1036.717759
1 Dec 2019 20:49:40.000,314.987,19.070,1034.871833
1 Dec 2019 20:49:41.000,315.402,19.123,1033.070829
1 Dec 2019 20:49:42.000,315.819,19.174,1031.314981
1 Dec 2019 20:49:43.000,316.238,19.224,1029.604525
1 Dec 2019 20:49:44.000,316.658,19.272,1027.939685
1 Dec 2019 20:49:45.000,317.080,19.320,1026.320689
1 Dec 2019 20:49:46.000,317.503,19.366,1024.747750
1 Dec 2019 20:49:47.000,317.928,19.411,1023.221087
1 Dec 2019 20:49:48.000,318.354,19.455,1021.740904
1 Dec 2019 20:49:49.000,318.782,19.498,1020.307409
1 Dec 2019 20:49:50.000,319.211,19.539,1018.920796
1 Dec 2019 20:49:51.000,319.641,19.579,1017.581261
1 Dec 2019 20:49:52.000,320.073,19.618,1016.288987
1 Dec 2019 20:49:53.000,320.506,19.655,1015.044160
1 Dec 2019 20:49:54.000,320.940,19.691,1013.846952
1 Dec 2019 20:49:55.000,321.376,19.726,1012.697535
1 Dec 2019 20:49:56.000,321.812,19.759,1011.596073
