vcc_sched/network/input/aer_odugs_wj2xoh_vcc-a_44428.csv

"Time (UTCG)","Azimuth (deg)","Elevation (deg)","Range (km)"
7 Jan 2020 03:04:11.168,165.672,-0.124,2316.138878
7 Jan 2020 03:04:12.000,165.556,-0.091,2312.413087
7 Jan 2020 03:04:13.000,165.417,-0.051,2307.946594
7 Jan 2020 03:04:14.000,165.276,-0.011,2303.492535
7 Jan 2020 03:04:15.000,165.135,0.030,2299.050987
7 Jan 2020 03:04:16.000,164.994,0.070,2294.622032
7 Jan 2020 03:04:17.000,164.852,0.110,2290.205745
7 Jan 2020 03:04:18.000,164.709,0.150,2285.802208
7 Jan 2020 03:04:19.000,164.566,0.190,2281.411499
7 Jan 2020 03:04:20.000,164.423,0.230,2277.033698
7 Jan 2020 03:04:21.000,164.278,0.270,2272.668889
7 Jan 2020 03:04:22.000,164.133,0.310,2268.317148
7 Jan 2020 03:04:23.000,163.988,0.350,2263.978560
7 Jan 2020 03:04:24.000,163.842,0.389,2259.653204
7 Jan 2020 03:04:25.000,163.696,0.429,2255.341164
7 Jan 2020 03:04:26.000,163.549,0.469,2251.042520
7 Jan 2020 03:04:27.000,163.401,0.509,2246.757358
7 Jan 2020 03:04:28.000,163.253,0.548,2242.485757
7 Jan 2020 03:04:29.000,163.104,0.588,2238.227802
7 Jan 2020 03:04:30.000,162.955,0.627,2233.983579
7 Jan 2020 03:04:31.000,162.805,0.667,2229.753169
7 Jan 2020 03:04:32.000,162.654,0.706,2225.536659
7 Jan 2020 03:04:33.000,162.503,0.746,2221.334131
7 Jan 2020 03:04:34.000,162.352,0.785,2217.145672
7 Jan 2020 03:04:35.000,162.199,0.824,2212.971368
7 Jan 2020 03:04:36.000,162.047,0.864,2208.811304
7 Jan 2020 03:04:37.000,161.893,0.903,2204.665566
7 Jan 2020 03:04:38.000,161.739,0.942,2200.534241
7 Jan 2020 03:04:39.000,161.585,0.981,2196.417416
7 Jan 2020 03:04:40.000,161.429,1.020,2192.315179
7 Jan 2020 03:04:41.000,161.274,1.059,2188.227615
7 Jan 2020 03:04:42.000,161.117,1.098,2184.154814
7 Jan 2020 03:04:43.000,160.960,1.136,2180.096866
7 Jan 2020 03:04:44.000,160.803,1.175,2176.053855
7 Jan 2020 03:04:45.000,160.645,1.214,2172.025874
7 Jan 2020 03:04:46.000,160.486,1.252,2168.013010
7 Jan 2020 03:04:47.000,160.327,1.291,2164.015353
7 Jan 2020 03:04:48.000,160.167,1.329,2160.032994
7 Jan 2020 03:04:49.000,160.006,1.368,2156.066021
7 Jan 2020 03:04:50.000,159.845,1.406,2152.114525
7 Jan 2020 03:04:51.000,159.684,1.444,2148.178600
7 Jan 2020 03:04:52.000,159.521,1.482,2144.258332
7 Jan 2020 03:04:53.000,159.358,1.521,2140.353816
7 Jan 2020 03:04:54.000,159.195,1.559,2136.465143
7 Jan 2020 03:04:55.000,159.031,1.597,2132.592405
7 Jan 2020 03:04:56.000,158.866,1.634,2128.735693
7 Jan 2020 03:04:57.000,158.701,1.672,2124.895100
7 Jan 2020 03:04:58.000,158.535,1.710,2121.070721
7 Jan 2020 03:04:59.000,158.368,1.747,2117.262646
7 Jan 2020 03:05:00.000,158.201,1.785,2113.470970
7 Jan 2020 03:05:01.000,158.033,1.822,2109.695785
7 Jan 2020 03:05:02.000,157.865,1.860,2105.937189
7 Jan 2020 03:05:03.000,157.696,1.897,2102.195271
7 Jan 2020 03:05:04.000,157.526,1.934,2098.470128
7 Jan 2020 03:05:05.000,157.356,1.971,2094.761854
7 Jan 2020 03:05:06.000,157.185,2.008,2091.070545
7 Jan 2020 03:05:07.000,157.013,2.045,2087.396295
7 Jan 2020 03:05:08.000,156.841,2.082,2083.739199
7 Jan 2020 03:05:09.000,156.668,2.118,2080.099352
7 Jan 2020 03:05:10.000,156.495,2.155,2076.476852
7 Jan 2020 03:05:11.000,156.321,2.191,2072.871795
7 Jan 2020 03:05:12.000,156.147,2.228,2069.284273
7 Jan 2020 03:05:13.000,155.971,2.264,2065.714387
7 Jan 2020 03:05:14.000,155.796,2.300,2062.162230
7 Jan 2020 03:05:15.000,155.619,2.336,2058.627901
7 Jan 2020 03:05:16.000,155.442,2.372,2055.111498
7 Jan 2020 03:05:17.000,155.264,2.408,2051.613114
7 Jan 2020 03:05:18.000,155.086,2.444,2048.132849
7 Jan 2020 03:05:19.000,154.907,2.479,2044.670800
7 Jan 2020 03:05:20.000,154.728,2.515,2041.227064
7 Jan 2020 03:05:21.000,154.548,2.550,2037.801739
7 Jan 2020 03:05:22.000,154.367,2.585,2034.394924
7 Jan 2020 03:05:23.000,154.185,2.620,2031.006714
7 Jan 2020 03:05:24.000,154.003,2.655,2027.637209
7 Jan 2020 03:05:25.000,153.821,2.690,2024.286506
7 Jan 2020 03:05:26.000,153.638,2.725,2020.954704
7 Jan 2020 03:05:27.000,153.454,2.759,2017.641902
7 Jan 2020 03:05:28.000,153.269,2.794,2014.348197
7 Jan 2020 03:05:29.000,153.084,2.828,2011.073688
7 Jan 2020 03:05:30.000,152.898,2.862,2007.818473
7 Jan 2020 03:05:31.000,152.712,2.896,2004.582653
7 Jan 2020 03:05:32.000,152.525,2.930,2001.366324
7 Jan 2020 03:05:33.000,152.337,2.964,1998.169584
7 Jan 2020 03:05:34.000,152.149,2.997,1994.992534
7 Jan 2020 03:05:35.000,151.960,3.031,1991.835271
7 Jan 2020 03:05:36.000,151.771,3.064,1988.697895
7 Jan 2020 03:05:37.000,151.581,3.097,1985.580504
7 Jan 2020 03:05:38.000,151.390,3.130,1982.483196
7 Jan 2020 03:05:39.000,151.199,3.163,1979.406072
7 Jan 2020 03:05:40.000,151.007,3.196,1976.349228
7 Jan 2020 03:05:41.000,150.815,3.229,1973.312764
7 Jan 2020 03:05:42.000,150.622,3.261,1970.296778
7 Jan 2020 03:05:43.000,150.428,3.293,1967.301368
7 Jan 2020 03:05:44.000,150.234,3.325,1964.326634
7 Jan 2020 03:05:45.000,150.039,3.357,1961.372673
7 Jan 2020 03:05:46.000,149.843,3.389,1958.439584
7 Jan 2020 03:05:47.000,149.647,3.420,1955.527465
7 Jan 2020 03:05:48.000,149.450,3.452,1952.636413
7 Jan 2020 03:05:49.000,149.253,3.483,1949.766527
7 Jan 2020 03:05:50.000,149.055,3.514,1946.917904
7 Jan 2020 03:05:51.000,148.857,3.545,1944.090642
7 Jan 2020 03:05:52.000,148.657,3.576,1941.284838
7 Jan 2020 03:05:53.000,148.458,3.606,1938.500590
7 Jan 2020 03:05:54.000,148.258,3.637,1935.737994
7 Jan 2020 03:05:55.000,148.057,3.667,1932.997145
7 Jan 2020 03:05:56.000,147.855,3.697,1930.278145
7 Jan 2020 03:05:57.000,147.653,3.726,1927.581086
7 Jan 2020 03:05:58.000,147.450,3.756,1924.906066
7 Jan 2020 03:05:59.000,147.247,3.785,1922.253181
7 Jan 2020 03:06:00.000,147.043,3.815,1919.622525
7 Jan 2020 03:06:01.000,146.839,3.843,1917.014195
7 Jan 2020 03:06:02.000,146.634,3.872,1914.428285
7 Jan 2020 03:06:03.000,146.429,3.901,1911.864891
7 Jan 2020 03:06:04.000,146.223,3.929,1909.324104
7 Jan 2020 03:06:05.000,146.016,3.957,1906.806022
7 Jan 2020 03:06:06.000,145.809,3.985,1904.310738
7 Jan 2020 03:06:07.000,145.601,4.013,1901.838345
7 Jan 2020 03:06:08.000,145.393,4.041,1899.388936
7 Jan 2020 03:06:09.000,145.184,4.068,1896.962604
7 Jan 2020 03:06:10.000,144.974,4.095,1894.559438
7 Jan 2020 03:06:11.000,144.764,4.122,1892.179535
7 Jan 2020 03:06:12.000,144.554,4.149,1889.822984
7 Jan 2020 03:06:13.000,144.343,4.175,1887.489876
7 Jan 2020 03:06:14.000,144.131,4.201,1885.180302
7 Jan 2020 03:06:15.000,143.919,4.227,1882.894349
7 Jan 2020 03:06:16.000,143.706,4.253,1880.632112
7 Jan 2020 03:06:17.000,143.493,4.279,1878.393677
7 Jan 2020 03:06:18.000,143.279,4.304,1876.179132
7 Jan 2020 03:06:19.000,143.065,4.329,1873.988565
7 Jan 2020 03:06:20.000,142.850,4.354,1871.822066
7 Jan 2020 03:06:21.000,142.635,4.379,1869.679720
7 Jan 2020 03:06:22.000,142.419,4.403,1867.561612
7 Jan 2020 03:06:23.000,142.203,4.427,1865.467832
7 Jan 2020 03:06:24.000,141.986,4.451,1863.398462
7 Jan 2020 03:06:25.000,141.769,4.475,1861.353585
7 Jan 2020 03:06:26.000,141.551,4.498,1859.333290
7 Jan 2020 03:06:27.000,141.333,4.521,1857.337658
7 Jan 2020 03:06:28.000,141.114,4.544,1855.366770
7 Jan 2020 03:06:29.000,140.895,4.567,1853.420708
7 Jan 2020 03:06:30.000,140.675,4.589,1851.499556
7 Jan 2020 03:06:31.000,140.455,4.611,1849.603392
7 Jan 2020 03:06:32.000,140.234,4.633,1847.732298
7 Jan 2020 03:06:33.000,140.013,4.655,1845.886353
7 Jan 2020 03:06:34.000,139.792,4.676,1844.065632
7 Jan 2020 03:06:35.000,139.570,4.697,1842.270218
7 Jan 2020 03:06:36.000,139.347,4.718,1840.500185
7 Jan 2020 03:06:37.000,139.124,4.738,1838.755607
7 Jan 2020 03:06:38.000,138.901,4.759,1837.036564
7 Jan 2020 03:06:39.000,138.677,4.779,1835.343126
7 Jan 2020 03:06:40.000,138.453,4.798,1833.675371
7 Jan 2020 03:06:41.000,138.228,4.818,1832.033367
7 Jan 2020 03:06:42.000,138.003,4.837,1830.417191
7 Jan 2020 03:06:43.000,137.778,4.856,1828.826909
7 Jan 2020 03:06:44.000,137.552,4.874,1827.262597
7 Jan 2020 03:06:45.000,137.326,4.893,1825.724319
7 Jan 2020 03:06:46.000,137.099,4.911,1824.212147
7 Jan 2020 03:06:47.000,136.872,4.928,1822.726145
7 Jan 2020 03:06:48.000,136.645,4.946,1821.266384
7 Jan 2020 03:06:49.000,136.417,4.963,1819.832925
7 Jan 2020 03:06:50.000,136.189,4.980,1818.425837
7 Jan 2020 03:06:51.000,135.960,4.996,1817.045179
7 Jan 2020 03:06:52.000,135.731,5.012,1815.691019
7 Jan 2020 03:06:53.000,135.502,5.028,1814.363413
7 Jan 2020 03:06:54.000,135.273,5.044,1813.062427
7 Jan 2020 03:06:55.000,135.043,5.059,1811.788115
7 Jan 2020 03:06:56.000,134.812,5.075,1810.540541
7 Jan 2020 03:06:57.000,134.582,5.089,1809.319758
7 Jan 2020 03:06:58.000,134.351,5.104,1808.125824
7 Jan 2020 03:06:59.000,134.120,5.118,1806.958798
7 Jan 2020 03:07:00.000,133.888,5.132,1805.818727
7 Jan 2020 03:07:01.000,133.656,5.145,1804.705672
7 Jan 2020 03:07:02.000,133.424,5.158,1803.619678
7 Jan 2020 03:07:03.000,133.192,5.171,1802.560799
7 Jan 2020 03:07:04.000,132.959,5.184,1801.529088
7 Jan 2020 03:07:05.000,132.726,5.196,1800.524588
7 Jan 2020 03:07:06.000,132.493,5.208,1799.547348
7 Jan 2020 03:07:07.000,132.259,5.220,1798.597418
7 Jan 2020 03:07:08.000,132.026,5.231,1797.674839
7 Jan 2020 03:07:09.000,131.791,5.242,1796.779655
7 Jan 2020 03:07:10.000,131.557,5.253,1795.911913
7 Jan 2020 03:07:11.000,131.323,5.263,1795.071649
7 Jan 2020 03:07:12.000,131.088,5.273,1794.258906
7 Jan 2020 03:07:13.000,130.853,5.283,1793.473722
7 Jan 2020 03:07:14.000,130.618,5.292,1792.716140
7 Jan 2020 03:07:15.000,130.383,5.301,1791.986188
7 Jan 2020 03:07:16.000,130.147,5.310,1791.283907
7 Jan 2020 03:07:17.000,129.911,5.318,1790.609329
7 Jan 2020 03:07:18.000,129.676,5.326,1789.962491
7 Jan 2020 03:07:19.000,129.439,5.334,1789.343418
7 Jan 2020 03:07:20.000,129.203,5.342,1788.752143
7 Jan 2020 03:07:21.000,128.967,5.349,1788.188696
7 Jan 2020 03:07:22.000,128.730,5.355,1787.653104
7 Jan 2020 03:07:23.000,128.494,5.362,1787.145396
7 Jan 2020 03:07:24.000,128.257,5.368,1786.665592
7 Jan 2020 03:07:25.000,128.020,5.374,1786.213718
7 Jan 2020 03:07:26.000,127.783,5.379,1785.789797
7 Jan 2020 03:07:27.000,127.545,5.384,1785.393849
7 Jan 2020 03:07:28.000,127.308,5.389,1785.025895
7 Jan 2020 03:07:29.000,127.071,5.393,1784.685953
7 Jan 2020 03:07:30.000,126.833,5.397,1784.374040
7 Jan 2020 03:07:31.000,126.596,5.401,1784.090175
7 Jan 2020 03:07:32.000,126.358,5.404,1783.834366
7 Jan 2020 03:07:33.000,126.120,5.408,1783.606629
7 Jan 2020 03:07:34.000,125.882,5.410,1783.406976
7 Jan 2020 03:07:35.000,125.645,5.413,1783.235418
7 Jan 2020 03:07:36.000,125.407,5.415,1783.091963
7 Jan 2020 03:07:37.000,125.169,5.416,1782.976619
7 Jan 2020 03:07:38.000,124.931,5.418,1782.889393
7 Jan 2020 03:07:39.000,124.693,5.419,1782.830288
7 Jan 2020 03:07:40.000,124.455,5.419,1782.799309
7 Jan 2020 03:07:41.000,124.217,5.420,1782.796458
7 Jan 2020 03:07:42.000,123.979,5.420,1782.821736
7 Jan 2020 03:07:43.000,123.741,5.419,1782.875142
7 Jan 2020 03:07:44.000,123.503,5.419,1782.956674
7 Jan 2020 03:07:45.000,123.265,5.418,1783.066330
7 Jan 2020 03:07:46.000,123.027,5.416,1783.204103
7 Jan 2020 03:07:47.000,122.789,5.415,1783.369989
7 Jan 2020 03:07:48.000,122.552,5.413,1783.563980
7 Jan 2020 03:07:49.000,122.314,5.410,1783.786067
7 Jan 2020 03:07:50.000,122.076,5.408,1784.036240
7 Jan 2020 03:07:51.000,121.839,5.404,1784.314487
7 Jan 2020 03:07:52.000,121.601,5.401,1784.620794
7 Jan 2020 03:07:53.000,121.364,5.397,1784.955151
7 Jan 2020 03:07:54.000,121.126,5.393,1785.317541
7 Jan 2020 03:07:55.000,120.889,5.389,1785.707946
7 Jan 2020 03:07:56.000,120.652,5.384,1786.126348
7 Jan 2020 03:07:57.000,120.415,5.379,1786.572728
7 Jan 2020 03:07:58.000,120.178,5.374,1787.047065
7 Jan 2020 03:07:59.000,119.941,5.368,1787.549337
7 Jan 2020 03:08:00.000,119.705,5.362,1788.079516
7 Jan 2020 03:08:01.000,119.468,5.355,1788.637586
7 Jan 2020 03:08:02.000,119.232,5.349,1789.223515
7 Jan 2020 03:08:03.000,118.996,5.342,1789.837278
7 Jan 2020 03:08:04.000,118.760,5.334,1790.478845
7 Jan 2020 03:08:05.000,118.524,5.327,1791.148183
7 Jan 2020 03:08:06.000,118.288,5.318,1791.845268
7 Jan 2020 03:08:07.000,118.053,5.310,1792.570062
7 Jan 2020 03:08:08.000,117.818,5.301,1793.322534
7 Jan 2020 03:08:09.000,117.583,5.292,1794.102644
7 Jan 2020 03:08:10.000,117.348,5.283,1794.910362
7 Jan 2020 03:08:11.000,117.114,5.273,1795.745648
7 Jan 2020 03:08:12.000,116.879,5.263,1796.608463
7 Jan 2020 03:08:13.000,116.645,5.253,1797.498764
7 Jan 2020 03:08:14.000,116.411,5.242,1798.416515
7 Jan 2020 03:08:15.000,116.178,5.231,1799.361672
7 Jan 2020 03:08:16.000,115.944,5.220,1800.334187
7 Jan 2020 03:08:17.000,115.711,5.208,1801.334022
7 Jan 2020 03:08:18.000,115.479,5.196,1802.361128
7 Jan 2020 03:08:19.000,115.246,5.184,1803.415454
7 Jan 2020 03:08:20.000,115.014,5.172,1804.496959
7 Jan 2020 03:08:21.000,114.782,5.159,1805.605589
7 Jan 2020 03:08:22.000,114.550,5.145,1806.741292
7 Jan 2020 03:08:23.000,114.319,5.132,1807.904020
7 Jan 2020 03:08:24.000,114.088,5.118,1809.093717
7 Jan 2020 03:08:25.000,113.857,5.104,1810.310333
7 Jan 2020 03:08:26.000,113.627,5.090,1811.553810
7 Jan 2020 03:08:27.000,113.397,5.075,1812.824090
7 Jan 2020 03:08:28.000,113.167,5.060,1814.121121
7 Jan 2020 03:08:29.000,112.938,5.044,1815.444839
7 Jan 2020 03:08:30.000,112.709,5.029,1816.795190
7 Jan 2020 03:08:31.000,112.481,5.013,1818.172109
7 Jan 2020 03:08:32.000,112.252,4.997,1819.575540
7 Jan 2020 03:08:33.000,112.024,4.980,1821.005418
7 Jan 2020 03:08:34.000,111.797,4.963,1822.461676
7 Jan 2020 03:08:35.000,111.570,4.946,1823.944257
7 Jan 2020 03:08:36.000,111.343,4.929,1825.453087
7 Jan 2020 03:08:37.000,111.117,4.911,1826.988109
7 Jan 2020 03:08:38.000,110.891,4.893,1828.549248
7 Jan 2020 03:08:39.000,110.665,4.875,1830.136442
7 Jan 2020 03:08:40.000,110.440,4.856,1831.749617
7 Jan 2020 03:08:41.000,110.215,4.837,1833.388704
7 Jan 2020 03:08:42.000,109.991,4.818,1835.053638
7 Jan 2020 03:08:43.000,109.767,4.799,1836.744340
7 Jan 2020 03:08:44.000,109.544,4.779,1838.460743
7 Jan 2020 03:08:45.000,109.321,4.759,1840.202768
7 Jan 2020 03:08:46.000,109.098,4.739,1841.970348
7 Jan 2020 03:08:47.000,108.876,4.719,1843.763400
7 Jan 2020 03:08:48.000,108.654,4.698,1845.581852
7 Jan 2020 03:08:49.000,108.433,4.677,1847.425631
7 Jan 2020 03:08:50.000,108.212,4.656,1849.294654
7 Jan 2020 03:08:51.000,107.992,4.634,1851.188848
7 Jan 2020 03:08:52.000,107.772,4.612,1853.108127
7 Jan 2020 03:08:53.000,107.553,4.590,1855.052417
7 Jan 2020 03:08:54.000,107.334,4.568,1857.021640
7 Jan 2020 03:08:55.000,107.116,4.545,1859.015708
7 Jan 2020 03:08:56.000,106.898,4.522,1861.034543
7 Jan 2020 03:08:57.000,106.681,4.499,1863.078066
7 Jan 2020 03:08:58.000,106.464,4.476,1865.146187
7 Jan 2020 03:08:59.000,106.247,4.452,1867.238826
7 Jan 2020 03:09:00.000,106.031,4.429,1869.355902
7 Jan 2020 03:09:01.000,105.816,4.405,1871.497324
7 Jan 2020 03:09:02.000,105.601,4.380,1873.663009
7 Jan 2020 03:09:03.000,105.387,4.356,1875.852872
7 Jan 2020 03:09:04.000,105.173,4.331,1878.066829
7 Jan 2020 03:09:05.000,104.960,4.306,1880.304787
7 Jan 2020 03:09:06.000,104.747,4.281,1882.566660
7 Jan 2020 03:09:07.000,104.535,4.255,1884.852361
7 Jan 2020 03:09:08.000,104.323,4.229,1887.161805
7 Jan 2020 03:09:09.000,104.112,4.203,1889.494895
7 Jan 2020 03:09:10.000,103.901,4.177,1891.851545
7 Jan 2020 03:09:11.000,103.691,4.151,1894.231665
7 Jan 2020 03:09:12.000,103.482,4.124,1896.635165
7 Jan 2020 03:09:13.000,103.273,4.097,1899.061956
7 Jan 2020 03:09:14.000,103.065,4.070,1901.511941
7 Jan 2020 03:09:15.000,102.857,4.043,1903.985031
7 Jan 2020 03:09:16.000,102.649,4.015,1906.481133
7 Jan 2020 03:09:17.000,102.443,3.988,1909.000155
7 Jan 2020 03:09:18.000,102.237,3.960,1911.542008
7 Jan 2020 03:09:19.000,102.031,3.932,1914.106591
7 Jan 2020 03:09:20.000,101.826,3.903,1916.693813
7 Jan 2020 03:09:21.000,101.622,3.875,1919.303581
7 Jan 2020 03:09:22.000,101.418,3.846,1921.935801
7 Jan 2020 03:09:23.000,101.214,3.817,1924.590377
7 Jan 2020 03:09:24.000,101.012,3.788,1927.267215
7 Jan 2020 03:09:25.000,100.810,3.759,1929.966219
7 Jan 2020 03:09:26.000,100.608,3.729,1932.687294
7 Jan 2020 03:09:27.000,100.407,3.700,1935.430347
7 Jan 2020 03:09:28.000,100.207,3.670,1938.195276
7 Jan 2020 03:09:29.000,100.007,3.640,1940.981988
7 Jan 2020 03:09:30.000,99.808,3.609,1943.790386
7 Jan 2020 03:09:31.000,99.610,3.579,1946.620374
7 Jan 2020 03:09:32.000,99.412,3.548,1949.471855
7 Jan 2020 03:09:33.000,99.214,3.518,1952.344731
7 Jan 2020 03:09:34.000,99.017,3.487,1955.238906
7 Jan 2020 03:09:35.000,98.821,3.455,1958.154283
7 Jan 2020 03:09:36.000,98.626,3.424,1961.090763
7 Jan 2020 03:09:37.000,98.431,3.393,1964.048249
7 Jan 2020 03:09:38.000,98.237,3.361,1967.026644
7 Jan 2020 03:09:39.000,98.043,3.329,1970.025849
7 Jan 2020 03:09:40.000,97.850,3.297,1973.045767
7 Jan 2020 03:09:41.000,97.657,3.265,1976.086300
7 Jan 2020 03:09:42.000,97.465,3.233,1979.147349
7 Jan 2020 03:09:43.000,97.274,3.200,1982.228817
7 Jan 2020 03:09:44.000,97.083,3.168,1985.330605
7 Jan 2020 03:09:45.000,96.893,3.135,1988.452614
7 Jan 2020 03:09:46.000,96.704,3.102,1991.594747
7 Jan 2020 03:09:47.000,96.515,3.069,1994.756906
7 Jan 2020 03:09:48.000,96.327,3.036,1997.938991
7 Jan 2020 03:09:49.000,96.140,3.002,2001.140905
7 Jan 2020 03:09:50.000,95.953,2.969,2004.362549
7 Jan 2020 03:09:51.000,95.766,2.935,2007.603826
7 Jan 2020 03:09:52.000,95.581,2.901,2010.864636
7 Jan 2020 03:09:53.000,95.396,2.867,2014.144878
7 Jan 2020 03:09:54.000,95.211,2.833,2017.444460
7 Jan 2020 03:09:55.000,95.027,2.799,2020.763282
7 Jan 2020 03:09:56.000,94.844,2.765,2024.101245
7 Jan 2020 03:09:57.000,94.661,2.730,2027.458252
7 Jan 2020 03:09:58.000,94.480,2.695,2030.834203
7 Jan 2020 03:09:59.000,94.298,2.661,2034.229001
7 Jan 2020 03:10:00.000,94.117,2.626,2037.642549
7 Jan 2020 03:10:01.000,93.937,2.591,2041.074746
7 Jan 2020 03:10:02.000,93.758,2.556,2044.525500
7 Jan 2020 03:10:03.000,93.579,2.520,2047.994711
7 Jan 2020 03:10:04.000,93.401,2.485,2051.482283
7 Jan 2020 03:10:05.000,93.223,2.450,2054.988116
7 Jan 2020 03:10:06.000,93.046,2.414,2058.512116
7 Jan 2020 03:10:07.000,92.870,2.378,2062.054180
7 Jan 2020 03:10:08.000,92.694,2.342,2065.614220
7 Jan 2020 03:10:09.000,92.519,2.307,2069.192136
7 Jan 2020 03:10:10.000,92.345,2.270,2072.787831
7 Jan 2020 03:10:11.000,92.171,2.234,2076.401210
7 Jan 2020 03:10:12.000,91.998,2.198,2080.032175
7 Jan 2020 03:10:13.000,91.825,2.162,2083.680628
7 Jan 2020 03:10:14.000,91.653,2.125,2087.346480
7 Jan 2020 03:10:15.000,91.482,2.089,2091.029633
7 Jan 2020 03:10:16.000,91.311,2.052,2094.729991
7 Jan 2020 03:10:17.000,91.141,2.015,2098.447456
7 Jan 2020 03:10:18.000,90.972,1.978,2102.181940
7 Jan 2020 03:10:19.000,90.803,1.941,2105.933345
7 Jan 2020 03:10:20.000,90.634,1.904,2109.701576
7 Jan 2020 03:10:21.000,90.467,1.867,2113.486537
7 Jan 2020 03:10:22.000,90.300,1.830,2117.288141
7 Jan 2020 03:10:23.000,90.133,1.793,2121.106290
7 Jan 2020 03:10:24.000,89.968,1.755,2124.940891
7 Jan 2020 03:10:25.000,89.802,1.718,2128.791848
7 Jan 2020 03:10:26.000,89.638,1.680,2132.659075
7 Jan 2020 03:10:27.000,89.474,1.642,2136.542476
7 Jan 2020 03:10:28.000,89.311,1.605,2140.441956
7 Jan 2020 03:10:29.000,89.148,1.567,2144.357429
7 Jan 2020 03:10:30.000,88.986,1.529,2148.288800
7 Jan 2020 03:10:31.000,88.824,1.491,2152.235974
7 Jan 2020 03:10:32.000,88.663,1.453,2156.198868
7 Jan 2020 03:10:33.000,88.503,1.415,2160.177387
7 Jan 2020 03:10:34.000,88.343,1.376,2164.171438
7 Jan 2020 03:10:35.000,88.184,1.338,2168.180936
7 Jan 2020 03:10:36.000,88.026,1.300,2172.205789
7 Jan 2020 03:10:37.000,87.868,1.261,2176.245903
7 Jan 2020 03:10:38.000,87.711,1.223,2180.301198
7 Jan 2020 03:10:39.000,87.554,1.184,2184.371579
7 Jan 2020 03:10:40.000,87.398,1.145,2188.456955
7 Jan 2020 03:10:41.000,87.242,1.107,2192.557245
7 Jan 2020 03:10:42.000,87.087,1.068,2196.672357
7 Jan 2020 03:10:43.000,86.933,1.029,2200.802200
7 Jan 2020 03:10:44.000,86.779,0.990,2204.946694
7 Jan 2020 03:10:45.000,86.626,0.951,2209.105748
7 Jan 2020 03:10:46.000,86.474,0.912,2213.279273
7 Jan 2020 03:10:47.000,86.322,0.873,2217.467189
7 Jan 2020 03:10:48.000,86.171,0.834,2221.669403
7 Jan 2020 03:10:49.000,86.020,0.795,2225.885837
7 Jan 2020 03:10:50.000,85.870,0.756,2230.116401
7 Jan 2020 03:10:51.000,85.720,0.716,2234.361008
7 Jan 2020 03:10:52.000,85.571,0.677,2238.619581
7 Jan 2020 03:10:53.000,85.423,0.637,2242.892027
7 Jan 2020 03:10:54.000,85.275,0.598,2247.178270
7 Jan 2020 03:10:55.000,85.127,0.558,2251.478219
7 Jan 2020 03:10:56.000,84.981,0.519,2255.791799
7 Jan 2020 03:10:57.000,84.835,0.479,2260.118923
7 Jan 2020 03:10:58.000,84.689,0.440,2264.459506
7 Jan 2020 03:10:59.000,84.544,0.400,2268.813472
7 Jan 2020 03:11:00.000,84.400,0.360,2273.180732
7 Jan 2020 03:11:01.000,84.256,0.320,2277.561213
7 Jan 2020 03:11:02.000,84.112,0.281,2281.954827
7 Jan 2020 03:11:03.000,83.970,0.241,2286.361499
7 Jan 2020 03:11:04.000,83.828,0.201,2290.781144
7 Jan 2020 03:11:05.000,83.686,0.161,2295.213687
7 Jan 2020 03:11:06.000,83.545,0.121,2299.659043
7 Jan 2020 03:11:07.000,83.404,0.081,2304.117139
7 Jan 2020 03:11:08.000,83.264,0.041,2308.587890
7 Jan 2020 03:11:09.000,83.125,0.001,2313.071225
7 Jan 2020 03:11:10.000,82.986,-0.039,2317.567058
7 Jan 2020 03:11:11.000,82.848,-0.080,2322.075319
7 Jan 2020 03:11:12.000,82.710,-0.120,2326.595923
7 Jan 2020 03:11:12.107,82.695,-0.124,2327.080308
7 Jan 2020 04:38:12.808,224.434,-0.124,2318.874093
7 Jan 2020 04:38:13.000,224.433,-0.112,2317.547136
7 Jan 2020 04:38:14.000,224.426,-0.050,2310.620674
7 Jan 2020 04:38:15.000,224.420,0.012,2303.694256
7 Jan 2020 04:38:16.000,224.413,0.075,2296.767895
7 Jan 2020 04:38:17.000,224.406,0.137,2289.841598
7 Jan 2020 04:38:18.000,224.399,0.200,2282.915373
7 Jan 2020 04:38:19.000,224.392,0.263,2275.989226
7 Jan 2020 04:38:20.000,224.385,0.327,2269.063173
7 Jan 2020 04:38:21.000,224.378,0.390,2262.137219
7 Jan 2020 04:38:22.000,224.371,0.454,2255.211370
7 Jan 2020 04:38:23.000,224.364,0.518,2248.285643
7 Jan 2020 04:38:24.000,224.357,0.582,2241.360042
7 Jan 2020 04:38:25.000,224.349,0.646,2234.434575
7 Jan 2020 04:38:26.000,224.342,0.711,2227.509257
7 Jan 2020 04:38:27.000,224.335,0.776,2220.584095
7 Jan 2020 04:38:28.000,224.327,0.841,2213.659096
7 Jan 2020 04:38:29.000,224.320,0.906,2206.734275
7 Jan 2020 04:38:30.000,224.312,0.971,2199.809639
7 Jan 2020 04:38:31.000,224.304,1.037,2192.885198
7 Jan 2020 04:38:32.000,224.297,1.102,2185.960960
7 Jan 2020 04:38:33.000,224.289,1.168,2179.036940
7 Jan 2020 04:38:34.000,224.281,1.235,2172.113146
7 Jan 2020 04:38:35.000,224.273,1.301,2165.189586
7 Jan 2020 04:38:36.000,224.266,1.368,2158.266275
7 Jan 2020 04:38:37.000,224.258,1.435,2151.343222
7 Jan 2020 04:38:38.000,224.250,1.502,2144.420434
7 Jan 2020 04:38:39.000,224.241,1.569,2137.497928
7 Jan 2020 04:38:40.000,224.233,1.637,2130.575712
7 Jan 2020 04:38:41.000,224.225,1.705,2123.653795
7 Jan 2020 04:38:42.000,224.217,1.773,2116.732193
7 Jan 2020 04:38:43.000,224.208,1.841,2109.810914
7 Jan 2020 04:38:44.000,224.200,1.910,2102.889968
7 Jan 2020 04:38:45.000,224.191,1.979,2095.969372
7 Jan 2020 04:38:46.000,224.183,2.048,2089.049133
7 Jan 2020 04:38:47.000,224.174,2.117,2082.129266
7 Jan 2020 04:38:48.000,224.166,2.187,2075.209777
7 Jan 2020 04:38:49.000,224.157,2.257,2068.290686
7 Jan 2020 04:38:50.000,224.148,2.327,2061.372001
7 Jan 2020 04:38:51.000,224.139,2.397,2054.453733
7 Jan 2020 04:38:52.000,224.130,2.468,2047.535899
7 Jan 2020 04:38:53.000,224.121,2.539,2040.618508
7 Jan 2020 04:38:54.000,224.112,2.610,2033.701572
7 Jan 2020 04:38:55.000,224.103,2.681,2026.785108
7 Jan 2020 04:38:56.000,224.093,2.753,2019.869127
7 Jan 2020 04:38:57.000,224.084,2.825,2012.953640
7 Jan 2020 04:38:58.000,224.075,2.897,2006.038664
7 Jan 2020 04:38:59.000,224.065,2.970,1999.124212
7 Jan 2020 04:39:00.000,224.055,3.042,1992.210296
7 Jan 2020 04:39:01.000,224.046,3.116,1985.296928
7 Jan 2020 04:39:02.000,224.036,3.189,1978.384127
7 Jan 2020 04:39:03.000,224.026,3.263,1971.471904
7 Jan 2020 04:39:04.000,224.016,3.337,1964.560273
7 Jan 2020 04:39:05.000,224.006,3.411,1957.649251
7 Jan 2020 04:39:06.000,223.996,3.486,1950.738852
7 Jan 2020 04:39:07.000,223.986,3.561,1943.829087
7 Jan 2020 04:39:08.000,223.976,3.636,1936.919977
7 Jan 2020 04:39:09.000,223.965,3.711,1930.011534
7 Jan 2020 04:39:10.000,223.955,3.787,1923.103774
7 Jan 2020 04:39:11.000,223.944,3.864,1916.196710
7 Jan 2020 04:39:12.000,223.934,3.940,1909.290363
7 Jan 2020 04:39:13.000,223.923,4.017,1902.384746
7 Jan 2020 04:39:14.000,223.912,4.094,1895.479874
7 Jan 2020 04:39:15.000,223.901,4.172,1888.575766
7 Jan 2020 04:39:16.000,223.890,4.250,1881.672439
7 Jan 2020 04:39:17.000,223.879,4.328,1874.769905
7 Jan 2020 04:39:18.000,223.868,4.406,1867.868187
7 Jan 2020 04:39:19.000,223.857,4.485,1860.967300
7 Jan 2020 04:39:20.000,223.845,4.564,1854.067258
7 Jan 2020 04:39:21.000,223.834,4.644,1847.168085
7 Jan 2020 04:39:22.000,223.822,4.724,1840.269796
7 Jan 2020 04:39:23.000,223.810,4.804,1833.372409
7 Jan 2020 04:39:24.000,223.798,4.885,1826.475940
7 Jan 2020 04:39:25.000,223.787,4.966,1819.580413
7 Jan 2020 04:39:26.000,223.775,5.048,1812.685844
7 Jan 2020 04:39:27.000,223.762,5.130,1805.792250
7 Jan 2020 04:39:28.000,223.750,5.212,1798.899656
7 Jan 2020 04:39:29.000,223.738,5.294,1792.008078
7 Jan 2020 04:39:30.000,223.725,5.377,1785.117534
7 Jan 2020 04:39:31.000,223.713,5.461,1778.228049
7 Jan 2020 04:39:32.000,223.700,5.545,1771.339641
7 Jan 2020 04:39:33.000,223.687,5.629,1764.452332
7 Jan 2020 04:39:34.000,223.674,5.714,1757.566140
7 Jan 2020 04:39:35.000,223.661,5.799,1750.681090
7 Jan 2020 04:39:36.000,223.648,5.884,1743.797203
7 Jan 2020 04:39:37.000,223.635,5.970,1736.914498
7 Jan 2020 04:39:38.000,223.621,6.057,1730.033003
7 Jan 2020 04:39:39.000,223.608,6.143,1723.152736
7 Jan 2020 04:39:40.000,223.594,6.231,1716.273723
7 Jan 2020 04:39:41.000,223.580,6.318,1709.395982
7 Jan 2020 04:39:42.000,223.566,6.406,1702.519543
7 Jan 2020 04:39:43.000,223.552,6.495,1695.644428
7 Jan 2020 04:39:44.000,223.538,6.584,1688.770658
7 Jan 2020 04:39:45.000,223.523,6.674,1681.898262
7 Jan 2020 04:39:46.000,223.509,6.764,1675.027265
7 Jan 2020 04:39:47.000,223.494,6.854,1668.157687
7 Jan 2020 04:39:48.000,223.480,6.945,1661.289562
7 Jan 2020 04:39:49.000,223.465,7.037,1654.422911
7 Jan 2020 04:39:50.000,223.450,7.129,1647.557761
7 Jan 2020 04:39:51.000,223.434,7.221,1640.694138
7 Jan 2020 04:39:52.000,223.419,7.314,1633.832074
7 Jan 2020 04:39:53.000,223.403,7.408,1626.971594
7 Jan 2020 04:39:54.000,223.388,7.502,1620.112723
7 Jan 2020 04:39:55.000,223.372,7.597,1613.255496
7 Jan 2020 04:39:56.000,223.356,7.692,1606.399939
7 Jan 2020 04:39:57.000,223.340,7.788,1599.546082
7 Jan 2020 04:39:58.000,223.323,7.884,1592.693952
7 Jan 2020 04:39:59.000,223.307,7.981,1585.843585
7 Jan 2020 04:40:00.000,223.290,8.078,1578.995010
7 Jan 2020 04:40:01.000,223.273,8.176,1572.148256
7 Jan 2020 04:40:02.000,223.256,8.275,1565.303359
7 Jan 2020 04:40:03.000,223.239,8.374,1558.460350
7 Jan 2020 04:40:04.000,223.222,8.473,1551.619263
7 Jan 2020 04:40:05.000,223.204,8.574,1544.780127
7 Jan 2020 04:40:06.000,223.186,8.675,1537.942982
7 Jan 2020 04:40:07.000,223.169,8.776,1531.107862
7 Jan 2020 04:40:08.000,223.150,8.879,1524.274797
7 Jan 2020 04:40:09.000,223.132,8.981,1517.443830
7 Jan 2020 04:40:10.000,223.114,9.085,1510.614995
7 Jan 2020 04:40:11.000,223.095,9.189,1503.788328
7 Jan 2020 04:40:12.000,223.076,9.294,1496.963866
7 Jan 2020 04:40:13.000,223.057,9.399,1490.141650
7 Jan 2020 04:40:14.000,223.038,9.505,1483.321719
7 Jan 2020 04:40:15.000,223.018,9.612,1476.504111
7 Jan 2020 04:40:16.000,222.998,9.720,1469.688865
7 Jan 2020 04:40:17.000,222.979,9.828,1462.876027
7 Jan 2020 04:40:18.000,222.958,9.937,1456.065636
7 Jan 2020 04:40:19.000,222.938,10.047,1449.257733
7 Jan 2020 04:40:20.000,222.917,10.157,1442.452365
7 Jan 2020 04:40:21.000,222.897,10.268,1435.649574
7 Jan 2020 04:40:22.000,222.876,10.380,1428.849406
7 Jan 2020 04:40:23.000,222.854,10.493,1422.051903
7 Jan 2020 04:40:24.000,222.833,10.607,1415.257117
7 Jan 2020 04:40:25.000,222.811,10.721,1408.465093
7 Jan 2020 04:40:26.000,222.789,10.836,1401.675879
7 Jan 2020 04:40:27.000,222.767,10.952,1394.889522
7 Jan 2020 04:40:28.000,222.744,11.069,1388.106076
7 Jan 2020 04:40:29.000,222.721,11.186,1381.325590
7 Jan 2020 04:40:30.000,222.698,11.305,1374.548117
7 Jan 2020 04:40:31.000,222.675,11.424,1367.773706
7 Jan 2020 04:40:32.000,222.651,11.544,1361.002415
7 Jan 2020 04:40:33.000,222.627,11.665,1354.234299
7 Jan 2020 04:40:34.000,222.603,11.787,1347.469409
7 Jan 2020 04:40:35.000,222.579,11.910,1340.707808
7 Jan 2020 04:40:36.000,222.554,12.034,1333.949551
7 Jan 2020 04:40:37.000,222.529,12.159,1327.194697
7 Jan 2020 04:40:38.000,222.503,12.284,1320.443305
7 Jan 2020 04:40:39.000,222.478,12.411,1313.695441
7 Jan 2020 04:40:40.000,222.452,12.538,1306.951164
7 Jan 2020 04:40:41.000,222.425,12.667,1300.210538
7 Jan 2020 04:40:42.000,222.399,12.797,1293.473627
7 Jan 2020 04:40:43.000,222.372,12.927,1286.740502
7 Jan 2020 04:40:44.000,222.345,13.059,1280.011227
7 Jan 2020 04:40:45.000,222.317,13.192,1273.285872
7 Jan 2020 04:40:46.000,222.289,13.326,1266.564505
7 Jan 2020 04:40:47.000,222.261,13.461,1259.847202
7 Jan 2020 04:40:48.000,222.232,13.597,1253.134035
7 Jan 2020 04:40:49.000,222.203,13.734,1246.425078
7 Jan 2020 04:40:50.000,222.173,13.872,1239.720408
7 Jan 2020 04:40:51.000,222.144,14.012,1233.020099
7 Jan 2020 04:40:52.000,222.113,14.152,1226.324237
7 Jan 2020 04:40:53.000,222.083,14.294,1219.632901
7 Jan 2020 04:40:54.000,222.052,14.437,1212.946172
7 Jan 2020 04:40:55.000,222.020,14.581,1206.264133
7 Jan 2020 04:40:56.000,221.989,14.727,1199.586875
7 Jan 2020 04:40:57.000,221.956,14.874,1192.914485
7 Jan 2020 04:40:58.000,221.924,15.022,1186.247051
7 Jan 2020 04:40:59.000,221.891,15.171,1179.584665
7 Jan 2020 04:41:00.000,221.857,15.322,1172.927424
7 Jan 2020 04:41:01.000,221.823,15.474,1166.275421
7 Jan 2020 04:41:02.000,221.788,15.628,1159.628756
7 Jan 2020 04:41:03.000,221.753,15.782,1152.987529
7 Jan 2020 04:41:04.000,221.718,15.939,1146.351838
7 Jan 2020 04:41:05.000,221.682,16.096,1139.721794
7 Jan 2020 04:41:06.000,221.646,16.256,1133.097502
7 Jan 2020 04:41:07.000,221.609,16.416,1126.479070
7 Jan 2020 04:41:08.000,221.571,16.579,1119.866610
7 Jan 2020 04:41:09.000,221.533,16.742,1113.260235
7 Jan 2020 04:41:10.000,221.494,16.908,1106.660065
7 Jan 2020 04:41:11.000,221.455,17.075,1100.066219
7 Jan 2020 04:41:12.000,221.416,17.243,1093.478817
7 Jan 2020 04:41:13.000,221.375,17.414,1086.897986
7 Jan 2020 04:41:14.000,221.334,17.586,1080.323851
7 Jan 2020 04:41:15.000,221.293,17.759,1073.756547
7 Jan 2020 04:41:16.000,221.251,17.935,1067.196205
7 Jan 2020 04:41:17.000,221.208,18.112,1060.642964
7 Jan 2020 04:41:18.000,221.164,18.291,1054.096962
7 Jan 2020 04:41:19.000,221.120,18.472,1047.558342
7 Jan 2020 04:41:20.000,221.075,18.654,1041.027254
7 Jan 2020 04:41:21.000,221.030,18.839,1034.503847
7 Jan 2020 04:41:22.000,220.984,19.025,1027.988274
7 Jan 2020 04:41:23.000,220.937,19.214,1021.480694
7 Jan 2020 04:41:24.000,220.889,19.404,1014.981267
7 Jan 2020 04:41:25.000,220.841,19.597,1008.490158
7 Jan 2020 04:41:26.000,220.792,19.791,1002.007539
7 Jan 2020 04:41:27.000,220.742,19.988,995.533582
7 Jan 2020 04:41:28.000,220.691,20.187,989.068465
7 Jan 2020 04:41:29.000,220.639,20.388,982.612369
7 Jan 2020 04:41:30.000,220.587,20.591,976.165483
7 Jan 2020 04:41:31.000,220.533,20.796,969.727994
7 Jan 2020 04:41:32.000,220.479,21.004,963.300103
7 Jan 2020 04:41:33.000,220.424,21.214,956.882009
7 Jan 2020 04:41:34.000,220.368,21.427,950.473918
7 Jan 2020 04:41:35.000,220.311,21.642,944.076041
7 Jan 2020 04:41:36.000,220.253,21.859,937.688596
7 Jan 2020 04:41:37.000,220.193,22.079,931.311803
7 Jan 2020 04:41:38.000,220.133,22.302,924.945890
7 Jan 2020 04:41:39.000,220.072,22.527,918.591093
7 Jan 2020 04:41:40.000,220.010,22.755,912.247651
7 Jan 2020 04:41:41.000,219.946,22.985,905.915810
7 Jan 2020 04:41:42.000,219.882,23.219,899.595822
7 Jan 2020 04:41:43.000,219.816,23.455,893.287945
7 Jan 2020 04:41:44.000,219.749,23.694,886.992447
7 Jan 2020 04:41:45.000,219.681,23.936,880.709600
7 Jan 2020 04:41:46.000,219.611,24.181,874.439684
7 Jan 2020 04:41:47.000,219.541,24.429,868.182987
7 Jan 2020 04:41:48.000,219.468,24.680,861.939801
7 Jan 2020 04:41:49.000,219.395,24.934,855.710434
7 Jan 2020 04:41:50.000,219.320,25.192,849.495196
7 Jan 2020 04:41:51.000,219.244,25.452,843.294406
7 Jan 2020 04:41:52.000,219.166,25.716,837.108393
7 Jan 2020 04:41:53.000,219.086,25.984,830.937493
7 Jan 2020 04:41:54.000,219.005,26.255,824.782054
7 Jan 2020 04:41:55.000,218.922,26.530,818.642432
7 Jan 2020 04:41:56.000,218.838,26.808,812.518991
7 Jan 2020 04:41:57.000,218.751,27.090,806.412109
7 Jan 2020 04:41:58.000,218.663,27.375,800.322171
7 Jan 2020 04:41:59.000,218.574,27.665,794.249574
7 Jan 2020 04:42:00.000,218.482,27.958,788.194726
7 Jan 2020 04:42:01.000,218.388,28.256,782.158048
7 Jan 2020 04:42:02.000,218.292,28.557,776.139969
7 Jan 2020 04:42:03.000,218.194,28.862,770.140932
7 Jan 2020 04:42:04.000,218.094,29.172,764.161394
7 Jan 2020 04:42:05.000,217.992,29.486,758.201823
7 Jan 2020 04:42:06.000,217.887,29.805,752.262701
7 Jan 2020 04:42:07.000,217.780,30.128,746.344522
7 Jan 2020 04:42:08.000,217.671,30.455,740.447795
7 Jan 2020 04:42:09.000,217.558,30.787,734.573045
7 Jan 2020 04:42:10.000,217.444,31.124,728.720810
7 Jan 2020 04:42:11.000,217.326,31.466,722.891643
7 Jan 2020 04:42:12.000,217.206,31.812,717.086113
7 Jan 2020 04:42:13.000,217.083,32.164,711.304808
7 Jan 2020 04:42:14.000,216.956,32.521,705.548328
7 Jan 2020 04:42:15.000,216.827,32.883,699.817293
7 Jan 2020 04:42:16.000,216.694,33.250,694.112340
7 Jan 2020 04:42:17.000,216.558,33.622,688.434125
7 Jan 2020 04:42:18.000,216.418,34.001,682.783322
7 Jan 2020 04:42:19.000,216.275,34.384,677.160622
7 Jan 2020 04:42:20.000,216.128,34.774,671.566738
7 Jan 2020 04:42:21.000,215.977,35.169,666.002403
7 Jan 2020 04:42:22.000,215.821,35.570,660.468371
7 Jan 2020 04:42:23.000,215.662,35.977,654.965416
7 Jan 2020 04:42:24.000,215.498,36.390,649.494334
7 Jan 2020 04:42:25.000,215.329,36.810,644.055946
7 Jan 2020 04:42:26.000,215.156,37.235,638.651090
7 Jan 2020 04:42:27.000,214.977,37.668,633.280633
7 Jan 2020 04:42:28.000,214.794,38.106,627.945464
7 Jan 2020 04:42:29.000,214.604,38.552,622.646495
7 Jan 2020 04:42:30.000,214.409,39.004,617.384667
7 Jan 2020 04:42:31.000,214.209,39.463,612.160941
7 Jan 2020 04:42:32.000,214.001,39.929,606.976307
7 Jan 2020 04:42:33.000,213.788,40.402,601.831783
7 Jan 2020 04:42:34.000,213.567,40.882,596.728413
7 Jan 2020 04:42:35.000,213.339,41.369,591.667266
7 Jan 2020 04:42:36.000,213.104,41.864,586.649440
7 Jan 2020 04:42:37.000,212.861,42.366,581.676066
7 Jan 2020 04:42:38.000,212.610,42.876,576.748295
7 Jan 2020 04:42:39.000,212.350,43.393,571.867314
7 Jan 2020 04:42:40.000,212.081,43.918,567.034338
7 Jan 2020 04:42:41.000,211.802,44.451,562.250608
7 Jan 2020 04:42:42.000,211.513,44.991,557.517400
7 Jan 2020 04:42:43.000,211.213,45.540,552.836014
7 Jan 2020 04:42:44.000,210.903,46.096,548.207786
7 Jan 2020 04:42:45.000,210.580,46.661,543.634077
7 Jan 2020 04:42:46.000,210.245,47.233,539.116280
7 Jan 2020 04:42:47.000,209.897,47.813,534.655820
7 Jan 2020 04:42:48.000,209.534,48.402,530.254146
7 Jan 2020 04:42:49.000,209.157,48.998,525.912742
7 Jan 2020 04:42:50.000,208.765,49.602,521.633117
7 Jan 2020 04:42:51.000,208.355,50.215,517.416806
7 Jan 2020 04:42:52.000,207.928,50.835,513.265379
7 Jan 2020 04:42:53.000,207.482,51.463,509.180423
7 Jan 2020 04:42:54.000,207.017,52.099,505.163560
7 Jan 2020 04:42:55.000,206.529,52.743,501.216429
7 Jan 2020 04:42:56.000,206.020,53.394,497.340694
7 Jan 2020 04:42:57.000,205.486,54.052,493.538044
7 Jan 2020 04:42:58.000,204.926,54.717,489.810184
7 Jan 2020 04:42:59.000,204.338,55.390,486.158840
7 Jan 2020 04:43:00.000,203.721,56.068,482.585750
7 Jan 2020 04:43:01.000,203.072,56.753,479.092673
7 Jan 2020 04:43:02.000,202.389,57.444,475.681374
7 Jan 2020 04:43:03.000,201.669,58.140,472.353628
7 Jan 2020 04:43:04.000,200.910,58.842,469.111217
7 Jan 2020 04:43:05.000,200.108,59.547,465.955927
7 Jan 2020 04:43:06.000,199.260,60.256,462.889543
7 Jan 2020 04:43:07.000,198.364,60.969,459.913847
7 Jan 2020 04:43:08.000,197.413,61.683,457.030612
7 Jan 2020 04:43:09.000,196.405,62.400,454.241605
7 Jan 2020 04:43:10.000,195.335,63.116,451.548572
7 Jan 2020 04:43:11.000,194.197,63.832,448.953245
7 Jan 2020 04:43:12.000,192.987,64.546,446.457331
7 Jan 2020 04:43:13.000,191.696,65.257,444.062509
7 Jan 2020 04:43:14.000,190.321,65.963,441.770425
7 Jan 2020 04:43:15.000,188.852,66.662,439.582689
7 Jan 2020 04:43:16.000,187.283,67.353,437.500869
7 Jan 2020 04:43:17.000,185.606,68.034,435.526486
7 Jan 2020 04:43:18.000,183.811,68.702,433.661010
7 Jan 2020 04:43:19.000,181.892,69.355,431.905853
7 Jan 2020 04:43:20.000,179.838,69.990,430.262369
7 Jan 2020 04:43:21.000,177.641,70.604,428.731843
7 Jan 2020 04:43:22.000,175.293,71.193,427.315490
7 Jan 2020 04:43:23.000,172.786,71.754,426.014451
7 Jan 2020 04:43:24.000,170.114,72.283,424.829786
7 Jan 2020 04:43:25.000,167.274,72.776,423.762474
7 Jan 2020 04:43:26.000,164.264,73.229,422.813403
7 Jan 2020 04:43:27.000,161.087,73.637,421.983372
7 Jan 2020 04:43:28.000,157.749,73.996,421.273086
7 Jan 2020 04:43:29.000,154.263,74.302,420.683153
7 Jan 2020 04:43:30.000,150.646,74.550,420.214079
7 Jan 2020 04:43:31.000,146.920,74.738,419.866271
7 Jan 2020 04:43:32.000,143.114,74.864,419.640029
7 Jan 2020 04:43:33.000,139.258,74.924,419.535550
7 Jan 2020 04:43:34.000,135.389,74.918,419.552927
7 Jan 2020 04:43:35.000,131.540,74.846,419.692143
7 Jan 2020 04:43:36.000,127.746,74.710,419.953076
7 Jan 2020 04:43:37.000,124.038,74.511,420.335500
7 Jan 2020 04:43:38.000,120.442,74.253,420.839084
7 Jan 2020 04:43:39.000,116.982,73.938,421.463391
7 Jan 2020 04:43:40.000,113.672,73.570,422.207884
7 Jan 2020 04:43:41.000,110.525,73.154,423.071931
7 Jan 2020 04:43:42.000,107.546,72.695,424.054797
7 Jan 2020 04:43:43.000,104.736,72.196,425.155658
7 Jan 2020 04:43:44.000,102.095,71.661,426.373598
7 Jan 2020 04:43:45.000,99.617,71.095,427.707615
7 Jan 2020 04:43:46.000,97.297,70.502,429.156625
7 Jan 2020 04:43:47.000,95.127,69.885,430.719467
7 Jan 2020 04:43:48.000,93.098,69.248,432.394901
7 Jan 2020 04:43:49.000,91.201,68.593,434.181626
7 Jan 2020 04:43:50.000,89.429,67.923,436.078269
7 Jan 2020 04:43:51.000,87.772,67.241,438.083399
7 Jan 2020 04:43:52.000,86.222,66.549,440.195535
7 Jan 2020 04:43:53.000,84.770,65.849,442.413138
7 Jan 2020 04:43:54.000,83.411,65.143,444.734628
7 Jan 2020 04:43:55.000,82.135,64.433,447.158386
7 Jan 2020 04:43:56.000,80.938,63.719,449.682755
7 Jan 2020 04:43:57.000,79.813,63.004,452.306045
7 Jan 2020 04:43:58.000,78.754,62.289,455.026543
7 Jan 2020 04:43:59.000,77.757,61.574,457.842514
7 Jan 2020 04:44:00.000,76.817,60.861,460.752202
7 Jan 2020 04:44:01.000,75.930,60.150,463.753841
7 Jan 2020 04:44:02.000,75.091,59.443,466.845654
7 Jan 2020 04:44:03.000,74.297,58.739,470.025856
7 Jan 2020 04:44:04.000,73.545,58.040,473.292662
7 Jan 2020 04:44:05.000,72.832,57.346,476.644287
7 Jan 2020 04:44:06.000,72.156,56.657,480.078952
7 Jan 2020 04:44:07.000,71.513,55.974,483.594879
7 Jan 2020 04:44:08.000,70.901,55.298,487.190310
7 Jan 2020 04:44:09.000,70.319,54.628,490.863491
7 Jan 2020 04:44:10.000,69.764,53.965,494.612686
7 Jan 2020 04:44:11.000,69.234,53.309,498.436174
7 Jan 2020 04:44:12.000,68.729,52.661,502.332252
7 Jan 2020 04:44:13.000,68.246,52.020,506.299245
7 Jan 2020 04:44:14.000,67.784,51.386,510.335490
7 Jan 2020 04:44:15.000,67.342,50.761,514.439351
7 Jan 2020 04:44:16.000,66.918,50.143,518.609223
7 Jan 2020 04:44:17.000,66.512,49.533,522.843515
7 Jan 2020 04:44:18.000,66.122,48.931,527.140676
7 Jan 2020 04:44:19.000,65.748,48.337,531.499173
7 Jan 2020 04:44:20.000,65.388,47.751,535.917501
7 Jan 2020 04:44:21.000,65.043,47.174,540.394193
7 Jan 2020 04:44:22.000,64.710,46.604,544.927799
7 Jan 2020 04:44:23.000,64.390,46.042,549.516911
7 Jan 2020 04:44:24.000,64.081,45.488,554.160139
7 Jan 2020 04:44:25.000,63.784,44.942,558.856132
7 Jan 2020 04:44:26.000,63.497,44.404,563.603563
7 Jan 2020 04:44:27.000,63.220,43.873,568.401139
7 Jan 2020 04:44:28.000,62.953,43.351,573.247596
7 Jan 2020 04:44:29.000,62.695,42.836,578.141696
7 Jan 2020 04:44:30.000,62.445,42.328,583.082234
7 Jan 2020 04:44:31.000,62.204,41.829,588.068037
7 Jan 2020 04:44:32.000,61.970,41.336,593.097953
7 Jan 2020 04:44:33.000,61.744,40.851,598.170865
7 Jan 2020 04:44:34.000,61.525,40.373,603.285684
7 Jan 2020 04:44:35.000,61.313,39.902,608.441343
7 Jan 2020 04:44:36.000,61.107,39.438,613.636809
7 Jan 2020 04:44:37.000,60.907,38.981,618.871075
7 Jan 2020 04:44:38.000,60.714,38.531,624.143153
7 Jan 2020 04:44:39.000,60.526,38.088,629.452090
7 Jan 2020 04:44:40.000,60.343,37.651,634.796954
7 Jan 2020 04:44:41.000,60.166,37.221,640.176839
7 Jan 2020 04:44:42.000,59.993,36.797,645.590866
7 Jan 2020 04:44:43.000,59.826,36.379,651.038171
7 Jan 2020 04:44:44.000,59.663,35.968,656.517922
7 Jan 2020 04:44:45.000,59.504,35.563,662.029306
7 Jan 2020 04:44:46.000,59.350,35.163,667.571534
7 Jan 2020 04:44:47.000,59.200,34.770,673.143838
7 Jan 2020 04:44:48.000,59.054,34.382,678.745468
7 Jan 2020 04:44:49.000,58.911,34.000,684.375698
7 Jan 2020 04:44:50.000,58.773,33.624,690.033822
7 Jan 2020 04:44:51.000,58.637,33.253,695.719151
7 Jan 2020 04:44:52.000,58.505,32.887,701.431019
7 Jan 2020 04:44:53.000,58.377,32.527,707.168774
7 Jan 2020 04:44:54.000,58.251,32.172,712.931785
7 Jan 2020 04:44:55.000,58.129,31.822,718.719438
7 Jan 2020 04:44:56.000,58.009,31.477,724.531134
7 Jan 2020 04:44:57.000,57.893,31.136,730.366294
7 Jan 2020 04:44:58.000,57.779,30.801,736.224354
7 Jan 2020 04:44:59.000,57.667,30.470,742.104760
7 Jan 2020 04:45:00.000,57.558,30.144,748.006980
7 Jan 2020 04:45:01.000,57.452,29.822,753.930495
7 Jan 2020 04:45:02.000,57.348,29.505,759.874801
7 Jan 2020 04:45:03.000,57.247,29.193,765.839405
7 Jan 2020 04:45:04.000,57.147,28.884,771.823830
7 Jan 2020 04:45:05.000,57.050,28.580,777.827611
7 Jan 2020 04:45:06.000,56.955,28.279,783.850296
7 Jan 2020 04:45:07.000,56.862,27.983,789.891446
7 Jan 2020 04:45:08.000,56.771,27.691,795.950633
7 Jan 2020 04:45:09.000,56.681,27.403,802.027440
7 Jan 2020 04:45:10.000,56.594,27.118,808.121463
7 Jan 2020 04:45:11.000,56.508,26.837,814.232309
7 Jan 2020 04:45:12.000,56.425,26.560,820.359593
7 Jan 2020 04:45:13.000,56.342,26.287,826.502940
7 Jan 2020 04:45:14.000,56.262,26.017,832.661993
7 Jan 2020 04:45:15.000,56.183,25.750,838.836395
7 Jan 2020 04:45:16.000,56.106,25.487,845.025803
7 Jan 2020 04:45:17.000,56.030,25.227,851.229882
7 Jan 2020 04:45:18.000,55.956,24.971,857.448306
7 Jan 2020 04:45:19.000,55.883,24.718,863.680757
7 Jan 2020 04:45:20.000,55.811,24.467,869.926928
7 Jan 2020 04:45:21.000,55.741,24.220,876.186516
7 Jan 2020 04:45:22.000,55.672,23.976,882.459228
7 Jan 2020 04:45:23.000,55.604,23.735,888.744781
7 Jan 2020 04:45:24.000,55.538,23.497,895.042894
7 Jan 2020 04:45:25.000,55.473,23.262,901.353298
7 Jan 2020 04:45:26.000,55.409,23.029,907.675725
7 Jan 2020 04:45:27.000,55.346,22.799,914.009925
7 Jan 2020 04:45:28.000,55.284,22.572,920.355643
7 Jan 2020 04:45:29.000,55.224,22.348,926.712636
7 Jan 2020 04:45:30.000,55.164,22.126,933.080665
7 Jan 2020 04:45:31.000,55.106,21.907,939.459499
7 Jan 2020 04:45:32.000,55.048,21.690,945.848911
7 Jan 2020 04:45:33.000,54.992,21.476,952.248680
7 Jan 2020 04:45:34.000,54.936,21.264,958.658589
7 Jan 2020 04:45:35.000,54.882,21.055,965.078434
7 Jan 2020 04:45:36.000,54.828,20.848,971.508006
7 Jan 2020 04:45:37.000,54.775,20.643,977.947107
7 Jan 2020 04:45:38.000,54.723,20.440,984.395542
7 Jan 2020 04:45:39.000,54.672,20.240,990.853121
7 Jan 2020 04:45:40.000,54.622,20.042,997.319658
7 Jan 2020 04:45:41.000,54.572,19.846,1003.794969
7 Jan 2020 04:45:42.000,54.524,19.652,1010.278885
7 Jan 2020 04:45:43.000,54.476,19.460,1016.771229
7 Jan 2020 04:45:44.000,54.429,19.270,1023.271834
7 Jan 2020 04:45:45.000,54.383,19.082,1029.780535
7 Jan 2020 04:45:46.000,54.337,18.896,1036.297173
7 Jan 2020 04:45:47.000,54.292,18.712,1042.821586
7 Jan 2020 04:45:48.000,54.248,18.530,1049.353629
7 Jan 2020 04:45:49.000,54.204,18.350,1055.893149
7 Jan 2020 04:45:50.000,54.161,18.172,1062.440000
7 Jan 2020 04:45:51.000,54.119,17.995,1068.994040
7 Jan 2020 04:45:52.000,54.078,17.820,1075.555127
7 Jan 2020 04:45:53.000,54.037,17.647,1082.123129
7 Jan 2020 04:45:54.000,53.996,17.476,1088.697912
7 Jan 2020 04:45:55.000,53.957,17.306,1095.279345
7 Jan 2020 04:45:56.000,53.917,17.138,1101.867302
7 Jan 2020 04:45:57.000,53.879,16.971,1108.461655
7 Jan 2020 04:45:58.000,53.841,16.806,1115.062288
7 Jan 2020 04:45:59.000,53.803,16.643,1121.669081
7 Jan 2020 04:46:00.000,53.766,16.481,1128.281916
7 Jan 2020 04:46:01.000,53.730,16.321,1134.900680
7 Jan 2020 04:46:02.000,53.694,16.162,1141.525260
7 Jan 2020 04:46:03.000,53.659,16.005,1148.155553
7 Jan 2020 04:46:04.000,53.624,15.849,1154.791449
7 Jan 2020 04:46:05.000,53.590,15.695,1161.432844
7 Jan 2020 04:46:06.000,53.556,15.542,1168.079637
7 Jan 2020 04:46:07.000,53.522,15.390,1174.731725
7 Jan 2020 04:46:08.000,53.489,15.240,1181.389016
7 Jan 2020 04:46:09.000,53.457,15.091,1188.051413
7 Jan 2020 04:46:10.000,53.425,14.943,1194.718822
7 Jan 2020 04:46:11.000,53.393,14.796,1201.391151
7 Jan 2020 04:46:12.000,53.362,14.651,1208.068308
7 Jan 2020 04:46:13.000,53.331,14.507,1214.750211
7 Jan 2020 04:46:14.000,53.301,14.365,1221.436772
7 Jan 2020 04:46:15.000,53.271,14.223,1228.127906
7 Jan 2020 04:46:16.000,53.241,14.083,1234.823528
7 Jan 2020 04:46:17.000,53.212,13.944,1241.523564
7 Jan 2020 04:46:18.000,53.183,13.806,1248.227930
7 Jan 2020 04:46:19.000,53.155,13.669,1254.936551
7 Jan 2020 04:46:20.000,53.127,13.533,1261.649347
7 Jan 2020 04:46:21.000,53.099,13.399,1268.366249
7 Jan 2020 04:46:22.000,53.072,13.265,1275.087183
7 Jan 2020 04:46:23.000,53.045,13.133,1281.812075
7 Jan 2020 04:46:24.000,53.018,13.002,1288.540854
7 Jan 2020 04:46:25.000,52.992,12.871,1295.273457
7 Jan 2020 04:46:26.000,52.966,12.742,1302.009813
7 Jan 2020 04:46:27.000,52.940,12.614,1308.749856
7 Jan 2020 04:46:28.000,52.915,12.486,1315.493519
7 Jan 2020 04:46:29.000,52.890,12.360,1322.240744
7 Jan 2020 04:46:30.000,52.865,12.235,1328.991466
7 Jan 2020 04:46:31.000,52.840,12.110,1335.745624
7 Jan 2020 04:46:32.000,52.816,11.987,1342.503154
7 Jan 2020 04:46:33.000,52.793,11.864,1349.264005
7 Jan 2020 04:46:34.000,52.769,11.742,1356.028115
7 Jan 2020 04:46:35.000,52.746,11.622,1362.795428
7 Jan 2020 04:46:36.000,52.723,11.502,1369.565885
7 Jan 2020 04:46:37.000,52.700,11.383,1376.339438
7 Jan 2020 04:46:38.000,52.678,11.264,1383.116029
7 Jan 2020 04:46:39.000,52.656,11.147,1389.895608
7 Jan 2020 04:46:40.000,52.634,11.031,1396.678118
7 Jan 2020 04:46:41.000,52.612,10.915,1403.463516
7 Jan 2020 04:46:42.000,52.591,10.800,1410.251749
7 Jan 2020 04:46:43.000,52.570,10.686,1417.042767
7 Jan 2020 04:46:44.000,52.549,10.573,1423.836520
7 Jan 2020 04:46:45.000,52.528,10.460,1430.632967
7 Jan 2020 04:46:46.000,52.508,10.349,1437.432058
7 Jan 2020 04:46:47.000,52.488,10.238,1444.233748
7 Jan 2020 04:46:48.000,52.468,10.128,1451.037990
7 Jan 2020 04:46:49.000,52.448,10.018,1457.844745
7 Jan 2020 04:46:50.000,52.429,9.909,1464.653967
7 Jan 2020 04:46:51.000,52.409,9.801,1471.465611
7 Jan 2020 04:46:52.000,52.390,9.694,1478.279641
7 Jan 2020 04:46:53.000,52.372,9.587,1485.096014
7 Jan 2020 04:46:54.000,52.353,9.481,1491.914688
7 Jan 2020 04:46:55.000,52.335,9.376,1498.735623
7 Jan 2020 04:46:56.000,52.317,9.271,1505.558783
7 Jan 2020 04:46:57.000,52.299,9.168,1512.384129
7 Jan 2020 04:46:58.000,52.281,9.064,1519.211623
7 Jan 2020 04:46:59.000,52.263,8.962,1526.041225
7 Jan 2020 04:47:00.000,52.246,8.860,1532.872904
7 Jan 2020 04:47:01.000,52.229,8.758,1539.706622
7 Jan 2020 04:47:02.000,52.212,8.658,1546.542341
7 Jan 2020 04:47:03.000,52.195,8.557,1553.380031
7 Jan 2020 04:47:04.000,52.178,8.458,1560.219656
7 Jan 2020 04:47:05.000,52.162,8.359,1567.061182
7 Jan 2020 04:47:06.000,52.146,8.261,1573.904574
7 Jan 2020 04:47:07.000,52.130,8.163,1580.749805
7 Jan 2020 04:47:08.000,52.114,8.066,1587.596840
7 Jan 2020 04:47:09.000,52.098,7.969,1594.445644
7 Jan 2020 04:47:10.000,52.082,7.873,1601.296193
7 Jan 2020 04:47:11.000,52.067,7.777,1608.148454
7 Jan 2020 04:47:12.000,52.052,7.682,1615.002396
7 Jan 2020 04:47:13.000,52.037,7.588,1621.857986
7 Jan 2020 04:47:14.000,52.022,7.494,1628.715203
7 Jan 2020 04:47:15.000,52.007,7.401,1635.574014
7 Jan 2020 04:47:16.000,51.992,7.308,1642.434387
7 Jan 2020 04:47:17.000,51.978,7.215,1649.296302
7 Jan 2020 04:47:18.000,51.964,7.124,1656.159729
7 Jan 2020 04:47:19.000,51.949,7.032,1663.024639
7 Jan 2020 04:47:20.000,51.935,6.941,1669.891004
7 Jan 2020 04:47:21.000,51.922,6.851,1676.758803
7 Jan 2020 04:47:22.000,51.908,6.761,1683.628008
7 Jan 2020 04:47:23.000,51.894,6.672,1690.498591
7 Jan 2020 04:47:24.000,51.881,6.583,1697.370533
7 Jan 2020 04:47:25.000,51.868,6.494,1704.243805
7 Jan 2020 04:47:26.000,51.855,6.406,1711.118384
7 Jan 2020 04:47:27.000,51.842,6.319,1717.994243
7 Jan 2020 04:47:28.000,51.829,6.232,1724.871364
7 Jan 2020 04:47:29.000,51.816,6.145,1731.749722
7 Jan 2020 04:47:30.000,51.803,6.059,1738.629289
7 Jan 2020 04:47:31.000,51.791,5.973,1745.510050
7 Jan 2020 04:47:32.000,51.778,5.888,1752.391980
7 Jan 2020 04:47:33.000,51.766,5.803,1759.275053
7 Jan 2020 04:47:34.000,51.754,5.718,1766.159255
7 Jan 2020 04:47:35.000,51.742,5.634,1773.044559
7 Jan 2020 04:47:36.000,51.730,5.550,1779.930947
7 Jan 2020 04:47:37.000,51.719,5.467,1786.818393
7 Jan 2020 04:47:38.000,51.707,5.384,1793.706884
7 Jan 2020 04:47:39.000,51.695,5.302,1800.596396
7 Jan 2020 04:47:40.000,51.684,5.219,1807.486906
7 Jan 2020 04:47:41.000,51.673,5.138,1814.378401
7 Jan 2020 04:47:42.000,51.662,5.056,1821.270859
7 Jan 2020 04:47:43.000,51.650,4.975,1828.164256
7 Jan 2020 04:47:44.000,51.640,4.895,1835.058582
7 Jan 2020 04:47:45.000,51.629,4.815,1841.953813
7 Jan 2020 04:47:46.000,51.618,4.735,1848.849931
7 Jan 2020 04:47:47.000,51.607,4.655,1855.746916
7 Jan 2020 04:47:48.000,51.597,4.576,1862.644756
7 Jan 2020 04:47:49.000,51.586,4.497,1869.543429
7 Jan 2020 04:47:50.000,51.576,4.419,1876.442916
7 Jan 2020 04:47:51.000,51.566,4.341,1883.343205
7 Jan 2020 04:47:52.000,51.556,4.263,1890.244277
7 Jan 2020 04:47:53.000,51.546,4.186,1897.146111
7 Jan 2020 04:47:54.000,51.536,4.109,1904.048696
7 Jan 2020 04:47:55.000,51.526,4.032,1910.952015
7 Jan 2020 04:47:56.000,51.516,3.956,1917.856050
7 Jan 2020 04:47:57.000,51.507,3.879,1924.760782
7 Jan 2020 04:47:58.000,51.497,3.804,1931.666203
7 Jan 2020 04:47:59.000,51.488,3.728,1938.572292
7 Jan 2020 04:48:00.000,51.478,3.653,1945.479033
7 Jan 2020 04:48:01.000,51.469,3.578,1952.386415
7 Jan 2020 04:48:02.000,51.460,3.504,1959.294421
7 Jan 2020 04:48:03.000,51.451,3.430,1966.203033
7 Jan 2020 04:48:04.000,51.442,3.356,1973.112242
7 Jan 2020 04:48:05.000,51.433,3.282,1980.022032
7 Jan 2020 04:48:06.000,51.424,3.209,1986.932386
7 Jan 2020 04:48:07.000,51.415,3.136,1993.843290
7 Jan 2020 04:48:08.000,51.407,3.063,2000.754733
7 Jan 2020 04:48:09.000,51.398,2.990,2007.666701
7 Jan 2020 04:48:10.000,51.390,2.918,2014.579176
7 Jan 2020 04:48:11.000,51.381,2.846,2021.492150
7 Jan 2020 04:48:12.000,51.373,2.775,2028.405608
7 Jan 2020 04:48:13.000,51.365,2.704,2035.319533
7 Jan 2020 04:48:14.000,51.356,2.632,2042.233918
7 Jan 2020 04:48:15.000,51.348,2.562,2049.148747
7 Jan 2020 04:48:16.000,51.340,2.491,2056.064005
7 Jan 2020 04:48:17.000,51.332,2.421,2062.979685
7 Jan 2020 04:48:18.000,51.325,2.351,2069.895771
7 Jan 2020 04:48:19.000,51.317,2.281,2076.812252
7 Jan 2020 04:48:20.000,51.309,2.212,2083.729112
7 Jan 2020 04:48:21.000,51.301,2.142,2090.646345
7 Jan 2020 04:48:22.000,51.294,2.073,2097.563936
7 Jan 2020 04:48:23.000,51.286,2.005,2104.481871
7 Jan 2020 04:48:24.000,51.279,1.936,2111.400143
7 Jan 2020 04:48:25.000,51.272,1.868,2118.318739
7 Jan 2020 04:48:26.000,51.264,1.800,2125.237644
7 Jan 2020 04:48:27.000,51.257,1.732,2132.156852
7 Jan 2020 04:48:28.000,51.250,1.665,2139.076349
7 Jan 2020 04:48:29.000,51.243,1.597,2145.996122
7 Jan 2020 04:48:30.000,51.236,1.530,2152.916166
7 Jan 2020 04:48:31.000,51.229,1.464,2159.836466
7 Jan 2020 04:48:32.000,51.222,1.397,2166.757012
7 Jan 2020 04:48:33.000,51.215,1.331,2173.677790
7 Jan 2020 04:48:34.000,51.208,1.264,2180.598797
7 Jan 2020 04:48:35.000,51.202,1.198,2187.520017
7 Jan 2020 04:48:36.000,51.195,1.133,2194.441439
7 Jan 2020 04:48:37.000,51.189,1.067,2201.363059
7 Jan 2020 04:48:38.000,51.182,1.002,2208.284862
7 Jan 2020 04:48:39.000,51.176,0.937,2215.206836
7 Jan 2020 04:48:40.000,51.169,0.872,2222.128977
7 Jan 2020 04:48:41.000,51.163,0.807,2229.051273
7 Jan 2020 04:48:42.000,51.157,0.743,2235.973711
7 Jan 2020 04:48:43.000,51.150,0.679,2242.896286
7 Jan 2020 04:48:44.000,51.144,0.615,2249.818988
7 Jan 2020 04:48:45.000,51.138,0.551,2256.741805
7 Jan 2020 04:48:46.000,51.132,0.487,2263.664727
7 Jan 2020 04:48:47.000,51.126,0.424,2270.587749
7 Jan 2020 04:48:48.000,51.120,0.361,2277.510860
7 Jan 2020 04:48:49.000,51.115,0.298,2284.434048
7 Jan 2020 04:48:50.000,51.109,0.235,2291.357309
7 Jan 2020 04:48:51.000,51.103,0.172,2298.280632
7 Jan 2020 04:48:52.000,51.097,0.110,2305.204004
7 Jan 2020 04:48:53.000,51.092,0.047,2312.127424
7 Jan 2020 04:48:54.000,51.086,-0.015,2319.050880
7 Jan 2020 04:48:55.000,51.081,-0.077,2325.974359
7 Jan 2020 04:48:55.771,51.076,-0.124,2331.311008
7 Jan 2020 06:15:35.261,271.421,-0.124,2326.163787
7 Jan 2020 06:15:36.000,271.488,-0.084,2321.728753
7 Jan 2020 06:15:37.000,271.579,-0.030,2315.733502
7 Jan 2020 06:15:38.000,271.671,0.024,2309.743184
7 Jan 2020 06:15:39.000,271.763,0.078,2303.757846
7 Jan 2020 06:15:40.000,271.856,0.132,2297.777531
7 Jan 2020 06:15:41.000,271.949,0.186,2291.802288
7 Jan 2020 06:15:42.000,272.043,0.240,2285.832165
7 Jan 2020 06:15:43.000,272.137,0.295,2279.867202
7 Jan 2020 06:15:44.000,272.231,0.349,2273.907451
7 Jan 2020 06:15:45.000,272.326,0.404,2267.952959
7 Jan 2020 06:15:46.000,272.422,0.458,2262.003774
7 Jan 2020 06:15:47.000,272.518,0.513,2256.059946
7 Jan 2020 06:15:48.000,272.614,0.568,2250.121523
7 Jan 2020 06:15:49.000,272.711,0.623,2244.188554
7 Jan 2020 06:15:50.000,272.809,0.678,2238.261091
7 Jan 2020 06:15:51.000,272.907,0.733,2232.339183
7 Jan 2020 06:15:52.000,273.005,0.789,2226.422881
7 Jan 2020 06:15:53.000,273.104,0.844,2220.512237
7 Jan 2020 06:15:54.000,273.204,0.900,2214.607303
7 Jan 2020 06:15:55.000,273.304,0.955,2208.708132
7 Jan 2020 06:15:56.000,273.404,1.011,2202.814775
7 Jan 2020 06:15:57.000,273.505,1.067,2196.927287
7 Jan 2020 06:15:58.000,273.607,1.122,2191.045722
7 Jan 2020 06:15:59.000,273.709,1.179,2185.170133
7 Jan 2020 06:16:00.000,273.812,1.235,2179.300577
7 Jan 2020 06:16:01.000,273.915,1.291,2173.437108
7 Jan 2020 06:16:02.000,274.019,1.347,2167.579782
7 Jan 2020 06:16:03.000,274.123,1.404,2161.728656
7 Jan 2020 06:16:04.000,274.228,1.460,2155.883787
7 Jan 2020 06:16:05.000,274.334,1.517,2150.045232
7 Jan 2020 06:16:06.000,274.440,1.573,2144.213051
7 Jan 2020 06:16:07.000,274.547,1.630,2138.387300
7 Jan 2020 06:16:08.000,274.654,1.687,2132.568040
7 Jan 2020 06:16:09.000,274.762,1.744,2126.755331
7 Jan 2020 06:16:10.000,274.870,1.801,2120.949232
7 Jan 2020 06:16:11.000,274.979,1.859,2115.149809
7 Jan 2020 06:16:12.000,275.088,1.916,2109.357116
7 Jan 2020 06:16:13.000,275.199,1.974,2103.571217
7 Jan 2020 06:16:14.000,275.309,2.031,2097.792177
7 Jan 2020 06:16:15.000,275.421,2.089,2092.020058
7 Jan 2020 06:16:16.000,275.533,2.147,2086.254925
7 Jan 2020 06:16:17.000,275.645,2.205,2080.496841
7 Jan 2020 06:16:18.000,275.758,2.263,2074.745873
7 Jan 2020 06:16:19.000,275.872,2.321,2069.002085
7 Jan 2020 06:16:20.000,275.987,2.379,2063.265544
7 Jan 2020 06:16:21.000,276.102,2.437,2057.536318
7 Jan 2020 06:16:22.000,276.217,2.496,2051.814474
7 Jan 2020 06:16:23.000,276.334,2.554,2046.100079
7 Jan 2020 06:16:24.000,276.451,2.613,2040.393208
7 Jan 2020 06:16:25.000,276.568,2.672,2034.693922
7 Jan 2020 06:16:26.000,276.687,2.731,2029.002295
7 Jan 2020 06:16:27.000,276.806,2.790,2023.318398
7 Jan 2020 06:16:28.000,276.925,2.849,2017.642303
7 Jan 2020 06:16:29.000,277.046,2.908,2011.974082
7 Jan 2020 06:16:30.000,277.166,2.967,2006.313809
7 Jan 2020 06:16:31.000,277.288,3.027,2000.661557
7 Jan 2020 06:16:32.000,277.410,3.086,1995.017400
7 Jan 2020 06:16:33.000,277.534,3.146,1989.381418
7 Jan 2020 06:16:34.000,277.657,3.206,1983.753679
7 Jan 2020 06:16:35.000,277.782,3.266,1978.134263
7 Jan 2020 06:16:36.000,277.907,3.326,1972.523248
7 Jan 2020 06:16:37.000,278.033,3.386,1966.920713
7 Jan 2020 06:16:38.000,278.159,3.446,1961.326735
7 Jan 2020 06:16:39.000,278.287,3.506,1955.741394
7 Jan 2020 06:16:40.000,278.415,3.567,1950.164772
7 Jan 2020 06:16:41.000,278.543,3.627,1944.596952
7 Jan 2020 06:16:42.000,278.673,3.688,1939.038010
7 Jan 2020 06:16:43.000,278.803,3.749,1933.488032
7 Jan 2020 06:16:44.000,278.934,3.809,1927.947102
7 Jan 2020 06:16:45.000,279.066,3.870,1922.415303
7 Jan 2020 06:16:46.000,279.198,3.932,1916.892722
7 Jan 2020 06:16:47.000,279.332,3.993,1911.379448
7 Jan 2020 06:16:48.000,279.466,4.054,1905.875560
7 Jan 2020 06:16:49.000,279.601,4.116,1900.381151
7 Jan 2020 06:16:50.000,279.736,4.177,1894.896307
7 Jan 2020 06:16:51.000,279.873,4.239,1889.421120
7 Jan 2020 06:16:52.000,280.010,4.300,1883.955678
7 Jan 2020 06:16:53.000,280.148,4.362,1878.500078
7 Jan 2020 06:16:54.000,280.287,4.424,1873.054403
7 Jan 2020 06:16:55.000,280.426,4.486,1867.618750
7 Jan 2020 06:16:56.000,280.567,4.549,1862.193213
7 Jan 2020 06:16:57.000,280.708,4.611,1856.777887
7 Jan 2020 06:16:58.000,280.850,4.673,1851.372867
7 Jan 2020 06:16:59.000,280.993,4.736,1845.978254
7 Jan 2020 06:17:00.000,281.137,4.798,1840.594137
7 Jan 2020 06:17:01.000,281.282,4.861,1835.220619
7 Jan 2020 06:17:02.000,281.427,4.924,1829.857799
7 Jan 2020 06:17:03.000,281.574,4.987,1824.505781
7 Jan 2020 06:17:04.000,281.721,5.050,1819.164659
7 Jan 2020 06:17:05.000,281.869,5.113,1813.834538
7 Jan 2020 06:17:06.000,282.018,5.177,1808.515523
7 Jan 2020 06:17:07.000,282.168,5.240,1803.207716
7 Jan 2020 06:17:08.000,282.319,5.303,1797.911227
7 Jan 2020 06:17:09.000,282.471,5.367,1792.626155
7 Jan 2020 06:17:10.000,282.624,5.431,1787.352611
7 Jan 2020 06:17:11.000,282.777,5.494,1782.090702
7 Jan 2020 06:17:12.000,282.932,5.558,1776.840542
7 Jan 2020 06:17:13.000,283.087,5.622,1771.602233
7 Jan 2020 06:17:14.000,283.243,5.686,1766.375890
7 Jan 2020 06:17:15.000,283.401,5.751,1761.161626
7 Jan 2020 06:17:16.000,283.559,5.815,1755.959558
7 Jan 2020 06:17:17.000,283.718,5.879,1750.769793
7 Jan 2020 06:17:18.000,283.878,5.944,1745.592449
7 Jan 2020 06:17:19.000,284.040,6.008,1740.427644
7 Jan 2020 06:17:20.000,284.202,6.073,1735.275499
7 Jan 2020 06:17:21.000,284.365,6.138,1730.136124
7 Jan 2020 06:17:22.000,284.529,6.203,1725.009645
7 Jan 2020 06:17:23.000,284.694,6.267,1719.896185
7 Jan 2020 06:17:24.000,284.860,6.332,1714.795859
7 Jan 2020 06:17:25.000,285.027,6.398,1709.708794
7 Jan 2020 06:17:26.000,285.195,6.463,1704.635115
7 Jan 2020 06:17:27.000,285.365,6.528,1699.574949
7 Jan 2020 06:17:28.000,285.535,6.593,1694.528418
7 Jan 2020 06:17:29.000,285.706,6.659,1689.495651
7 Jan 2020 06:17:30.000,285.878,6.724,1684.476782
7 Jan 2020 06:17:31.000,286.052,6.790,1679.471933
7 Jan 2020 06:17:32.000,286.226,6.856,1674.481240
7 Jan 2020 06:17:33.000,286.402,6.922,1669.504838
7 Jan 2020 06:17:34.000,286.578,6.987,1664.542854
7 Jan 2020 06:17:35.000,286.756,7.053,1659.595426
7 Jan 2020 06:17:36.000,286.935,7.119,1654.662693
7 Jan 2020 06:17:37.000,287.115,7.185,1649.744787
7 Jan 2020 06:17:38.000,287.296,7.252,1644.841851
7 Jan 2020 06:17:39.000,287.478,7.318,1639.954019
7 Jan 2020 06:17:40.000,287.661,7.384,1635.081436
7 Jan 2020 06:17:41.000,287.845,7.450,1630.224246
7 Jan 2020 06:17:42.000,288.031,7.517,1625.382586
7 Jan 2020 06:17:43.000,288.218,7.583,1620.556605
7 Jan 2020 06:17:44.000,288.405,7.650,1615.746450
7 Jan 2020 06:17:45.000,288.594,7.716,1610.952263
7 Jan 2020 06:17:46.000,288.785,7.783,1606.174198
7 Jan 2020 06:17:47.000,288.976,7.850,1601.412398
7 Jan 2020 06:17:48.000,289.168,7.917,1596.667018
7 Jan 2020 06:17:49.000,289.362,7.983,1591.938212
7 Jan 2020 06:17:50.000,289.557,8.050,1587.226127
