vcc_sched/network/input/aer_odugs_wj2xoh_vcc-c_44430.csv

"Time (UTCG)","Azimuth (deg)","Elevation (deg)","Range (km)"
7 Jan 2020 03:47:09.005,197.052,-0.124,2309.787705
7 Jan 2020 03:47:10.000,196.979,-0.067,2303.460906
7 Jan 2020 03:47:11.000,196.905,-0.010,2297.108404
7 Jan 2020 03:47:12.000,196.831,0.047,2290.759414
7 Jan 2020 03:47:13.000,196.756,0.105,2284.413973
7 Jan 2020 03:47:14.000,196.681,0.162,2278.072118
7 Jan 2020 03:47:15.000,196.606,0.220,2271.733888
7 Jan 2020 03:47:16.000,196.530,0.278,2265.399321
7 Jan 2020 03:47:17.000,196.454,0.336,2259.068456
7 Jan 2020 03:47:18.000,196.377,0.394,2252.741330
7 Jan 2020 03:47:19.000,196.300,0.452,2246.417986
7 Jan 2020 03:47:20.000,196.223,0.510,2240.098461
7 Jan 2020 03:47:21.000,196.145,0.569,2233.782797
7 Jan 2020 03:47:22.000,196.066,0.628,2227.471034
7 Jan 2020 03:47:23.000,195.987,0.686,2221.163214
7 Jan 2020 03:47:24.000,195.908,0.745,2214.859377
7 Jan 2020 03:47:25.000,195.828,0.804,2208.559566
7 Jan 2020 03:47:26.000,195.748,0.863,2202.263823
7 Jan 2020 03:47:27.000,195.667,0.923,2195.972192
7 Jan 2020 03:47:28.000,195.586,0.982,2189.684713
7 Jan 2020 03:47:29.000,195.504,1.042,2183.401434
7 Jan 2020 03:47:30.000,195.422,1.102,2177.122397
7 Jan 2020 03:47:31.000,195.339,1.161,2170.847647
7 Jan 2020 03:47:32.000,195.256,1.221,2164.577229
7 Jan 2020 03:47:33.000,195.172,1.282,2158.311189
7 Jan 2020 03:47:34.000,195.088,1.342,2152.049572
7 Jan 2020 03:47:35.000,195.004,1.402,2145.792425
7 Jan 2020 03:47:36.000,194.918,1.463,2139.539796
7 Jan 2020 03:47:37.000,194.833,1.524,2133.291732
7 Jan 2020 03:47:38.000,194.746,1.585,2127.048280
7 Jan 2020 03:47:39.000,194.660,1.646,2120.809489
7 Jan 2020 03:47:40.000,194.572,1.707,2114.575409
7 Jan 2020 03:47:41.000,194.485,1.768,2108.346089
7 Jan 2020 03:47:42.000,194.396,1.830,2102.121580
7 Jan 2020 03:47:43.000,194.307,1.892,2095.901931
7 Jan 2020 03:47:44.000,194.218,1.953,2089.687194
7 Jan 2020 03:47:45.000,194.128,2.015,2083.477421
7 Jan 2020 03:47:46.000,194.038,2.077,2077.272663
7 Jan 2020 03:47:47.000,193.946,2.140,2071.072974
7 Jan 2020 03:47:48.000,193.855,2.202,2064.878408
7 Jan 2020 03:47:49.000,193.763,2.265,2058.689018
7 Jan 2020 03:47:50.000,193.670,2.328,2052.504858
7 Jan 2020 03:47:51.000,193.576,2.391,2046.325985
7 Jan 2020 03:47:52.000,193.483,2.454,2040.152453
7 Jan 2020 03:47:53.000,193.388,2.517,2033.984318
7 Jan 2020 03:47:54.000,193.293,2.580,2027.821639
7 Jan 2020 03:47:55.000,193.197,2.644,2021.664473
7 Jan 2020 03:47:56.000,193.101,2.708,2015.512877
7 Jan 2020 03:47:57.000,193.004,2.771,2009.366912
7 Jan 2020 03:47:58.000,192.906,2.836,2003.226635
7 Jan 2020 03:47:59.000,192.808,2.900,1997.092108
7 Jan 2020 03:48:00.000,192.709,2.964,1990.963391
7 Jan 2020 03:48:01.000,192.610,3.029,1984.840546
7 Jan 2020 03:48:02.000,192.510,3.094,1978.723635
7 Jan 2020 03:48:03.000,192.409,3.158,1972.612721
7 Jan 2020 03:48:04.000,192.308,3.224,1966.507867
7 Jan 2020 03:48:05.000,192.206,3.289,1960.409137
7 Jan 2020 03:48:06.000,192.103,3.354,1954.316597
7 Jan 2020 03:48:07.000,192.000,3.420,1948.230313
7 Jan 2020 03:48:08.000,191.896,3.486,1942.150350
7 Jan 2020 03:48:09.000,191.791,3.552,1936.076776
7 Jan 2020 03:48:10.000,191.686,3.618,1930.009660
7 Jan 2020 03:48:11.000,191.580,3.684,1923.949068
7 Jan 2020 03:48:12.000,191.473,3.751,1917.895072
7 Jan 2020 03:48:13.000,191.366,3.817,1911.847741
7 Jan 2020 03:48:14.000,191.258,3.884,1905.807146
7 Jan 2020 03:48:15.000,191.149,3.951,1899.773360
7 Jan 2020 03:48:16.000,191.039,4.018,1893.746454
7 Jan 2020 03:48:17.000,190.929,4.086,1887.726503
7 Jan 2020 03:48:18.000,190.818,4.153,1881.713580
7 Jan 2020 03:48:19.000,190.706,4.221,1875.707761
7 Jan 2020 03:48:20.000,190.593,4.289,1869.709122
7 Jan 2020 03:48:21.000,190.480,4.357,1863.717739
7 Jan 2020 03:48:22.000,190.366,4.426,1857.733691
7 Jan 2020 03:48:23.000,190.251,4.494,1851.757056
7 Jan 2020 03:48:24.000,190.136,4.563,1845.787913
7 Jan 2020 03:48:25.000,190.019,4.632,1839.826344
7 Jan 2020 03:48:26.000,189.902,4.701,1833.872428
7 Jan 2020 03:48:27.000,189.784,4.770,1827.926249
7 Jan 2020 03:48:28.000,189.665,4.840,1821.987890
7 Jan 2020 03:48:29.000,189.546,4.909,1816.057435
7 Jan 2020 03:48:30.000,189.425,4.979,1810.134970
7 Jan 2020 03:48:31.000,189.304,5.049,1804.220579
7 Jan 2020 03:48:32.000,189.182,5.120,1798.314351
7 Jan 2020 03:48:33.000,189.059,5.190,1792.416373
7 Jan 2020 03:48:34.000,188.936,5.261,1786.526735
7 Jan 2020 03:48:35.000,188.811,5.332,1780.645527
7 Jan 2020 03:48:36.000,188.685,5.403,1774.772840
7 Jan 2020 03:48:37.000,188.559,5.474,1768.908767
7 Jan 2020 03:48:38.000,188.432,5.546,1763.053400
7 Jan 2020 03:48:39.000,188.304,5.617,1757.206834
7 Jan 2020 03:48:40.000,188.175,5.689,1751.369164
7 Jan 2020 03:48:41.000,188.045,5.761,1745.540488
7 Jan 2020 03:48:42.000,187.914,5.833,1739.720903
7 Jan 2020 03:48:43.000,187.782,5.906,1733.910508
7 Jan 2020 03:48:44.000,187.650,5.979,1728.109402
7 Jan 2020 03:48:45.000,187.516,6.051,1722.317688
7 Jan 2020 03:48:46.000,187.381,6.125,1716.535467
7 Jan 2020 03:48:47.000,187.246,6.198,1710.762844
7 Jan 2020 03:48:48.000,187.109,6.271,1704.999921
7 Jan 2020 03:48:49.000,186.972,6.345,1699.246807
7 Jan 2020 03:48:50.000,186.833,6.419,1693.503607
7 Jan 2020 03:48:51.000,186.694,6.493,1687.770431
7 Jan 2020 03:48:52.000,186.553,6.567,1682.047389
7 Jan 2020 03:48:53.000,186.412,6.642,1676.334590
7 Jan 2020 03:48:54.000,186.269,6.717,1670.632148
7 Jan 2020 03:48:55.000,186.126,6.792,1664.940176
7 Jan 2020 03:48:56.000,185.981,6.867,1659.258789
7 Jan 2020 03:48:57.000,185.836,6.942,1653.588104
7 Jan 2020 03:48:58.000,185.689,7.018,1647.928238
7 Jan 2020 03:48:59.000,185.541,7.094,1642.279309
7 Jan 2020 03:49:00.000,185.393,7.170,1636.641440
7 Jan 2020 03:49:01.000,185.243,7.246,1631.014750
7 Jan 2020 03:49:02.000,185.092,7.322,1625.399364
7 Jan 2020 03:49:03.000,184.939,7.399,1619.795406
7 Jan 2020 03:49:04.000,184.786,7.476,1614.203003
7 Jan 2020 03:49:05.000,184.632,7.553,1608.622281
7 Jan 2020 03:49:06.000,184.476,7.630,1603.053371
7 Jan 2020 03:49:07.000,184.320,7.708,1597.496402
7 Jan 2020 03:49:08.000,184.162,7.785,1591.951507
7 Jan 2020 03:49:09.000,184.003,7.863,1586.418819
7 Jan 2020 03:49:10.000,183.843,7.941,1580.898473
7 Jan 2020 03:49:11.000,183.681,8.020,1575.390607
7 Jan 2020 03:49:12.000,183.519,8.098,1569.895359
7 Jan 2020 03:49:13.000,183.355,8.177,1564.412868
7 Jan 2020 03:49:14.000,183.190,8.256,1558.943276
7 Jan 2020 03:49:15.000,183.023,8.335,1553.486726
7 Jan 2020 03:49:16.000,182.856,8.414,1548.043364
7 Jan 2020 03:49:17.000,182.687,8.494,1542.613335
7 Jan 2020 03:49:18.000,182.517,8.574,1537.196789
7 Jan 2020 03:49:19.000,182.346,8.654,1531.793874
7 Jan 2020 03:49:20.000,182.173,8.734,1526.404742
7 Jan 2020 03:49:21.000,181.999,8.814,1521.029548
7 Jan 2020 03:49:22.000,181.824,8.895,1515.668445
7 Jan 2020 03:49:23.000,181.647,8.976,1510.321591
7 Jan 2020 03:49:24.000,181.469,9.057,1504.989145
7 Jan 2020 03:49:25.000,181.290,9.138,1499.671266
7 Jan 2020 03:49:26.000,181.109,9.219,1494.368118
7 Jan 2020 03:49:27.000,180.927,9.301,1489.079864
7 Jan 2020 03:49:28.000,180.744,9.383,1483.806671
7 Jan 2020 03:49:29.000,180.559,9.465,1478.548706
7 Jan 2020 03:49:30.000,180.372,9.547,1473.306139
7 Jan 2020 03:49:31.000,180.185,9.629,1468.079142
7 Jan 2020 03:49:32.000,179.996,9.712,1462.867888
7 Jan 2020 03:49:33.000,179.805,9.795,1457.672552
7 Jan 2020 03:49:34.000,179.613,9.878,1452.493313
7 Jan 2020 03:49:35.000,179.419,9.961,1447.330350
7 Jan 2020 03:49:36.000,179.224,10.044,1442.183844
7 Jan 2020 03:49:37.000,179.028,10.127,1437.053978
7 Jan 2020 03:49:38.000,178.829,10.211,1431.940938
7 Jan 2020 03:49:39.000,178.630,10.295,1426.844912
7 Jan 2020 03:49:40.000,178.429,10.379,1421.766088
7 Jan 2020 03:49:41.000,178.226,10.463,1416.704658
7 Jan 2020 03:49:42.000,178.021,10.547,1411.660816
7 Jan 2020 03:49:43.000,177.815,10.632,1406.634758
7 Jan 2020 03:49:44.000,177.608,10.717,1401.626681
7 Jan 2020 03:49:45.000,177.399,10.801,1396.636785
7 Jan 2020 03:49:46.000,177.188,10.886,1391.665273
7 Jan 2020 03:49:47.000,176.976,10.972,1386.712348
7 Jan 2020 03:49:48.000,176.761,11.057,1381.778215
7 Jan 2020 03:49:49.000,176.546,11.142,1376.863085
7 Jan 2020 03:49:50.000,176.328,11.228,1371.967168
7 Jan 2020 03:49:51.000,176.109,11.314,1367.090675
7 Jan 2020 03:49:52.000,175.888,11.399,1362.233823
7 Jan 2020 03:49:53.000,175.666,11.485,1357.396827
7 Jan 2020 03:49:54.000,175.441,11.571,1352.579908
7 Jan 2020 03:49:55.000,175.215,11.658,1347.783287
7 Jan 2020 03:49:56.000,174.987,11.744,1343.007186
7 Jan 2020 03:49:57.000,174.758,11.830,1338.251834
7 Jan 2020 03:49:58.000,174.526,11.917,1333.517457
7 Jan 2020 03:49:59.000,174.293,12.004,1328.804285
7 Jan 2020 03:50:00.000,174.058,12.090,1324.112552
7 Jan 2020 03:50:01.000,173.821,12.177,1319.442492
7 Jan 2020 03:50:02.000,173.583,12.264,1314.794342
7 Jan 2020 03:50:03.000,173.342,12.351,1310.168341
7 Jan 2020 03:50:04.000,173.099,12.438,1305.564731
7 Jan 2020 03:50:05.000,172.855,12.525,1300.983755
7 Jan 2020 03:50:06.000,172.609,12.612,1296.425659
7 Jan 2020 03:50:07.000,172.361,12.700,1291.890691
7 Jan 2020 03:50:08.000,172.111,12.787,1287.379103
7 Jan 2020 03:50:09.000,171.858,12.874,1282.891145
7 Jan 2020 03:50:10.000,171.604,12.962,1278.427073
7 Jan 2020 03:50:11.000,171.348,13.049,1273.987143
7 Jan 2020 03:50:12.000,171.090,13.136,1269.571616
7 Jan 2020 03:50:13.000,170.831,13.224,1265.180751
7 Jan 2020 03:50:14.000,170.569,13.311,1260.814813
7 Jan 2020 03:50:15.000,170.305,13.399,1256.474066
7 Jan 2020 03:50:16.000,170.039,13.486,1252.158779
7 Jan 2020 03:50:17.000,169.770,13.573,1247.869221
7 Jan 2020 03:50:18.000,169.500,13.661,1243.605665
7 Jan 2020 03:50:19.000,169.228,13.748,1239.368383
7 Jan 2020 03:50:20.000,168.954,13.835,1235.157652
7 Jan 2020 03:50:21.000,168.678,13.922,1230.973750
7 Jan 2020 03:50:22.000,168.399,14.010,1226.816957
7 Jan 2020 03:50:23.000,168.118,14.097,1222.687556
7 Jan 2020 03:50:24.000,167.836,14.183,1218.585828
7 Jan 2020 03:50:25.000,167.551,14.270,1214.512061
7 Jan 2020 03:50:26.000,167.264,14.357,1210.466543
7 Jan 2020 03:50:27.000,166.975,14.444,1206.449561
7 Jan 2020 03:50:28.000,166.683,14.530,1202.461409
7 Jan 2020 03:50:29.000,166.390,14.616,1198.502379
7 Jan 2020 03:50:30.000,166.094,14.702,1194.572765
7 Jan 2020 03:50:31.000,165.796,14.788,1190.672864
7 Jan 2020 03:50:32.000,165.496,14.874,1186.802975
7 Jan 2020 03:50:33.000,165.194,14.960,1182.963396
7 Jan 2020 03:50:34.000,164.890,15.045,1179.154430
7 Jan 2020 03:50:35.000,164.583,15.130,1175.376377
7 Jan 2020 03:50:36.000,164.274,15.215,1171.629545
7 Jan 2020 03:50:37.000,163.963,15.300,1167.914235
7 Jan 2020 03:50:38.000,163.649,15.384,1164.230757
7 Jan 2020 03:50:39.000,163.334,15.469,1160.579417
7 Jan 2020 03:50:40.000,163.016,15.552,1156.960526
7 Jan 2020 03:50:41.000,162.695,15.636,1153.374393
7 Jan 2020 03:50:42.000,162.373,15.719,1149.821328
7 Jan 2020 03:50:43.000,162.048,15.802,1146.301646
7 Jan 2020 03:50:44.000,161.721,15.885,1142.815658
7 Jan 2020 03:50:45.000,161.392,15.967,1139.363680
7 Jan 2020 03:50:46.000,161.060,16.049,1135.946025
7 Jan 2020 03:50:47.000,160.727,16.130,1132.563009
7 Jan 2020 03:50:48.000,160.390,16.211,1129.214947
7 Jan 2020 03:50:49.000,160.052,16.291,1125.902156
7 Jan 2020 03:50:50.000,159.711,16.371,1122.624953
7 Jan 2020 03:50:51.000,159.368,16.451,1119.383654
7 Jan 2020 03:50:52.000,159.023,16.530,1116.178577
7 Jan 2020 03:50:53.000,158.676,16.609,1113.010039
7 Jan 2020 03:50:54.000,158.326,16.687,1109.878357
7 Jan 2020 03:50:55.000,157.974,16.765,1106.783849
7 Jan 2020 03:50:56.000,157.620,16.842,1103.726831
7 Jan 2020 03:50:57.000,157.263,16.918,1100.707620
7 Jan 2020 03:50:58.000,156.904,16.994,1097.726531
7 Jan 2020 03:50:59.000,156.543,17.069,1094.783881
7 Jan 2020 03:51:00.000,156.180,17.144,1091.879984
7 Jan 2020 03:51:01.000,155.814,17.218,1089.015154
7 Jan 2020 03:51:02.000,155.447,17.291,1086.189705
7 Jan 2020 03:51:03.000,155.077,17.364,1083.403947
7 Jan 2020 03:51:04.000,154.704,17.435,1080.658192
7 Jan 2020 03:51:05.000,154.330,17.507,1077.952750
7 Jan 2020 03:51:06.000,153.954,17.577,1075.287928
7 Jan 2020 03:51:07.000,153.575,17.647,1072.664032
7 Jan 2020 03:51:08.000,153.194,17.716,1070.081369
7 Jan 2020 03:51:09.000,152.811,17.784,1067.540240
7 Jan 2020 03:51:10.000,152.426,17.851,1065.040944
7 Jan 2020 03:51:11.000,152.039,17.917,1062.583784
7 Jan 2020 03:51:12.000,151.650,17.983,1060.169054
7 Jan 2020 03:51:13.000,151.258,18.047,1057.797049
7 Jan 2020 03:51:14.000,150.865,18.111,1055.468059
7 Jan 2020 03:51:15.000,150.470,18.174,1053.182372
7 Jan 2020 03:51:16.000,150.072,18.236,1050.940276
7 Jan 2020 03:51:17.000,149.673,18.297,1048.742054
7 Jan 2020 03:51:18.000,149.272,18.357,1046.587984
7 Jan 2020 03:51:19.000,148.868,18.415,1044.478341
7 Jan 2020 03:51:20.000,148.463,18.473,1042.413401
7 Jan 2020 03:51:21.000,148.056,18.530,1040.393433
7 Jan 2020 03:51:22.000,147.647,18.586,1038.418698
7 Jan 2020 03:51:23.000,147.237,18.641,1036.489462
7 Jan 2020 03:51:24.000,146.824,18.694,1034.605982
7 Jan 2020 03:51:25.000,146.410,18.747,1032.768507
7 Jan 2020 03:51:26.000,145.994,18.798,1030.977291
7 Jan 2020 03:51:27.000,145.577,18.848,1029.232573
7 Jan 2020 03:51:28.000,145.157,18.897,1027.534598
7 Jan 2020 03:51:29.000,144.737,18.945,1025.883598
7 Jan 2020 03:51:30.000,144.314,18.991,1024.279800
7 Jan 2020 03:51:31.000,143.890,19.037,1022.723433
7 Jan 2020 03:51:32.000,143.465,19.081,1021.214712
7 Jan 2020 03:51:33.000,143.038,19.124,1019.753856
7 Jan 2020 03:51:34.000,142.609,19.165,1018.341067
7 Jan 2020 03:51:35.000,142.179,19.205,1016.976553
7 Jan 2020 03:51:36.000,141.748,19.244,1015.660507
7 Jan 2020 03:51:37.000,141.316,19.282,1014.393121
7 Jan 2020 03:51:38.000,140.882,19.318,1013.174582
7 Jan 2020 03:51:39.000,140.447,19.353,1012.005064
7 Jan 2020 03:51:40.000,140.011,19.386,1010.884743
7 Jan 2020 03:51:41.000,139.574,19.418,1009.813781
7 Jan 2020 03:51:42.000,139.135,19.449,1008.792339
7 Jan 2020 03:51:43.000,138.696,19.478,1007.820572
7 Jan 2020 03:51:44.000,138.256,19.506,1006.898620
7 Jan 2020 03:51:45.000,137.814,19.533,1006.026624
7 Jan 2020 03:51:46.000,137.372,19.558,1005.204718
7 Jan 2020 03:51:47.000,136.929,19.581,1004.433022
7 Jan 2020 03:51:48.000,136.485,19.603,1003.711656
7 Jan 2020 03:51:49.000,136.041,19.624,1003.040729
7 Jan 2020 03:51:50.000,135.596,19.643,1002.420347
7 Jan 2020 03:51:51.000,135.150,19.661,1001.850600
7 Jan 2020 03:51:52.000,134.703,19.677,1001.331577
7 Jan 2020 03:51:53.000,134.256,19.691,1000.863359
7 Jan 2020 03:51:54.000,133.809,19.704,1000.446019
7 Jan 2020 03:51:55.000,133.361,19.716,1000.079620
7 Jan 2020 03:51:56.000,132.913,19.726,999.764221
7 Jan 2020 03:51:57.000,132.464,19.734,999.499872
7 Jan 2020 03:51:58.000,132.015,19.741,999.286610
7 Jan 2020 03:51:59.000,131.566,19.747,999.124470
7 Jan 2020 03:52:00.000,131.117,19.750,999.013480
7 Jan 2020 03:52:01.000,130.668,19.753,998.953655
7 Jan 2020 03:52:02.000,130.219,19.754,998.945007
7 Jan 2020 03:52:03.000,129.769,19.753,998.987536
7 Jan 2020 03:52:04.000,129.320,19.750,999.081237
7 Jan 2020 03:52:05.000,128.871,19.747,999.226095
7 Jan 2020 03:52:06.000,128.422,19.741,999.422090
7 Jan 2020 03:52:07.000,127.974,19.734,999.669190
7 Jan 2020 03:52:08.000,127.525,19.726,999.967359
7 Jan 2020 03:52:09.000,127.077,19.716,1000.316547
7 Jan 2020 03:52:10.000,126.630,19.704,1000.716708
7 Jan 2020 03:52:11.000,126.182,19.691,1001.167777
7 Jan 2020 03:52:12.000,125.736,19.677,1001.669686
7 Jan 2020 03:52:13.000,125.290,19.661,1002.222358
7 Jan 2020 03:52:14.000,124.844,19.643,1002.825708
7 Jan 2020 03:52:15.000,124.399,19.624,1003.479643
7 Jan 2020 03:52:16.000,123.955,19.604,1004.184069
7 Jan 2020 03:52:17.000,123.512,19.582,1004.938877
7 Jan 2020 03:52:18.000,123.069,19.558,1005.743952
7 Jan 2020 03:52:19.000,122.627,19.533,1006.599172
7 Jan 2020 03:52:20.000,122.187,19.507,1007.504412
7 Jan 2020 03:52:21.000,121.747,19.479,1008.459536
7 Jan 2020 03:52:22.000,121.308,19.450,1009.464398
7 Jan 2020 03:52:23.000,120.870,19.419,1010.518855
7 Jan 2020 03:52:24.000,120.434,19.387,1011.622747
7 Jan 2020 03:52:25.000,119.998,19.354,1012.775910
7 Jan 2020 03:52:26.000,119.564,19.319,1013.978181
7 Jan 2020 03:52:27.000,119.131,19.283,1015.229381
7 Jan 2020 03:52:28.000,118.699,19.245,1016.529325
7 Jan 2020 03:52:29.000,118.269,19.206,1017.877831
7 Jan 2020 03:52:30.000,117.840,19.166,1019.274700
7 Jan 2020 03:52:31.000,117.412,19.125,1020.719738
7 Jan 2020 03:52:32.000,116.986,19.082,1022.212734
7 Jan 2020 03:52:33.000,116.561,19.038,1023.753482
7 Jan 2020 03:52:34.000,116.138,18.993,1025.341759
7 Jan 2020 03:52:35.000,115.717,18.947,1026.977350
7 Jan 2020 03:52:36.000,115.297,18.899,1028.660021
7 Jan 2020 03:52:37.000,114.878,18.850,1030.389547
7 Jan 2020 03:52:38.000,114.462,18.800,1032.165684
7 Jan 2020 03:52:39.000,114.047,18.749,1033.988193
7 Jan 2020 03:52:40.000,113.634,18.697,1035.856832
7 Jan 2020 03:52:41.000,113.222,18.643,1037.771341
7 Jan 2020 03:52:42.000,112.812,18.589,1039.731474
7 Jan 2020 03:52:43.000,112.405,18.533,1041.736964
7 Jan 2020 03:52:44.000,111.999,18.477,1043.787550
7 Jan 2020 03:52:45.000,111.595,18.419,1045.882970
7 Jan 2020 03:52:46.000,111.193,18.360,1048.022944
7 Jan 2020 03:52:47.000,110.792,18.300,1050.207203
7 Jan 2020 03:52:48.000,110.394,18.240,1052.435468
7 Jan 2020 03:52:49.000,109.998,18.178,1054.707462
7 Jan 2020 03:52:50.000,109.604,18.115,1057.022893
7 Jan 2020 03:52:51.000,109.212,18.052,1059.381478
7 Jan 2020 03:52:52.000,108.821,17.988,1061.782927
7 Jan 2020 03:52:53.000,108.433,17.922,1064.226947
7 Jan 2020 03:52:54.000,108.047,17.856,1066.713247
7 Jan 2020 03:52:55.000,107.664,17.789,1069.241521
7 Jan 2020 03:52:56.000,107.282,17.721,1071.811475
7 Jan 2020 03:52:57.000,106.902,17.653,1074.422806
7 Jan 2020 03:52:58.000,106.525,17.583,1077.075211
7 Jan 2020 03:52:59.000,106.150,17.513,1079.768384
7 Jan 2020 03:53:00.000,105.777,17.442,1082.502019
7 Jan 2020 03:53:01.000,105.406,17.371,1085.275806
7 Jan 2020 03:53:02.000,105.037,17.298,1088.089439
7 Jan 2020 03:53:03.000,104.671,17.225,1090.942600
7 Jan 2020 03:53:04.000,104.306,17.152,1093.834980
7 Jan 2020 03:53:05.000,103.944,17.077,1096.766266
7 Jan 2020 03:53:06.000,103.585,17.002,1099.736144
7 Jan 2020 03:53:07.000,103.227,16.927,1102.744298
7 Jan 2020 03:53:08.000,102.872,16.851,1105.790414
7 Jan 2020 03:53:09.000,102.519,16.774,1108.874174
7 Jan 2020 03:53:10.000,102.168,16.697,1111.995264
7 Jan 2020 03:53:11.000,101.820,16.619,1115.153365
7 Jan 2020 03:53:12.000,101.474,16.541,1118.348161
7 Jan 2020 03:53:13.000,101.130,16.462,1121.579331
7 Jan 2020 03:53:14.000,100.788,16.383,1124.846567
7 Jan 2020 03:53:15.000,100.449,16.303,1128.149546
7 Jan 2020 03:53:16.000,100.112,16.223,1131.487953
7 Jan 2020 03:53:17.000,99.777,16.142,1134.861472
7 Jan 2020 03:53:18.000,99.445,16.061,1138.269786
7 Jan 2020 03:53:19.000,99.115,15.980,1141.712581
7 Jan 2020 03:53:20.000,98.787,15.898,1145.189541
7 Jan 2020 03:53:21.000,98.461,15.816,1148.700350
7 Jan 2020 03:53:22.000,98.138,15.733,1152.244700
7 Jan 2020 03:53:23.000,97.817,15.650,1155.822277
7 Jan 2020 03:53:24.000,97.498,15.567,1159.432768
7 Jan 2020 03:53:25.000,97.181,15.484,1163.075864
7 Jan 2020 03:53:26.000,96.867,15.400,1166.751250
7 Jan 2020 03:53:27.000,96.555,15.316,1170.458627
7 Jan 2020 03:53:28.000,96.245,15.231,1174.197684
7 Jan 2020 03:53:29.000,95.938,15.147,1177.968114
7 Jan 2020 03:53:30.000,95.633,15.062,1181.769610
7 Jan 2020 03:53:31.000,95.329,14.977,1185.601876
7 Jan 2020 03:53:32.000,95.029,14.892,1189.464607
7 Jan 2020 03:53:33.000,94.730,14.807,1193.357502
7 Jan 2020 03:53:34.000,94.433,14.721,1197.280261
7 Jan 2020 03:53:35.000,94.139,14.635,1201.232592
7 Jan 2020 03:53:36.000,93.847,14.549,1205.214197
7 Jan 2020 03:53:37.000,93.557,14.463,1209.224779
7 Jan 2020 03:53:38.000,93.269,14.377,1213.264054
7 Jan 2020 03:53:39.000,92.984,14.291,1217.331727
7 Jan 2020 03:53:40.000,92.700,14.204,1221.427507
7 Jan 2020 03:53:41.000,92.419,14.118,1225.551115
7 Jan 2020 03:53:42.000,92.140,14.031,1229.702262
7 Jan 2020 03:53:43.000,91.863,13.944,1233.880663
7 Jan 2020 03:53:44.000,91.588,13.858,1238.086045
7 Jan 2020 03:53:45.000,91.315,13.771,1242.318120
7 Jan 2020 03:53:46.000,91.044,13.684,1246.576620
7 Jan 2020 03:53:47.000,90.776,13.597,1250.861267
7 Jan 2020 03:53:48.000,90.509,13.510,1255.171785
7 Jan 2020 03:53:49.000,90.244,13.423,1259.507910
7 Jan 2020 03:53:50.000,89.982,13.336,1263.869367
7 Jan 2020 03:53:51.000,89.721,13.249,1268.255896
7 Jan 2020 03:53:52.000,89.462,13.162,1272.667227
7 Jan 2020 03:53:53.000,89.206,13.075,1277.103105
7 Jan 2020 03:53:54.000,88.951,12.988,1281.563262
7 Jan 2020 03:53:55.000,88.699,12.901,1286.047448
7 Jan 2020 03:53:56.000,88.448,12.814,1290.555401
7 Jan 2020 03:53:57.000,88.199,12.727,1295.086875
7 Jan 2020 03:53:58.000,87.952,12.640,1299.641611
7 Jan 2020 03:53:59.000,87.708,12.554,1304.219368
7 Jan 2020 03:54:00.000,87.465,12.467,1308.819891
7 Jan 2020 03:54:01.000,87.223,12.380,1313.442944
7 Jan 2020 03:54:02.000,86.984,12.294,1318.088277
7 Jan 2020 03:54:03.000,86.747,12.207,1322.755657
7 Jan 2020 03:54:04.000,86.511,12.121,1327.444840
7 Jan 2020 03:54:05.000,86.278,12.034,1332.155593
7 Jan 2020 03:54:06.000,86.046,11.948,1336.887687
7 Jan 2020 03:54:07.000,85.816,11.862,1341.640884
7 Jan 2020 03:54:08.000,85.587,11.776,1346.414961
7 Jan 2020 03:54:09.000,85.361,11.690,1351.209685
7 Jan 2020 03:54:10.000,85.136,11.604,1356.024839
7 Jan 2020 03:54:11.000,84.913,11.518,1360.860192
7 Jan 2020 03:54:12.000,84.692,11.433,1365.715530
7 Jan 2020 03:54:13.000,84.472,11.347,1370.590637
7 Jan 2020 03:54:14.000,84.255,11.262,1375.485291
7 Jan 2020 03:54:15.000,84.038,11.177,1380.399282
7 Jan 2020 03:54:16.000,83.824,11.092,1385.332401
7 Jan 2020 03:54:17.000,83.611,11.007,1390.284433
7 Jan 2020 03:54:18.000,83.400,10.922,1395.255175
7 Jan 2020 03:54:19.000,83.191,10.838,1400.244424
7 Jan 2020 03:54:20.000,82.983,10.753,1405.251972
7 Jan 2020 03:54:21.000,82.777,10.669,1410.277620
7 Jan 2020 03:54:22.000,82.572,10.585,1415.321174
7 Jan 2020 03:54:23.000,82.369,10.501,1420.382431
7 Jan 2020 03:54:24.000,82.167,10.417,1425.461200
7 Jan 2020 03:54:25.000,81.967,10.333,1430.557291
7 Jan 2020 03:54:26.000,81.769,10.250,1435.670509
7 Jan 2020 03:54:27.000,81.572,10.166,1440.800667
7 Jan 2020 03:54:28.000,81.377,10.083,1445.947584
7 Jan 2020 03:54:29.000,81.183,10.000,1451.111068
7 Jan 2020 03:54:30.000,80.991,9.918,1456.290940
7 Jan 2020 03:54:31.000,80.800,9.835,1461.487021
7 Jan 2020 03:54:32.000,80.611,9.753,1466.699137
7 Jan 2020 03:54:33.000,80.423,9.670,1471.927102
7 Jan 2020 03:54:34.000,80.236,9.588,1477.170747
7 Jan 2020 03:54:35.000,80.051,9.506,1482.429900
7 Jan 2020 03:54:36.000,79.868,9.425,1487.704394
7 Jan 2020 03:54:37.000,79.686,9.343,1492.994052
7 Jan 2020 03:54:38.000,79.505,9.262,1498.298712
7 Jan 2020 03:54:39.000,79.325,9.181,1503.618209
7 Jan 2020 03:54:40.000,79.147,9.100,1508.952383
7 Jan 2020 03:54:41.000,78.971,9.020,1514.301067
7 Jan 2020 03:54:42.000,78.795,8.939,1519.664104
7 Jan 2020 03:54:43.000,78.621,8.859,1525.041337
7 Jan 2020 03:54:44.000,78.448,8.779,1530.432610
7 Jan 2020 03:54:45.000,78.277,8.699,1535.837773
7 Jan 2020 03:54:46.000,78.107,8.619,1541.256666
7 Jan 2020 03:54:47.000,77.938,8.540,1546.689142
7 Jan 2020 03:54:48.000,77.771,8.460,1552.135053
7 Jan 2020 03:54:49.000,77.604,8.381,1557.594251
7 Jan 2020 03:54:50.000,77.439,8.303,1563.066595
7 Jan 2020 03:54:51.000,77.275,8.224,1568.551933
7 Jan 2020 03:54:52.000,77.113,8.145,1574.050127
7 Jan 2020 03:54:53.000,76.951,8.067,1579.561036
7 Jan 2020 03:54:54.000,76.791,7.989,1585.084522
7 Jan 2020 03:54:55.000,76.632,7.911,1590.620446
7 Jan 2020 03:54:56.000,76.475,7.834,1596.168678
7 Jan 2020 03:54:57.000,76.318,7.756,1601.729075
7 Jan 2020 03:54:58.000,76.163,7.679,1607.301508
7 Jan 2020 03:54:59.000,76.008,7.602,1612.885847
7 Jan 2020 03:55:00.000,75.855,7.525,1618.481961
7 Jan 2020 03:55:01.000,75.703,7.449,1624.089722
7 Jan 2020 03:55:02.000,75.552,7.372,1629.709005
7 Jan 2020 03:55:03.000,75.402,7.296,1635.339682
7 Jan 2020 03:55:04.000,75.254,7.220,1640.981636
7 Jan 2020 03:55:05.000,75.106,7.145,1646.634735
7 Jan 2020 03:55:06.000,74.960,7.069,1652.298862
7 Jan 2020 03:55:07.000,74.814,6.994,1657.973899
7 Jan 2020 03:55:08.000,74.670,6.919,1663.659726
7 Jan 2020 03:55:09.000,74.526,6.844,1669.356228
7 Jan 2020 03:55:10.000,74.384,6.769,1675.063287
7 Jan 2020 03:55:11.000,74.243,6.695,1680.780792
7 Jan 2020 03:55:12.000,74.103,6.620,1686.508628
7 Jan 2020 03:55:13.000,73.963,6.546,1692.246687
7 Jan 2020 03:55:14.000,73.825,6.472,1697.994853
7 Jan 2020 03:55:15.000,73.688,6.399,1703.753020
7 Jan 2020 03:55:16.000,73.552,6.325,1709.521080
7 Jan 2020 03:55:17.000,73.416,6.252,1715.298927
7 Jan 2020 03:55:18.000,73.282,6.179,1721.086456
7 Jan 2020 03:55:19.000,73.149,6.106,1726.883562
7 Jan 2020 03:55:20.000,73.016,6.033,1732.690143
7 Jan 2020 03:55:21.000,72.885,5.961,1738.506097
7 Jan 2020 03:55:22.000,72.754,5.889,1744.331324
7 Jan 2020 03:55:23.000,72.625,5.817,1750.165724
7 Jan 2020 03:55:24.000,72.496,5.745,1756.009199
7 Jan 2020 03:55:25.000,72.368,5.673,1761.861652
7 Jan 2020 03:55:26.000,72.241,5.602,1767.722988
7 Jan 2020 03:55:27.000,72.115,5.531,1773.593111
7 Jan 2020 03:55:28.000,71.990,5.459,1779.471928
7 Jan 2020 03:55:29.000,71.866,5.389,1785.359345
7 Jan 2020 03:55:30.000,71.742,5.318,1791.255276
7 Jan 2020 03:55:31.000,71.620,5.248,1797.159621
7 Jan 2020 03:55:32.000,71.498,5.177,1803.072297
7 Jan 2020 03:55:33.000,71.377,5.107,1808.993212
7 Jan 2020 03:55:34.000,71.257,5.037,1814.922282
7 Jan 2020 03:55:35.000,71.138,4.968,1820.859417
7 Jan 2020 03:55:36.000,71.020,4.898,1826.804535
7 Jan 2020 03:55:37.000,70.902,4.829,1832.757548
7 Jan 2020 03:55:38.000,70.786,4.760,1838.718375
7 Jan 2020 03:55:39.000,70.670,4.691,1844.686933
7 Jan 2020 03:55:40.000,70.554,4.622,1850.663139
7 Jan 2020 03:55:41.000,70.440,4.554,1856.646913
7 Jan 2020 03:55:42.000,70.326,4.485,1862.638176
7 Jan 2020 03:55:43.000,70.214,4.417,1868.636847
7 Jan 2020 03:55:44.000,70.102,4.349,1874.642850
7 Jan 2020 03:55:45.000,69.990,4.281,1880.656107
7 Jan 2020 03:55:46.000,69.880,4.214,1886.676541
7 Jan 2020 03:55:47.000,69.770,4.146,1892.704077
7 Jan 2020 03:55:48.000,69.661,4.079,1898.738641
7 Jan 2020 03:55:49.000,69.552,4.012,1904.780159
7 Jan 2020 03:55:50.000,69.445,3.945,1910.828557
7 Jan 2020 03:55:51.000,69.338,3.879,1916.883764
7 Jan 2020 03:55:52.000,69.232,3.812,1922.945708
7 Jan 2020 03:55:53.000,69.126,3.746,1929.014319
7 Jan 2020 03:55:54.000,69.021,3.680,1935.089527
7 Jan 2020 03:55:55.000,68.917,3.614,1941.171262
7 Jan 2020 03:55:56.000,68.814,3.548,1947.259458
7 Jan 2020 03:55:57.000,68.711,3.482,1953.354042
7 Jan 2020 03:55:58.000,68.609,3.417,1959.454956
7 Jan 2020 03:55:59.000,68.507,3.352,1965.562129
7 Jan 2020 03:56:00.000,68.407,3.286,1971.675496
7 Jan 2020 03:56:01.000,68.307,3.222,1977.794993
7 Jan 2020 03:56:02.000,68.207,3.157,1983.920556
7 Jan 2020 03:56:03.000,68.108,3.092,1990.052122
7 Jan 2020 03:56:04.000,68.010,3.028,1996.189628
7 Jan 2020 03:56:05.000,67.913,2.964,2002.333013
7 Jan 2020 03:56:06.000,67.816,2.899,2008.482216
7 Jan 2020 03:56:07.000,67.719,2.836,2014.637175
7 Jan 2020 03:56:08.000,67.624,2.772,2020.797832
7 Jan 2020 03:56:09.000,67.529,2.708,2026.964127
7 Jan 2020 03:56:10.000,67.434,2.645,2033.136002
7 Jan 2020 03:56:11.000,67.340,2.581,2039.313399
7 Jan 2020 03:56:12.000,67.247,2.518,2045.496261
7 Jan 2020 03:56:13.000,67.154,2.455,2051.684531
7 Jan 2020 03:56:14.000,67.062,2.393,2057.878153
7 Jan 2020 03:56:15.000,66.971,2.330,2064.077072
7 Jan 2020 03:56:16.000,66.880,2.268,2070.281233
7 Jan 2020 03:56:17.000,66.789,2.205,2076.490578
7 Jan 2020 03:56:18.000,66.700,2.143,2082.705061
7 Jan 2020 03:56:19.000,66.610,2.081,2088.924625
7 Jan 2020 03:56:20.000,66.522,2.019,2095.149217
7 Jan 2020 03:56:21.000,66.433,1.958,2101.378786
7 Jan 2020 03:56:22.000,66.346,1.896,2107.613281
7 Jan 2020 03:56:23.000,66.259,1.835,2113.852649
7 Jan 2020 03:56:24.000,66.172,1.773,2120.096843
7 Jan 2020 03:56:25.000,66.086,1.712,2126.345810
7 Jan 2020 03:56:26.000,66.001,1.651,2132.599503
7 Jan 2020 03:56:27.000,65.916,1.591,2138.857871
7 Jan 2020 03:56:28.000,65.831,1.530,2145.120869
7 Jan 2020 03:56:29.000,65.747,1.469,2151.388443
7 Jan 2020 03:56:30.000,65.664,1.409,2157.660554
7 Jan 2020 03:56:31.000,65.581,1.349,2163.937151
7 Jan 2020 03:56:32.000,65.499,1.289,2170.218189
7 Jan 2020 03:56:33.000,65.417,1.229,2176.503621
7 Jan 2020 03:56:34.000,65.335,1.169,2182.793402
7 Jan 2020 03:56:35.000,65.255,1.110,2189.087488
7 Jan 2020 03:56:36.000,65.174,1.050,2195.385834
7 Jan 2020 03:56:37.000,65.094,0.991,2201.688395
7 Jan 2020 03:56:38.000,65.015,0.931,2207.995130
7 Jan 2020 03:56:39.000,64.936,0.872,2214.305991
7 Jan 2020 03:56:40.000,64.857,0.813,2220.620942
7 Jan 2020 03:56:41.000,64.779,0.755,2226.939938
7 Jan 2020 03:56:42.000,64.701,0.696,2233.262938
7 Jan 2020 03:56:43.000,64.624,0.637,2239.589899
7 Jan 2020 03:56:44.000,64.548,0.579,2245.920782
7 Jan 2020 03:56:45.000,64.471,0.521,2252.255545
7 Jan 2020 03:56:46.000,64.396,0.463,2258.594148
7 Jan 2020 03:56:47.000,64.320,0.405,2264.936553
7 Jan 2020 03:56:48.000,64.245,0.347,2271.282716
7 Jan 2020 03:56:49.000,64.171,0.289,2277.632605
7 Jan 2020 03:56:50.000,64.097,0.231,2283.986179
7 Jan 2020 03:56:51.000,64.023,0.174,2290.343398
7 Jan 2020 03:56:52.000,63.950,0.117,2296.704227
7 Jan 2020 03:56:53.000,63.877,0.059,2303.068626
7 Jan 2020 03:56:54.000,63.805,0.002,2309.436560
7 Jan 2020 03:56:55.000,63.733,-0.055,2315.807992
7 Jan 2020 03:56:56.000,63.661,-0.112,2322.182885
7 Jan 2020 03:56:56.221,63.646,-0.124,2323.591319
7 Jan 2020 05:23:03.780,247.618,-0.124,2315.919438
7 Jan 2020 05:23:04.000,247.628,-0.111,2314.443238
7 Jan 2020 05:23:05.000,247.674,-0.051,2307.735555
7 Jan 2020 05:23:06.000,247.721,0.010,2301.029096
7 Jan 2020 05:23:07.000,247.767,0.070,2294.323876
7 Jan 2020 05:23:08.000,247.814,0.131,2287.619920
7 Jan 2020 05:23:09.000,247.862,0.192,2280.917245
7 Jan 2020 05:23:10.000,247.909,0.253,2274.215868
7 Jan 2020 05:23:11.000,247.957,0.314,2267.515807
7 Jan 2020 05:23:12.000,248.005,0.375,2260.817086
7 Jan 2020 05:23:13.000,248.053,0.437,2254.119724
7 Jan 2020 05:23:14.000,248.102,0.498,2247.423738
7 Jan 2020 05:23:15.000,248.151,0.560,2240.729147
7 Jan 2020 05:23:16.000,248.200,0.622,2234.035977
7 Jan 2020 05:23:17.000,248.249,0.685,2227.344245
7 Jan 2020 05:23:18.000,248.299,0.747,2220.653973
7 Jan 2020 05:23:19.000,248.349,0.810,2213.965180
7 Jan 2020 05:23:20.000,248.400,0.872,2207.277886
7 Jan 2020 05:23:21.000,248.450,0.935,2200.592117
7 Jan 2020 05:23:22.000,248.501,0.999,2193.907892
7 Jan 2020 05:23:23.000,248.552,1.062,2187.225234
7 Jan 2020 05:23:24.000,248.604,1.126,2180.544161
7 Jan 2020 05:23:25.000,248.656,1.189,2173.864702
7 Jan 2020 05:23:26.000,248.708,1.253,2167.186876
7 Jan 2020 05:23:27.000,248.760,1.317,2160.510706
7 Jan 2020 05:23:28.000,248.813,1.382,2153.836212
7 Jan 2020 05:23:29.000,248.866,1.446,2147.163424
7 Jan 2020 05:23:30.000,248.920,1.511,2140.492362
7 Jan 2020 05:23:31.000,248.973,1.576,2133.823051
7 Jan 2020 05:23:32.000,249.027,1.641,2127.155513
7 Jan 2020 05:23:33.000,249.082,1.706,2120.489772
7 Jan 2020 05:23:34.000,249.136,1.772,2113.825857
7 Jan 2020 05:23:35.000,249.191,1.838,2107.163790
7 Jan 2020 05:23:36.000,249.247,1.904,2100.503597
7 Jan 2020 05:23:37.000,249.303,1.970,2093.845300
7 Jan 2020 05:23:38.000,249.359,2.036,2087.188932
7 Jan 2020 05:23:39.000,249.415,2.103,2080.534515
7 Jan 2020 05:23:40.000,249.472,2.170,2073.882076
7 Jan 2020 05:23:41.000,249.529,2.237,2067.231641
7 Jan 2020 05:23:42.000,249.587,2.304,2060.583235
7 Jan 2020 05:23:43.000,249.644,2.371,2053.936891
7 Jan 2020 05:23:44.000,249.703,2.439,2047.292634
7 Jan 2020 05:23:45.000,249.761,2.507,2040.650491
7 Jan 2020 05:23:46.000,249.820,2.575,2034.010489
7 Jan 2020 05:23:47.000,249.880,2.644,2027.372661
7 Jan 2020 05:23:48.000,249.939,2.712,2020.737035
7 Jan 2020 05:23:49.000,250.000,2.781,2014.103639
7 Jan 2020 05:23:50.000,250.060,2.850,2007.472503
7 Jan 2020 05:23:51.000,250.121,2.920,2000.843654
7 Jan 2020 05:23:52.000,250.182,2.989,1994.217129
7 Jan 2020 05:23:53.000,250.244,3.059,1987.592956
7 Jan 2020 05:23:54.000,250.306,3.129,1980.971165
7 Jan 2020 05:23:55.000,250.369,3.200,1974.351789
7 Jan 2020 05:23:56.000,250.432,3.270,1967.734856
7 Jan 2020 05:23:57.000,250.495,3.341,1961.120405
7 Jan 2020 05:23:58.000,250.559,3.412,1954.508465
7 Jan 2020 05:23:59.000,250.623,3.484,1947.899071
7 Jan 2020 05:24:00.000,250.688,3.555,1941.292254
7 Jan 2020 05:24:01.000,250.753,3.627,1934.688047
7 Jan 2020 05:24:02.000,250.818,3.699,1928.086490
7 Jan 2020 05:24:03.000,250.884,3.772,1921.487614
7 Jan 2020 05:24:04.000,250.951,3.844,1914.891455
7 Jan 2020 05:24:05.000,251.017,3.917,1908.298050
7 Jan 2020 05:24:06.000,251.085,3.991,1901.707429
7 Jan 2020 05:24:07.000,251.153,4.064,1895.119638
7 Jan 2020 05:24:08.000,251.221,4.138,1888.534710
7 Jan 2020 05:24:09.000,251.290,4.212,1881.952682
7 Jan 2020 05:24:10.000,251.359,4.286,1875.373592
7 Jan 2020 05:24:11.000,251.429,4.361,1868.797477
7 Jan 2020 05:24:12.000,251.499,4.436,1862.224381
7 Jan 2020 05:24:13.000,251.569,4.511,1855.654340
7 Jan 2020 05:24:14.000,251.641,4.587,1849.087396
7 Jan 2020 05:24:15.000,251.712,4.663,1842.523589
7 Jan 2020 05:24:16.000,251.785,4.739,1835.962955
7 Jan 2020 05:24:17.000,251.857,4.815,1829.405545
7 Jan 2020 05:24:18.000,251.931,4.892,1822.851397
7 Jan 2020 05:24:19.000,252.004,4.969,1816.300553
7 Jan 2020 05:24:20.000,252.079,5.046,1809.753057
7 Jan 2020 05:24:21.000,252.153,5.124,1803.208950
7 Jan 2020 05:24:22.000,252.229,5.202,1796.668283
7 Jan 2020 05:24:23.000,252.305,5.280,1790.131097
7 Jan 2020 05:24:24.000,252.381,5.359,1783.597440
7 Jan 2020 05:24:25.000,252.458,5.438,1777.067356
7 Jan 2020 05:24:26.000,252.536,5.517,1770.540893
7 Jan 2020 05:24:27.000,252.614,5.597,1764.018096
7 Jan 2020 05:24:28.000,252.693,5.677,1757.499019
7 Jan 2020 05:24:29.000,252.773,5.757,1750.983708
7 Jan 2020 05:24:30.000,252.853,5.838,1744.472212
7 Jan 2020 05:24:31.000,252.933,5.919,1737.964583
7 Jan 2020 05:24:32.000,253.014,6.000,1731.460871
7 Jan 2020 05:24:33.000,253.096,6.082,1724.961124
7 Jan 2020 05:24:34.000,253.179,6.164,1718.465402
7 Jan 2020 05:24:35.000,253.262,6.247,1711.973755
7 Jan 2020 05:24:36.000,253.346,6.329,1705.486236
7 Jan 2020 05:24:37.000,253.430,6.413,1699.002900
7 Jan 2020 05:24:38.000,253.515,6.496,1692.523804
7 Jan 2020 05:24:39.000,253.601,6.580,1686.048998
7 Jan 2020 05:24:40.000,253.687,6.664,1679.578548
7 Jan 2020 05:24:41.000,253.774,6.749,1673.112509
7 Jan 2020 05:24:42.000,253.862,6.834,1666.650938
7 Jan 2020 05:24:43.000,253.950,6.920,1660.193895
7 Jan 2020 05:24:44.000,254.040,7.006,1653.741441
7 Jan 2020 05:24:45.000,254.129,7.092,1647.293634
7 Jan 2020 05:24:46.000,254.220,7.179,1640.850542
7 Jan 2020 05:24:47.000,254.311,7.266,1634.412225
7 Jan 2020 05:24:48.000,254.403,7.353,1627.978748
7 Jan 2020 05:24:49.000,254.496,7.441,1621.550176
7 Jan 2020 05:24:50.000,254.590,7.529,1615.126573
7 Jan 2020 05:24:51.000,254.684,7.618,1608.708008
7 Jan 2020 05:24:52.000,254.779,7.707,1602.294543
7 Jan 2020 05:24:53.000,254.875,7.797,1595.886257
7 Jan 2020 05:24:54.000,254.972,7.887,1589.483214
7 Jan 2020 05:24:55.000,255.069,7.977,1583.085485
7 Jan 2020 05:24:56.000,255.167,8.068,1576.693144
7 Jan 2020 05:24:57.000,255.267,8.159,1570.306262
7 Jan 2020 05:24:58.000,255.367,8.251,1563.924913
7 Jan 2020 05:24:59.000,255.467,8.343,1557.549175
7 Jan 2020 05:25:00.000,255.569,8.436,1551.179118
7 Jan 2020 05:25:01.000,255.672,8.529,1544.814828
7 Jan 2020 05:25:02.000,255.775,8.623,1538.456380
7 Jan 2020 05:25:03.000,255.879,8.717,1532.103853
7 Jan 2020 05:25:04.000,255.984,8.812,1525.757331
7 Jan 2020 05:25:05.000,256.091,8.907,1519.416893
7 Jan 2020 05:25:06.000,256.198,9.002,1513.082626
7 Jan 2020 05:25:07.000,256.306,9.098,1506.754612
7 Jan 2020 05:25:08.000,256.415,9.195,1500.432936
7 Jan 2020 05:25:09.000,256.524,9.292,1494.117692
7 Jan 2020 05:25:10.000,256.635,9.390,1487.808965
7 Jan 2020 05:25:11.000,256.747,9.488,1481.506846
7 Jan 2020 05:25:12.000,256.860,9.586,1475.211427
7 Jan 2020 05:25:13.000,256.974,9.685,1468.922800
7 Jan 2020 05:25:14.000,257.089,9.785,1462.641062
7 Jan 2020 05:25:15.000,257.205,9.885,1456.366308
7 Jan 2020 05:25:16.000,257.322,9.986,1450.098636
7 Jan 2020 05:25:17.000,257.440,10.087,1443.838145
7 Jan 2020 05:25:18.000,257.559,10.189,1437.584932
7 Jan 2020 05:25:19.000,257.679,10.291,1431.339108
7 Jan 2020 05:25:20.000,257.800,10.394,1425.100773
7 Jan 2020 05:25:21.000,257.923,10.498,1418.870032
7 Jan 2020 05:25:22.000,258.046,10.602,1412.646994
7 Jan 2020 05:25:23.000,258.171,10.706,1406.431767
7 Jan 2020 05:25:24.000,258.297,10.811,1400.224463
7 Jan 2020 05:25:25.000,258.424,10.917,1394.025195
7 Jan 2020 05:25:26.000,258.552,11.023,1387.834077
7 Jan 2020 05:25:27.000,258.682,11.130,1381.651226
7 Jan 2020 05:25:28.000,258.812,11.238,1375.476760
7 Jan 2020 05:25:29.000,258.944,11.346,1369.310800
7 Jan 2020 05:25:30.000,259.078,11.455,1363.153468
7 Jan 2020 05:25:31.000,259.212,11.564,1357.004888
7 Jan 2020 05:25:32.000,259.348,11.674,1350.865188
7 Jan 2020 05:25:33.000,259.485,11.785,1344.734491
7 Jan 2020 05:25:34.000,259.624,11.896,1338.612937
7 Jan 2020 05:25:35.000,259.764,12.008,1332.500654
7 Jan 2020 05:25:36.000,259.905,12.121,1326.397777
7 Jan 2020 05:25:37.000,260.048,12.234,1320.304443
7 Jan 2020 05:25:38.000,260.192,12.348,1314.220793
7 Jan 2020 05:25:39.000,260.338,12.462,1308.146968
7 Jan 2020 05:25:40.000,260.485,12.577,1302.083112
7 Jan 2020 05:25:41.000,260.633,12.693,1296.029373
7 Jan 2020 05:25:42.000,260.783,12.810,1289.985899
7 Jan 2020 05:25:43.000,260.935,12.927,1283.952843
7 Jan 2020 05:25:44.000,261.088,13.045,1277.930358
7 Jan 2020 05:25:45.000,261.242,13.164,1271.918602
7 Jan 2020 05:25:46.000,261.399,13.283,1265.917734
7 Jan 2020 05:25:47.000,261.556,13.403,1259.927917
7 Jan 2020 05:25:48.000,261.716,13.524,1253.949315
7 Jan 2020 05:25:49.000,261.877,13.645,1247.982097
7 Jan 2020 05:25:50.000,262.040,13.767,1242.026433
7 Jan 2020 05:25:51.000,262.204,13.890,1236.082498
7 Jan 2020 05:25:52.000,262.371,14.014,1230.150467
7 Jan 2020 05:25:53.000,262.539,14.138,1224.230521
7 Jan 2020 05:25:54.000,262.709,14.264,1218.322842
7 Jan 2020 05:25:55.000,262.880,14.389,1212.427616
7 Jan 2020 05:25:56.000,263.054,14.516,1206.545033
7 Jan 2020 05:25:57.000,263.229,14.644,1200.675284
7 Jan 2020 05:25:58.000,263.407,14.772,1194.818566
7 Jan 2020 05:25:59.000,263.586,14.901,1188.975078
7 Jan 2020 05:26:00.000,263.767,15.031,1183.145025
7 Jan 2020 05:26:01.000,263.950,15.161,1177.328608
7 Jan 2020 05:26:02.000,264.135,15.293,1171.526038
7 Jan 2020 05:26:03.000,264.323,15.425,1165.737529
7 Jan 2020 05:26:04.000,264.512,15.558,1159.963299
7 Jan 2020 05:26:05.000,264.703,15.692,1154.203568
7 Jan 2020 05:26:06.000,264.897,15.826,1148.458560
7 Jan 2020 05:26:07.000,265.093,15.962,1142.728505
7 Jan 2020 05:26:08.000,265.291,16.098,1137.013633
7 Jan 2020 05:26:09.000,265.491,16.235,1131.314183
7 Jan 2020 05:26:10.000,265.694,16.373,1125.630395
7 Jan 2020 05:26:11.000,265.898,16.512,1119.962512
7 Jan 2020 05:26:12.000,266.106,16.651,1114.310789
7 Jan 2020 05:26:13.000,266.315,16.792,1108.675471
7 Jan 2020 05:26:14.000,266.527,16.933,1103.056820
7 Jan 2020 05:26:15.000,266.741,17.075,1097.455097
7 Jan 2020 05:26:16.000,266.958,17.218,1091.870569
7 Jan 2020 05:26:17.000,267.178,17.362,1086.303509
7 Jan 2020 05:26:18.000,267.400,17.507,1080.754192
7 Jan 2020 05:26:19.000,267.625,17.653,1075.222898
7 Jan 2020 05:26:20.000,267.852,17.799,1069.709918
7 Jan 2020 05:26:21.000,268.082,17.946,1064.215535
7 Jan 2020 05:26:22.000,268.315,18.095,1058.740047
7 Jan 2020 05:26:23.000,268.550,18.244,1053.283756
7 Jan 2020 05:26:24.000,268.789,18.394,1047.846968
7 Jan 2020 05:26:25.000,269.030,18.544,1042.429997
7 Jan 2020 05:26:26.000,269.274,18.696,1037.033153
7 Jan 2020 05:26:27.000,269.521,18.849,1031.656761
7 Jan 2020 05:26:28.000,269.771,19.002,1026.301148
7 Jan 2020 05:26:29.000,270.025,19.157,1020.966648
7 Jan 2020 05:26:30.000,270.281,19.312,1015.653603
7 Jan 2020 05:26:31.000,270.540,19.468,1010.362349
7 Jan 2020 05:26:32.000,270.803,19.625,1005.093240
7 Jan 2020 05:26:33.000,271.069,19.783,999.846632
7 Jan 2020 05:26:34.000,271.338,19.941,994.622891
7 Jan 2020 05:26:35.000,271.611,20.101,989.422377
7 Jan 2020 05:26:36.000,271.887,20.261,984.245468
7 Jan 2020 05:26:37.000,272.166,20.422,979.092544
7 Jan 2020 05:26:38.000,272.449,20.585,973.963994
7 Jan 2020 05:26:39.000,272.735,20.747,968.860205
7 Jan 2020 05:26:40.000,273.026,20.911,963.781579
7 Jan 2020 05:26:41.000,273.319,21.076,958.728524
7 Jan 2020 05:26:42.000,273.617,21.241,953.701446
7 Jan 2020 05:26:43.000,273.918,21.407,948.700767
7 Jan 2020 05:26:44.000,274.223,21.574,943.726915
7 Jan 2020 05:26:45.000,274.532,21.742,938.780315
7 Jan 2020 05:26:46.000,274.845,21.911,933.861409
7 Jan 2020 05:26:47.000,275.163,22.080,928.970645
7 Jan 2020 05:26:48.000,275.484,22.250,924.108470
7 Jan 2020 05:26:49.000,275.809,22.421,919.275344
7 Jan 2020 05:26:50.000,276.138,22.592,914.471739
7 Jan 2020 05:26:51.000,276.472,22.765,909.698118
7 Jan 2020 05:26:52.000,276.810,22.937,904.954970
7 Jan 2020 05:26:53.000,277.153,23.111,900.242774
7 Jan 2020 05:26:54.000,277.500,23.285,895.562026
7 Jan 2020 05:26:55.000,277.851,23.460,890.913232
7 Jan 2020 05:26:56.000,278.207,23.635,886.296892
7 Jan 2020 05:26:57.000,278.568,23.811,881.713527
7 Jan 2020 05:26:58.000,278.933,23.988,877.163653
7 Jan 2020 05:26:59.000,279.303,24.165,872.647805
7 Jan 2020 05:27:00.000,279.679,24.342,868.166513
7 Jan 2020 05:27:01.000,280.058,24.520,863.720325
7 Jan 2020 05:27:02.000,280.443,24.698,859.309784
7 Jan 2020 05:27:03.000,280.833,24.877,854.935454
7 Jan 2020 05:27:04.000,281.228,25.056,850.597891
7 Jan 2020 05:27:05.000,281.629,25.236,846.297672
7 Jan 2020 05:27:06.000,282.034,25.415,842.035367
7 Jan 2020 05:27:07.000,282.445,25.595,837.811566
7 Jan 2020 05:27:08.000,282.861,25.776,833.626854
7 Jan 2020 05:27:09.000,283.282,25.956,829.481826
7 Jan 2020 05:27:10.000,283.709,26.136,825.377088
7 Jan 2020 05:27:11.000,284.142,26.317,821.313248
7 Jan 2020 05:27:12.000,284.580,26.497,817.290915
7 Jan 2020 05:27:13.000,285.024,26.678,813.310717
7 Jan 2020 05:27:14.000,285.473,26.858,809.373275
7 Jan 2020 05:27:15.000,285.929,27.038,805.479219
7 Jan 2020 05:27:16.000,286.390,27.218,801.629189
7 Jan 2020 05:27:17.000,286.857,27.398,797.823826
7 Jan 2020 05:27:18.000,287.330,27.577,794.063770
7 Jan 2020 05:27:19.000,287.809,27.756,790.349681
7 Jan 2020 05:27:20.000,288.294,27.935,786.682208
7 Jan 2020 05:27:21.000,288.785,28.113,783.062011
7 Jan 2020 05:27:22.000,289.283,28.290,779.489753
7 Jan 2020 05:27:23.000,289.786,28.467,775.966095
7 Jan 2020 05:27:24.000,290.296,28.643,772.491713
7 Jan 2020 05:27:25.000,290.812,28.818,769.067275
7 Jan 2020 05:27:26.000,291.334,28.992,765.693454
7 Jan 2020 05:27:27.000,291.863,29.165,762.370927
7 Jan 2020 05:27:28.000,292.398,29.337,759.100369
7 Jan 2020 05:27:29.000,292.939,29.508,755.882459
7 Jan 2020 05:27:30.000,293.487,29.678,752.717875
7 Jan 2020 05:27:31.000,294.041,29.846,749.607293
7 Jan 2020 05:27:32.000,294.602,30.013,746.551396
7 Jan 2020 05:27:33.000,295.169,30.179,743.550859
7 Jan 2020 05:27:34.000,295.742,30.343,740.606359
7 Jan 2020 05:27:35.000,296.322,30.505,737.718567
7 Jan 2020 05:27:36.000,296.909,30.665,734.888160
7 Jan 2020 05:27:37.000,297.501,30.823,732.115799
7 Jan 2020 05:27:38.000,298.100,30.980,729.402151
7 Jan 2020 05:27:39.000,298.706,31.134,726.747878
7 Jan 2020 05:27:40.000,299.318,31.286,724.153634
7 Jan 2020 05:27:41.000,299.936,31.435,721.620070
7 Jan 2020 05:27:42.000,300.560,31.582,719.147828
7 Jan 2020 05:27:43.000,301.191,31.727,716.737547
7 Jan 2020 05:27:44.000,301.828,31.869,714.389857
7 Jan 2020 05:27:45.000,302.470,32.008,712.105375
7 Jan 2020 05:27:46.000,303.119,32.144,709.884716
7 Jan 2020 05:27:47.000,303.774,32.277,707.728483
7 Jan 2020 05:27:48.000,304.434,32.408,705.637270
7 Jan 2020 05:27:49.000,305.101,32.534,703.611654
7 Jan 2020 05:27:50.000,305.772,32.658,701.652208
7 Jan 2020 05:27:51.000,306.450,32.778,699.759491
7 Jan 2020 05:27:52.000,307.133,32.895,697.934044
7 Jan 2020 05:27:53.000,307.821,33.008,696.176398
7 Jan 2020 05:27:54.000,308.514,33.117,694.487074
7 Jan 2020 05:27:55.000,309.212,33.223,692.866566
7 Jan 2020 05:27:56.000,309.915,33.324,691.315366
7 Jan 2020 05:27:57.000,310.623,33.422,689.833937
7 Jan 2020 05:27:58.000,311.335,33.515,688.422735
7 Jan 2020 05:27:59.000,312.052,33.604,687.082189
7 Jan 2020 05:28:00.000,312.773,33.689,685.812720
7 Jan 2020 05:28:01.000,313.498,33.769,684.614719
7 Jan 2020 05:28:02.000,314.226,33.845,683.488567
7 Jan 2020 05:28:03.000,314.958,33.917,682.434618
7 Jan 2020 05:28:04.000,315.694,33.983,681.453206
7 Jan 2020 05:28:05.000,316.432,34.045,680.544649
7 Jan 2020 05:28:06.000,317.174,34.103,679.709237
7 Jan 2020 05:28:07.000,317.918,34.155,678.947242
7 Jan 2020 05:28:08.000,318.665,34.203,678.258908
7 Jan 2020 05:28:09.000,319.414,34.245,677.644465
7 Jan 2020 05:28:10.000,320.165,34.283,677.104111
7 Jan 2020 05:28:11.000,320.918,34.315,676.638025
7 Jan 2020 05:28:12.000,321.672,34.343,676.246358
7 Jan 2020 05:28:13.000,322.427,34.365,675.929240
7 Jan 2020 05:28:14.000,323.184,34.382,675.686778
7 Jan 2020 05:28:15.000,323.941,34.395,675.519050
7 Jan 2020 05:28:16.000,324.698,34.402,675.426112
7 Jan 2020 05:28:17.000,325.456,34.403,675.407994
7 Jan 2020 05:28:18.000,326.214,34.400,675.464701
7 Jan 2020 05:28:19.000,326.971,34.392,675.596215
7 Jan 2020 05:28:20.000,327.728,34.378,675.802489
7 Jan 2020 05:28:21.000,328.484,34.359,676.083455
7 Jan 2020 05:28:22.000,329.239,34.335,676.439019
7 Jan 2020 05:28:23.000,329.992,34.306,676.869065
7 Jan 2020 05:28:24.000,330.744,34.272,677.373444
7 Jan 2020 05:28:25.000,331.494,34.233,677.951993
7 Jan 2020 05:28:26.000,332.242,34.189,678.604520
7 Jan 2020 05:28:27.000,332.988,34.140,679.330811
7 Jan 2020 05:28:28.000,333.731,34.087,680.130629
7 Jan 2020 05:28:29.000,334.472,34.028,681.003710
7 Jan 2020 05:28:30.000,335.209,33.965,681.949773
7 Jan 2020 05:28:31.000,335.943,33.897,682.968515
7 Jan 2020 05:28:32.000,336.673,33.824,684.059605
7 Jan 2020 05:28:33.000,337.400,33.747,685.222699
7 Jan 2020 05:28:34.000,338.123,33.665,686.457428
7 Jan 2020 05:28:35.000,338.842,33.580,687.763403
7 Jan 2020 05:28:36.000,339.557,33.489,689.140219
7 Jan 2020 05:28:37.000,340.268,33.395,690.587448
7 Jan 2020 05:28:38.000,340.973,33.296,692.104647
7 Jan 2020 05:28:39.000,341.674,33.194,693.691354
7 Jan 2020 05:28:40.000,342.370,33.088,695.347091
7 Jan 2020 05:28:41.000,343.061,32.977,697.071363
7 Jan 2020 05:28:42.000,343.747,32.863,698.863661
7 Jan 2020 05:28:43.000,344.428,32.746,700.723458
7 Jan 2020 05:28:44.000,345.103,32.625,702.650219
7 Jan 2020 05:28:45.000,345.772,32.501,704.643389
7 Jan 2020 05:28:46.000,346.436,32.373,706.702403
7 Jan 2020 05:28:47.000,347.094,32.242,708.826686
7 Jan 2020 05:28:48.000,347.746,32.108,711.015649
7 Jan 2020 05:28:49.000,348.392,31.972,713.268692
7 Jan 2020 05:28:50.000,349.033,31.832,715.585208
7 Jan 2020 05:28:51.000,349.667,31.690,717.964579
7 Jan 2020 05:28:52.000,350.295,31.545,720.406179
7 Jan 2020 05:28:53.000,350.916,31.397,722.909374
7 Jan 2020 05:28:54.000,351.532,31.247,725.473521
7 Jan 2020 05:28:55.000,352.141,31.095,728.097975
7 Jan 2020 05:28:56.000,352.744,30.941,730.782082
7 Jan 2020 05:28:57.000,353.340,30.784,733.525182
7 Jan 2020 05:28:58.000,353.930,30.626,736.326613
7 Jan 2020 05:28:59.000,354.514,30.465,739.185708
7 Jan 2020 05:29:00.000,355.091,30.303,742.101795
7 Jan 2020 05:29:01.000,355.661,30.139,745.074203
7 Jan 2020 05:29:02.000,356.226,29.974,748.102256
7 Jan 2020 05:29:03.000,356.784,29.807,751.185275
7 Jan 2020 05:29:04.000,357.335,29.639,754.322585
7 Jan 2020 05:29:05.000,357.880,29.469,757.513504
7 Jan 2020 05:29:06.000,358.419,29.298,760.757356
7 Jan 2020 05:29:07.000,358.951,29.126,764.053460
7 Jan 2020 05:29:08.000,359.477,28.953,767.401140
7 Jan 2020 05:29:09.000,359.997,28.779,770.799718
7 Jan 2020 05:29:10.000,0.510,28.605,774.248520
7 Jan 2020 05:29:11.000,1.017,28.429,777.746874
7 Jan 2020 05:29:12.000,1.518,28.253,781.294108
7 Jan 2020 05:29:13.000,2.013,28.076,784.889556
7 Jan 2020 05:29:14.000,2.501,27.898,788.532553
7 Jan 2020 05:29:15.000,2.984,27.720,792.222438
7 Jan 2020 05:29:16.000,3.460,27.541,795.958554
7 Jan 2020 05:29:17.000,3.931,27.362,799.740249
7 Jan 2020 05:29:18.000,4.395,27.183,803.566874
7 Jan 2020 05:29:19.000,4.854,27.004,807.437785
7 Jan 2020 05:29:20.000,5.307,26.824,811.352343
7 Jan 2020 05:29:21.000,5.754,26.644,815.309914
7 Jan 2020 05:29:22.000,6.196,26.464,819.309870
7 Jan 2020 05:29:23.000,6.632,26.284,823.351588
7 Jan 2020 05:29:24.000,7.062,26.105,827.434451
7 Jan 2020 05:29:25.000,7.487,25.925,831.557846
7 Jan 2020 05:29:26.000,7.906,25.745,835.721170
7 Jan 2020 05:29:27.000,8.320,25.566,839.923823
7 Jan 2020 05:29:28.000,8.728,25.386,844.165211
7 Jan 2020 05:29:29.000,9.132,25.207,848.444749
7 Jan 2020 05:29:30.000,9.530,25.028,852.761855
7 Jan 2020 05:29:31.000,9.923,24.850,857.115959
7 Jan 2020 05:29:32.000,10.311,24.672,861.506492
7 Jan 2020 05:29:33.000,10.693,24.494,865.932895
7 Jan 2020 05:29:34.000,11.071,24.317,870.394615
7 Jan 2020 05:29:35.000,11.444,24.140,874.891105
7 Jan 2020 05:29:36.000,11.813,23.964,879.421828
7 Jan 2020 05:29:37.000,12.176,23.788,883.986250
7 Jan 2020 05:29:38.000,12.535,23.613,888.583845
7 Jan 2020 05:29:39.000,12.889,23.438,893.214098
7 Jan 2020 05:29:40.000,13.239,23.264,897.876495
7 Jan 2020 05:29:41.000,13.584,23.091,902.570534
7 Jan 2020 05:29:42.000,13.925,22.918,907.295716
7 Jan 2020 05:29:43.000,14.261,22.746,912.051553
7 Jan 2020 05:29:44.000,14.593,22.575,916.837559
7 Jan 2020 05:29:45.000,14.921,22.404,921.653260
7 Jan 2020 05:29:46.000,15.245,22.234,926.498187
7 Jan 2020 05:29:47.000,15.564,22.065,931.371876
7 Jan 2020 05:29:48.000,15.880,21.896,936.273875
7 Jan 2020 05:29:49.000,16.191,21.728,941.203731
7 Jan 2020 05:29:50.000,16.499,21.561,946.161005
7 Jan 2020 05:29:51.000,16.803,21.395,951.145262
7 Jan 2020 05:29:52.000,17.103,21.230,956.156073
7 Jan 2020 05:29:53.000,17.399,21.065,961.193016
7 Jan 2020 05:29:54.000,17.691,20.901,966.255678
7 Jan 2020 05:29:55.000,17.980,20.738,971.343648
7 Jan 2020 05:29:56.000,18.265,20.576,976.456525
7 Jan 2020 05:29:57.000,18.547,20.415,981.593915
7 Jan 2020 05:29:58.000,18.825,20.254,986.755425
7 Jan 2020 05:29:59.000,19.100,20.095,991.940674
7 Jan 2020 05:30:00.000,19.371,19.936,997.149286
7 Jan 2020 05:30:01.000,19.639,19.778,1002.380890
7 Jan 2020 05:30:02.000,19.904,19.621,1007.635119
7 Jan 2020 05:30:03.000,20.165,19.465,1012.911617
7 Jan 2020 05:30:04.000,20.424,19.310,1018.210029
7 Jan 2020 05:30:05.000,20.679,19.155,1023.530011
7 Jan 2020 05:30:06.000,20.931,19.002,1028.871219
7 Jan 2020 05:30:07.000,21.180,18.849,1034.233318
7 Jan 2020 05:30:08.000,21.426,18.697,1039.615978
7 Jan 2020 05:30:09.000,21.669,18.546,1045.018876
7 Jan 2020 05:30:10.000,21.910,18.396,1050.441693
7 Jan 2020 05:30:11.000,22.147,18.247,1055.884112
7 Jan 2020 05:30:12.000,22.382,18.098,1061.345828
7 Jan 2020 05:30:13.000,22.614,17.951,1066.826536
7 Jan 2020 05:30:14.000,22.843,17.804,1072.325938
7 Jan 2020 05:30:15.000,23.069,17.658,1077.843743
7 Jan 2020 05:30:16.000,23.293,17.513,1083.379662
7 Jan 2020 05:30:17.000,23.514,17.369,1088.933410
7 Jan 2020 05:30:18.000,23.733,17.226,1094.504711
7 Jan 2020 05:30:19.000,23.949,17.084,1100.093289
7 Jan 2020 05:30:20.000,24.163,16.942,1105.698878
7 Jan 2020 05:30:21.000,24.374,16.802,1111.321211
7 Jan 2020 05:30:22.000,24.583,16.662,1116.960030
7 Jan 2020 05:30:23.000,24.789,16.523,1122.615080
7 Jan 2020 05:30:24.000,24.993,16.385,1128.286107
7 Jan 2020 05:30:25.000,25.195,16.248,1133.972867
7 Jan 2020 05:30:26.000,25.395,16.111,1139.675116
7 Jan 2020 05:30:27.000,25.592,15.976,1145.392616
7 Jan 2020 05:30:28.000,25.787,15.841,1151.125132
7 Jan 2020 05:30:29.000,25.980,15.707,1156.872435
7 Jan 2020 05:30:30.000,26.171,15.574,1162.634298
7 Jan 2020 05:30:31.000,26.360,15.441,1168.410499
7 Jan 2020 05:30:32.000,26.547,15.310,1174.200818
7 Jan 2020 05:30:33.000,26.731,15.179,1180.005041
7 Jan 2020 05:30:34.000,26.914,15.049,1185.822958
7 Jan 2020 05:30:35.000,27.095,14.920,1191.654358
7 Jan 2020 05:30:36.000,27.273,14.791,1197.499038
7 Jan 2020 05:30:37.000,27.450,14.664,1203.356798
7 Jan 2020 05:30:38.000,27.625,14.537,1209.227441
7 Jan 2020 05:30:39.000,27.798,14.411,1215.110772
7 Jan 2020 05:30:40.000,27.970,14.285,1221.006600
7 Jan 2020 05:30:41.000,28.139,14.161,1226.914739
7 Jan 2020 05:30:42.000,28.307,14.037,1232.835004
7 Jan 2020 05:30:43.000,28.473,13.914,1238.767214
7 Jan 2020 05:30:44.000,28.637,13.791,1244.711190
7 Jan 2020 05:30:45.000,28.800,13.670,1250.666759
7 Jan 2020 05:30:46.000,28.960,13.549,1256.633746
7 Jan 2020 05:30:47.000,29.120,13.429,1262.611984
7 Jan 2020 05:30:48.000,29.277,13.309,1268.601306
7 Jan 2020 05:30:49.000,29.433,13.190,1274.601549
7 Jan 2020 05:30:50.000,29.587,13.072,1280.612550
7 Jan 2020 05:30:51.000,29.740,12.955,1286.634153
7 Jan 2020 05:30:52.000,29.892,12.838,1292.666202
7 Jan 2020 05:30:53.000,30.041,12.722,1298.708543
7 Jan 2020 05:30:54.000,30.190,12.607,1304.761027
7 Jan 2020 05:30:55.000,30.336,12.492,1310.823504
7 Jan 2020 05:30:56.000,30.482,12.378,1316.895831
7 Jan 2020 05:30:57.000,30.626,12.265,1322.977864
7 Jan 2020 05:30:58.000,30.768,12.152,1329.069461
7 Jan 2020 05:30:59.000,30.909,12.040,1335.170486
7 Jan 2020 05:31:00.000,31.049,11.929,1341.280801
7 Jan 2020 05:31:01.000,31.188,11.818,1347.400273
7 Jan 2020 05:31:02.000,31.325,11.708,1353.528769
7 Jan 2020 05:31:03.000,31.460,11.598,1359.666162
7 Jan 2020 05:31:04.000,31.595,11.489,1365.812322
7 Jan 2020 05:31:05.000,31.728,11.381,1371.967123
7 Jan 2020 05:31:06.000,31.860,11.273,1378.130446
7 Jan 2020 05:31:07.000,31.991,11.166,1384.302166
7 Jan 2020 05:31:08.000,32.120,11.060,1390.482165
7 Jan 2020 05:31:09.000,32.248,10.954,1396.670325
7 Jan 2020 05:31:10.000,32.375,10.848,1402.866531
7 Jan 2020 05:31:11.000,32.501,10.744,1409.070669
7 Jan 2020 05:31:12.000,32.626,10.639,1415.282627
7 Jan 2020 05:31:13.000,32.750,10.536,1421.502294
7 Jan 2020 05:31:14.000,32.872,10.433,1427.729564
7 Jan 2020 05:31:15.000,32.993,10.330,1433.964328
7 Jan 2020 05:31:16.000,33.114,10.228,1440.206482
7 Jan 2020 05:31:17.000,33.233,10.127,1446.455923
7 Jan 2020 05:31:18.000,33.351,10.026,1452.712549
7 Jan 2020 05:31:19.000,33.468,9.926,1458.976258
7 Jan 2020 05:31:20.000,33.584,9.826,1465.246955
7 Jan 2020 05:31:21.000,33.699,9.727,1471.524541
7 Jan 2020 05:31:22.000,33.813,9.628,1477.808922
7 Jan 2020 05:31:23.000,33.926,9.530,1484.100003
7 Jan 2020 05:31:24.000,34.037,9.432,1490.397691
7 Jan 2020 05:31:25.000,34.148,9.335,1496.701896
7 Jan 2020 05:31:26.000,34.258,9.239,1503.012527
7 Jan 2020 05:31:27.000,34.367,9.142,1509.329497
7 Jan 2020 05:31:28.000,34.476,9.047,1515.652719
7 Jan 2020 05:31:29.000,34.583,8.952,1521.982104
7 Jan 2020 05:31:30.000,34.689,8.857,1528.317573
7 Jan 2020 05:31:31.000,34.794,8.763,1534.659041
7 Jan 2020 05:31:32.000,34.899,8.669,1541.006426
7 Jan 2020 05:31:33.000,35.002,8.576,1547.359646
7 Jan 2020 05:31:34.000,35.105,8.483,1553.718624
7 Jan 2020 05:31:35.000,35.207,8.390,1560.083280
7 Jan 2020 05:31:36.000,35.308,8.299,1566.453539
7 Jan 2020 05:31:37.000,35.408,8.207,1572.829323
7 Jan 2020 05:31:38.000,35.507,8.116,1579.210557
7 Jan 2020 05:31:39.000,35.606,8.026,1585.597170
7 Jan 2020 05:31:40.000,35.704,7.935,1591.989089
7 Jan 2020 05:31:41.000,35.800,7.846,1598.386242
7 Jan 2020 05:31:42.000,35.897,7.757,1604.788559
7 Jan 2020 05:31:43.000,35.992,7.668,1611.195969
7 Jan 2020 05:31:44.000,36.087,7.579,1617.608406
7 Jan 2020 05:31:45.000,36.180,7.491,1624.025799
7 Jan 2020 05:31:46.000,36.273,7.404,1630.448086
7 Jan 2020 05:31:47.000,36.366,7.317,1636.875200
7 Jan 2020 05:31:48.000,36.457,7.230,1643.307077
7 Jan 2020 05:31:49.000,36.548,7.144,1649.743652
7 Jan 2020 05:31:50.000,36.638,7.058,1656.184864
7 Jan 2020 05:31:51.000,36.728,6.972,1662.630651
7 Jan 2020 05:31:52.000,36.817,6.887,1669.080949
7 Jan 2020 05:31:53.000,36.905,6.802,1675.535703
7 Jan 2020 05:31:54.000,36.992,6.718,1681.994852
7 Jan 2020 05:31:55.000,37.079,6.634,1688.458338
7 Jan 2020 05:31:56.000,37.165,6.550,1694.926102
7 Jan 2020 05:31:57.000,37.250,6.467,1701.398090
7 Jan 2020 05:31:58.000,37.335,6.384,1707.874241
7 Jan 2020 05:31:59.000,37.419,6.301,1714.354506
7 Jan 2020 05:32:00.000,37.502,6.219,1720.838829
7 Jan 2020 05:32:01.000,37.585,6.137,1727.327155
7 Jan 2020 05:32:02.000,37.667,6.056,1733.819432
7 Jan 2020 05:32:03.000,37.749,5.975,1740.315608
7 Jan 2020 05:32:04.000,37.830,5.894,1746.815631
7 Jan 2020 05:32:05.000,37.910,5.814,1753.319449
7 Jan 2020 05:32:06.000,37.990,5.734,1759.827016
7 Jan 2020 05:32:07.000,38.069,5.654,1766.338281
7 Jan 2020 05:32:08.000,38.148,5.575,1772.853194
7 Jan 2020 05:32:09.000,38.226,5.496,1779.371709
7 Jan 2020 05:32:10.000,38.304,5.417,1785.893775
7 Jan 2020 05:32:11.000,38.381,5.338,1792.419350
7 Jan 2020 05:32:12.000,38.457,5.260,1798.948386
7 Jan 2020 05:32:13.000,38.533,5.183,1805.480837
7 Jan 2020 05:32:14.000,38.608,5.105,1812.016660
7 Jan 2020 05:32:15.000,38.683,5.028,1818.555809
7 Jan 2020 05:32:16.000,38.757,4.951,1825.098238
7 Jan 2020 05:32:17.000,38.831,4.875,1831.643909
7 Jan 2020 05:32:18.000,38.904,4.799,1838.192777
7 Jan 2020 05:32:19.000,38.977,4.723,1844.744801
7 Jan 2020 05:32:20.000,39.049,4.647,1851.299938
7 Jan 2020 05:32:21.000,39.121,4.572,1857.858146
7 Jan 2020 05:32:22.000,39.192,4.497,1864.419389
7 Jan 2020 05:32:23.000,39.262,4.422,1870.983625
7 Jan 2020 05:32:24.000,39.333,4.348,1877.550814
7 Jan 2020 05:32:25.000,39.402,4.274,1884.120918
7 Jan 2020 05:32:26.000,39.472,4.200,1890.693899
7 Jan 2020 05:32:27.000,39.540,4.126,1897.269715
7 Jan 2020 05:32:28.000,39.609,4.053,1903.848335
7 Jan 2020 05:32:29.000,39.677,3.980,1910.429719
7 Jan 2020 05:32:30.000,39.744,3.907,1917.013831
7 Jan 2020 05:32:31.000,39.811,3.835,1923.600635
7 Jan 2020 05:32:32.000,39.877,3.763,1930.190093
7 Jan 2020 05:32:33.000,39.943,3.691,1936.782175
7 Jan 2020 05:32:34.000,40.009,3.619,1943.376844
7 Jan 2020 05:32:35.000,40.074,3.548,1949.974065
7 Jan 2020 05:32:36.000,40.139,3.476,1956.573805
7 Jan 2020 05:32:37.000,40.203,3.406,1963.176028
7 Jan 2020 05:32:38.000,40.267,3.335,1969.780706
7 Jan 2020 05:32:39.000,40.331,3.265,1976.387804
7 Jan 2020 05:32:40.000,40.394,3.194,1982.997289
7 Jan 2020 05:32:41.000,40.457,3.125,1989.609131
7 Jan 2020 05:32:42.000,40.519,3.055,1996.223295
7 Jan 2020 05:32:43.000,40.581,2.986,2002.839755
7 Jan 2020 05:32:44.000,40.642,2.916,2009.458478
7 Jan 2020 05:32:45.000,40.703,2.848,2016.079434
7 Jan 2020 05:32:46.000,40.764,2.779,2022.702593
7 Jan 2020 05:32:47.000,40.825,2.710,2029.327923
7 Jan 2020 05:32:48.000,40.884,2.642,2035.955399
7 Jan 2020 05:32:49.000,40.944,2.574,2042.584991
7 Jan 2020 05:32:50.000,41.003,2.507,2049.216669
7 Jan 2020 05:32:51.000,41.062,2.439,2055.850404
7 Jan 2020 05:32:52.000,41.121,2.372,2062.486172
7 Jan 2020 05:32:53.000,41.179,2.305,2069.123943
7 Jan 2020 05:32:54.000,41.237,2.238,2075.763690
7 Jan 2020 05:32:55.000,41.294,2.171,2082.405387
7 Jan 2020 05:32:56.000,41.351,2.105,2089.049003
7 Jan 2020 05:32:57.000,41.408,2.039,2095.694519
7 Jan 2020 05:32:58.000,41.464,1.973,2102.341904
7 Jan 2020 05:32:59.000,41.520,1.907,2108.991135
7 Jan 2020 05:33:00.000,41.576,1.841,2115.642185
7 Jan 2020 05:33:01.000,41.631,1.776,2122.295026
7 Jan 2020 05:33:02.000,41.686,1.711,2128.949639
7 Jan 2020 05:33:03.000,41.741,1.646,2135.605998
7 Jan 2020 05:33:04.000,41.796,1.581,2142.264076
7 Jan 2020 05:33:05.000,41.850,1.517,2148.923849
7 Jan 2020 05:33:06.000,41.904,1.452,2155.585297
7 Jan 2020 05:33:07.000,41.957,1.388,2162.248395
7 Jan 2020 05:33:08.000,42.010,1.324,2168.913119
7 Jan 2020 05:33:09.000,42.063,1.261,2175.579446
7 Jan 2020 05:33:10.000,42.116,1.197,2182.247351
7 Jan 2020 05:33:11.000,42.168,1.134,2188.916817
7 Jan 2020 05:33:12.000,42.220,1.070,2195.587818
