vcc_sched/network/input/aer_vtgs_wj2xms_vcc-b_44431.csv

"Time (UTCG)","Azimuth (deg)","Elevation (deg)","Range (km)"
3 Feb 2020 16:58:51.745,191.191,-0.055,2309.288905
3 Feb 2020 16:58:52.000,191.168,-0.042,2307.735427
3 Feb 2020 16:58:53.000,191.081,0.013,2301.646505
3 Feb 2020 16:58:54.000,190.993,0.068,2295.562508
3 Feb 2020 16:58:55.000,190.905,0.124,2289.483483
3 Feb 2020 16:58:56.000,190.816,0.179,2283.409478
3 Feb 2020 16:58:57.000,190.726,0.234,2277.340541
3 Feb 2020 16:58:58.000,190.637,0.290,2271.276719
3 Feb 2020 16:58:59.000,190.546,0.345,2265.218062
3 Feb 2020 16:59:00.000,190.455,0.401,2259.164618
3 Feb 2020 16:59:01.000,190.364,0.456,2253.116438
3 Feb 2020 16:59:02.000,190.272,0.512,2247.073571
3 Feb 2020 16:59:03.000,190.180,0.568,2241.036068
3 Feb 2020 16:59:04.000,190.087,0.624,2235.003979
3 Feb 2020 16:59:05.000,189.994,0.680,2228.977358
3 Feb 2020 16:59:06.000,189.900,0.737,2222.956255
3 Feb 2020 16:59:07.000,189.805,0.793,2216.940723
3 Feb 2020 16:59:08.000,189.710,0.850,2210.930815
3 Feb 2020 16:59:09.000,189.615,0.906,2204.926584
3 Feb 2020 16:59:10.000,189.519,0.963,2198.928086
3 Feb 2020 16:59:11.000,189.423,1.020,2192.935374
3 Feb 2020 16:59:12.000,189.326,1.077,2186.948503
3 Feb 2020 16:59:13.000,189.228,1.134,2180.967530
3 Feb 2020 16:59:14.000,189.130,1.191,2174.992509
3 Feb 2020 16:59:15.000,189.031,1.248,2169.023499
3 Feb 2020 16:59:16.000,188.932,1.305,2163.060556
3 Feb 2020 16:59:17.000,188.832,1.363,2157.103738
3 Feb 2020 16:59:18.000,188.732,1.421,2151.153103
3 Feb 2020 16:59:19.000,188.631,1.478,2145.208711
3 Feb 2020 16:59:20.000,188.529,1.536,2139.270621
3 Feb 2020 16:59:21.000,188.427,1.594,2133.338893
3 Feb 2020 16:59:22.000,188.324,1.652,2127.413588
3 Feb 2020 16:59:23.000,188.221,1.710,2121.494767
3 Feb 2020 16:59:24.000,188.117,1.768,2115.582492
3 Feb 2020 16:59:25.000,188.013,1.827,2109.676825
3 Feb 2020 16:59:26.000,187.908,1.885,2103.777829
3 Feb 2020 16:59:27.000,187.802,1.944,2097.885569
3 Feb 2020 16:59:28.000,187.696,2.003,2092.000109
3 Feb 2020 16:59:29.000,187.589,2.061,2086.121513
3 Feb 2020 16:59:30.000,187.481,2.120,2080.249847
3 Feb 2020 16:59:31.000,187.373,2.179,2074.385178
3 Feb 2020 16:59:32.000,187.265,2.239,2068.527572
3 Feb 2020 16:59:33.000,187.155,2.298,2062.677097
3 Feb 2020 16:59:34.000,187.045,2.357,2056.833821
3 Feb 2020 16:59:35.000,186.934,2.417,2050.997814
3 Feb 2020 16:59:36.000,186.823,2.477,2045.169144
3 Feb 2020 16:59:37.000,186.711,2.536,2039.347881
3 Feb 2020 16:59:38.000,186.599,2.596,2033.534098
3 Feb 2020 16:59:39.000,186.485,2.656,2027.727866
3 Feb 2020 16:59:40.000,186.371,2.716,2021.929256
3 Feb 2020 16:59:41.000,186.257,2.777,2016.138343
3 Feb 2020 16:59:42.000,186.141,2.837,2010.355200
3 Feb 2020 16:59:43.000,186.025,2.898,2004.579901
3 Feb 2020 16:59:44.000,185.909,2.958,1998.812522
3 Feb 2020 16:59:45.000,185.791,3.019,1993.053139
3 Feb 2020 16:59:46.000,185.673,3.080,1987.301828
3 Feb 2020 16:59:47.000,185.554,3.141,1981.558668
3 Feb 2020 16:59:48.000,185.435,3.202,1975.823736
3 Feb 2020 16:59:49.000,185.314,3.263,1970.097112
3 Feb 2020 16:59:50.000,185.193,3.324,1964.378876
3 Feb 2020 16:59:51.000,185.072,3.386,1958.669108
3 Feb 2020 16:59:52.000,184.949,3.447,1952.967890
3 Feb 2020 16:59:53.000,184.826,3.509,1947.275304
3 Feb 2020 16:59:54.000,184.702,3.571,1941.591434
3 Feb 2020 16:59:55.000,184.578,3.633,1935.916362
3 Feb 2020 16:59:56.000,184.452,3.695,1930.250175
3 Feb 2020 16:59:57.000,184.326,3.757,1924.592958
3 Feb 2020 16:59:58.000,184.199,3.819,1918.944796
3 Feb 2020 16:59:59.000,184.071,3.882,1913.305779
3 Feb 2020 17:00:00.000,183.943,3.944,1907.675993
3 Feb 2020 17:00:01.000,183.813,4.007,1902.055528
3 Feb 2020 17:00:02.000,183.683,4.070,1896.444475
3 Feb 2020 17:00:03.000,183.552,4.133,1890.842923
3 Feb 2020 17:00:04.000,183.420,4.196,1885.250965
3 Feb 2020 17:00:05.000,183.288,4.259,1879.668693
3 Feb 2020 17:00:06.000,183.155,4.322,1874.096201
3 Feb 2020 17:00:07.000,183.020,4.385,1868.533584
3 Feb 2020 17:00:08.000,182.885,4.449,1862.980938
3 Feb 2020 17:00:09.000,182.750,4.513,1857.438358
3 Feb 2020 17:00:10.000,182.613,4.576,1851.905942
3 Feb 2020 17:00:11.000,182.475,4.640,1846.383789
3 Feb 2020 17:00:12.000,182.337,4.704,1840.871998
3 Feb 2020 17:00:13.000,182.198,4.768,1835.370669
3 Feb 2020 17:00:14.000,182.057,4.833,1829.879903
3 Feb 2020 17:00:15.000,181.916,4.897,1824.399804
3 Feb 2020 17:00:16.000,181.774,4.961,1818.930474
3 Feb 2020 17:00:17.000,181.632,5.026,1813.472018
3 Feb 2020 17:00:18.000,181.488,5.091,1808.024541
3 Feb 2020 17:00:19.000,181.343,5.155,1802.588150
3 Feb 2020 17:00:20.000,181.198,5.220,1797.162952
3 Feb 2020 17:00:21.000,181.051,5.285,1791.749056
3 Feb 2020 17:00:22.000,180.904,5.351,1786.346572
3 Feb 2020 17:00:23.000,180.755,5.416,1780.955610
3 Feb 2020 17:00:24.000,180.606,5.481,1775.576282
3 Feb 2020 17:00:25.000,180.456,5.547,1770.208701
3 Feb 2020 17:00:26.000,180.305,5.612,1764.852981
3 Feb 2020 17:00:27.000,180.153,5.678,1759.509238
3 Feb 2020 17:00:28.000,180.000,5.744,1754.177587
3 Feb 2020 17:00:29.000,179.846,5.810,1748.858146
3 Feb 2020 17:00:30.000,179.690,5.876,1743.551033
3 Feb 2020 17:00:31.000,179.534,5.942,1738.256369
3 Feb 2020 17:00:32.000,179.377,6.008,1732.974273
3 Feb 2020 17:00:33.000,179.219,6.075,1727.704869
3 Feb 2020 17:00:34.000,179.060,6.141,1722.448280
3 Feb 2020 17:00:35.000,178.900,6.208,1717.204628
3 Feb 2020 17:00:36.000,178.739,6.275,1711.974042
3 Feb 2020 17:00:37.000,178.577,6.342,1706.756646
3 Feb 2020 17:00:38.000,178.413,6.408,1701.552570
3 Feb 2020 17:00:39.000,178.249,6.475,1696.361942
3 Feb 2020 17:00:40.000,178.084,6.543,1691.184893
3 Feb 2020 17:00:41.000,177.917,6.610,1686.021555
3 Feb 2020 17:00:42.000,177.750,6.677,1680.872060
3 Feb 2020 17:00:43.000,177.581,6.745,1675.736543
3 Feb 2020 17:00:44.000,177.412,6.812,1670.615140
3 Feb 2020 17:00:45.000,177.241,6.880,1665.507987
3 Feb 2020 17:00:46.000,177.069,6.947,1660.415222
3 Feb 2020 17:00:47.000,176.896,7.015,1655.336984
3 Feb 2020 17:00:48.000,176.722,7.083,1650.273415
3 Feb 2020 17:00:49.000,176.547,7.151,1645.224656
3 Feb 2020 17:00:50.000,176.370,7.219,1640.190850
3 Feb 2020 17:00:51.000,176.193,7.287,1635.172142
3 Feb 2020 17:00:52.000,176.014,7.355,1630.168678
3 Feb 2020 17:00:53.000,175.834,7.424,1625.180606
3 Feb 2020 17:00:54.000,175.653,7.492,1620.208073
3 Feb 2020 17:00:55.000,175.471,7.561,1615.251229
3 Feb 2020 17:00:56.000,175.287,7.629,1610.310227
3 Feb 2020 17:00:57.000,175.103,7.698,1605.385218
3 Feb 2020 17:00:58.000,174.917,7.766,1600.476356
3 Feb 2020 17:00:59.000,174.730,7.835,1595.583798
3 Feb 2020 17:01:00.000,174.542,7.904,1590.707699
3 Feb 2020 17:01:01.000,174.352,7.973,1585.848218
3 Feb 2020 17:01:02.000,174.162,8.042,1581.005514
3 Feb 2020 17:01:03.000,173.970,8.111,1576.179749
3 Feb 2020 17:01:04.000,173.776,8.180,1571.371084
3 Feb 2020 17:01:05.000,173.582,8.249,1566.579683
3 Feb 2020 17:01:06.000,173.386,8.318,1561.805712
3 Feb 2020 17:01:07.000,173.189,8.387,1557.049336
3 Feb 2020 17:01:08.000,172.991,8.457,1552.310724
3 Feb 2020 17:01:09.000,172.791,8.526,1547.590045
3 Feb 2020 17:01:10.000,172.590,8.595,1542.887470
3 Feb 2020 17:01:11.000,172.388,8.664,1538.203171
3 Feb 2020 17:01:12.000,172.184,8.734,1533.537321
3 Feb 2020 17:01:13.000,171.980,8.803,1528.890095
3 Feb 2020 17:01:14.000,171.773,8.873,1524.261671
3 Feb 2020 17:01:15.000,171.566,8.942,1519.652225
3 Feb 2020 17:01:16.000,171.357,9.012,1515.061937
3 Feb 2020 17:01:17.000,171.147,9.081,1510.490987
3 Feb 2020 17:01:18.000,170.935,9.151,1505.939558
3 Feb 2020 17:01:19.000,170.722,9.220,1501.407832
3 Feb 2020 17:01:20.000,170.508,9.290,1496.895996
3 Feb 2020 17:01:21.000,170.292,9.359,1492.404235
3 Feb 2020 17:01:22.000,170.075,9.429,1487.932736
3 Feb 2020 17:01:23.000,169.856,9.498,1483.481689
3 Feb 2020 17:01:24.000,169.636,9.568,1479.051285
3 Feb 2020 17:01:25.000,169.415,9.637,1474.641714
3 Feb 2020 17:01:26.000,169.192,9.707,1470.253172
3 Feb 2020 17:01:27.000,168.968,9.776,1465.885850
3 Feb 2020 17:01:28.000,168.742,9.846,1461.539948
3 Feb 2020 17:01:29.000,168.515,9.915,1457.215659
3 Feb 2020 17:01:30.000,168.286,9.985,1452.913186
3 Feb 2020 17:01:31.000,168.056,10.054,1448.632725
3 Feb 2020 17:01:32.000,167.824,10.123,1444.374480
3 Feb 2020 17:01:33.000,167.591,10.192,1440.138653
3 Feb 2020 17:01:34.000,167.357,10.261,1435.925447
3 Feb 2020 17:01:35.000,167.121,10.330,1431.735069
3 Feb 2020 17:01:36.000,166.883,10.399,1427.567724
3 Feb 2020 17:01:37.000,166.644,10.468,1423.423621
3 Feb 2020 17:01:38.000,166.404,10.537,1419.302968
3 Feb 2020 17:01:39.000,166.162,10.606,1415.205976
3 Feb 2020 17:01:40.000,165.918,10.675,1411.132857
3 Feb 2020 17:01:41.000,165.673,10.743,1407.083821
3 Feb 2020 17:01:42.000,165.426,10.812,1403.059084
3 Feb 2020 17:01:43.000,165.178,10.880,1399.058862
3 Feb 2020 17:01:44.000,164.928,10.948,1395.083369
3 Feb 2020 17:01:45.000,164.677,11.016,1391.132824
3 Feb 2020 17:01:46.000,164.424,11.084,1387.207444
3 Feb 2020 17:01:47.000,164.170,11.152,1383.307449
3 Feb 2020 17:01:48.000,163.914,11.220,1379.433059
3 Feb 2020 17:01:49.000,163.656,11.287,1375.584498
3 Feb 2020 17:01:50.000,163.397,11.354,1371.761984
3 Feb 2020 17:01:51.000,163.137,11.422,1367.965744
3 Feb 2020 17:01:52.000,162.874,11.489,1364.196001
3 Feb 2020 17:01:53.000,162.611,11.555,1360.452982
3 Feb 2020 17:01:54.000,162.345,11.622,1356.736910
3 Feb 2020 17:01:55.000,162.078,11.688,1353.048015
3 Feb 2020 17:01:56.000,161.809,11.755,1349.386523
3 Feb 2020 17:01:57.000,161.539,11.821,1345.752663
3 Feb 2020 17:01:58.000,161.267,11.886,1342.146665
3 Feb 2020 17:01:59.000,160.994,11.952,1338.568758
3 Feb 2020 17:02:00.000,160.719,12.017,1335.019174
3 Feb 2020 17:02:01.000,160.442,12.082,1331.498142
3 Feb 2020 17:02:02.000,160.164,12.147,1328.005896
3 Feb 2020 17:02:03.000,159.884,12.212,1324.542669
3 Feb 2020 17:02:04.000,159.603,12.276,1321.108691
3 Feb 2020 17:02:05.000,159.320,12.340,1317.704197
3 Feb 2020 17:02:06.000,159.035,12.404,1314.329420
3 Feb 2020 17:02:07.000,158.749,12.467,1310.984595
3 Feb 2020 17:02:08.000,158.461,12.530,1307.669956
3 Feb 2020 17:02:09.000,158.172,12.593,1304.385738
3 Feb 2020 17:02:10.000,157.880,12.655,1301.132175
3 Feb 2020 17:02:11.000,157.588,12.717,1297.909503
3 Feb 2020 17:02:12.000,157.293,12.779,1294.717956
3 Feb 2020 17:02:13.000,156.998,12.840,1291.557770
3 Feb 2020 17:02:14.000,156.700,12.901,1288.429178
3 Feb 2020 17:02:15.000,156.401,12.962,1285.332418
3 Feb 2020 17:02:16.000,156.100,13.022,1282.267723
3 Feb 2020 17:02:17.000,155.798,13.082,1279.235328
3 Feb 2020 17:02:18.000,155.494,13.142,1276.235467
3 Feb 2020 17:02:19.000,155.189,13.201,1273.268375
3 Feb 2020 17:02:20.000,154.882,13.259,1270.334285
3 Feb 2020 17:02:21.000,154.573,13.317,1267.433431
3 Feb 2020 17:02:22.000,154.263,13.375,1264.566045
3 Feb 2020 17:02:23.000,153.951,13.432,1261.732359
3 Feb 2020 17:02:24.000,153.638,13.489,1258.932605
3 Feb 2020 17:02:25.000,153.323,13.545,1256.167014
3 Feb 2020 17:02:26.000,153.007,13.601,1253.435813
3 Feb 2020 17:02:27.000,152.689,13.656,1250.739236
3 Feb 2020 17:02:28.000,152.369,13.711,1248.077509
3 Feb 2020 17:02:29.000,152.048,13.765,1245.450859
3 Feb 2020 17:02:30.000,151.726,13.819,1242.859512
3 Feb 2020 17:02:31.000,151.402,13.872,1240.303693
3 Feb 2020 17:02:32.000,151.077,13.925,1237.783626
3 Feb 2020 17:02:33.000,150.750,13.977,1235.299533
3 Feb 2020 17:02:34.000,150.421,14.028,1232.851633
3 Feb 2020 17:02:35.000,150.091,14.079,1230.440150
3 Feb 2020 17:02:36.000,149.760,14.129,1228.065299
3 Feb 2020 17:02:37.000,149.427,14.179,1225.727297
3 Feb 2020 17:02:38.000,149.093,14.228,1223.426358
3 Feb 2020 17:02:39.000,148.758,14.276,1221.162693
3 Feb 2020 17:02:40.000,148.421,14.324,1218.936518
3 Feb 2020 17:02:41.000,148.083,14.371,1216.748039
3 Feb 2020 17:02:42.000,147.743,14.418,1214.597460
3 Feb 2020 17:02:43.000,147.402,14.463,1212.484992
3 Feb 2020 17:02:44.000,147.060,14.508,1210.410834
3 Feb 2020 17:02:45.000,146.716,14.553,1208.375186
3 Feb 2020 17:02:46.000,146.371,14.596,1206.378246
3 Feb 2020 17:02:47.000,146.025,14.639,1204.420211
3 Feb 2020 17:02:48.000,145.678,14.681,1202.501274
3 Feb 2020 17:02:49.000,145.329,14.723,1200.621622
3 Feb 2020 17:02:50.000,144.979,14.764,1198.781447
3 Feb 2020 17:02:51.000,144.628,14.803,1196.980929
3 Feb 2020 17:02:52.000,144.276,14.843,1195.220256
3 Feb 2020 17:02:53.000,143.922,14.881,1193.499603
3 Feb 2020 17:02:54.000,143.568,14.918,1191.819145
3 Feb 2020 17:02:55.000,143.212,14.955,1190.179058
3 Feb 2020 17:02:56.000,142.855,14.991,1188.579508
3 Feb 2020 17:02:57.000,142.497,15.026,1187.020666
3 Feb 2020 17:02:58.000,142.138,15.061,1185.502690
3 Feb 2020 17:02:59.000,141.778,15.094,1184.025744
3 Feb 2020 17:03:00.000,141.418,15.127,1182.589981
3 Feb 2020 17:03:01.000,141.056,15.158,1181.195555
3 Feb 2020 17:03:02.000,140.693,15.189,1179.842613
3 Feb 2020 17:03:03.000,140.329,15.219,1178.531304
3 Feb 2020 17:03:04.000,139.964,15.248,1177.261763
3 Feb 2020 17:03:05.000,139.599,15.276,1176.034134
3 Feb 2020 17:03:06.000,139.232,15.304,1174.848545
3 Feb 2020 17:03:07.000,138.865,15.330,1173.705127
3 Feb 2020 17:03:08.000,138.497,15.356,1172.604009
3 Feb 2020 17:03:09.000,138.128,15.380,1171.545306
3 Feb 2020 17:03:10.000,137.758,15.404,1170.529139
3 Feb 2020 17:03:11.000,137.388,15.426,1169.555621
3 Feb 2020 17:03:12.000,137.017,15.448,1168.624857
3 Feb 2020 17:03:13.000,136.645,15.469,1167.736952
3 Feb 2020 17:03:14.000,136.273,15.489,1166.892010
3 Feb 2020 17:03:15.000,135.900,15.508,1166.090119
3 Feb 2020 17:03:16.000,135.527,15.526,1165.331373
3 Feb 2020 17:03:17.000,135.153,15.542,1164.615857
3 Feb 2020 17:03:18.000,134.778,15.558,1163.943655
3 Feb 2020 17:03:19.000,134.403,15.573,1163.314838
3 Feb 2020 17:03:20.000,134.028,15.587,1162.729481
3 Feb 2020 17:03:21.000,133.652,15.600,1162.187651
3 Feb 2020 17:03:22.000,133.276,15.612,1161.689409
3 Feb 2020 17:03:23.000,132.899,15.623,1161.234816
3 Feb 2020 17:03:24.000,132.522,15.633,1160.823919
3 Feb 2020 17:03:25.000,132.145,15.642,1160.456767
3 Feb 2020 17:03:26.000,131.768,15.650,1160.133403
3 Feb 2020 17:03:27.000,131.390,15.657,1159.853866
3 Feb 2020 17:03:28.000,131.012,15.663,1159.618186
3 Feb 2020 17:03:29.000,130.634,15.668,1159.426393
3 Feb 2020 17:03:30.000,130.256,15.672,1159.278508
3 Feb 2020 17:03:31.000,129.878,15.675,1159.174549
3 Feb 2020 17:03:32.000,129.499,15.676,1159.114529
3 Feb 2020 17:03:33.000,129.121,15.677,1159.098454
3 Feb 2020 17:03:34.000,128.743,15.677,1159.126329
3 Feb 2020 17:03:35.000,128.364,15.676,1159.198148
3 Feb 2020 17:03:36.000,127.986,15.674,1159.313906
3 Feb 2020 17:03:37.000,127.608,15.670,1159.473589
3 Feb 2020 17:03:38.000,127.230,15.666,1159.677179
3 Feb 2020 17:03:39.000,126.852,15.661,1159.924654
3 Feb 2020 17:03:40.000,126.474,15.655,1160.215986
3 Feb 2020 17:03:41.000,126.097,15.647,1160.551142
3 Feb 2020 17:03:42.000,125.720,15.639,1160.930084
3 Feb 2020 17:03:43.000,125.343,15.630,1161.352769
3 Feb 2020 17:03:44.000,124.966,15.619,1161.819150
3 Feb 2020 17:03:45.000,124.590,15.608,1162.329171
3 Feb 2020 17:03:46.000,124.214,15.596,1162.882780
3 Feb 2020 17:03:47.000,123.839,15.582,1163.479913
3 Feb 2020 17:03:48.000,123.464,15.568,1164.120502
3 Feb 2020 17:03:49.000,123.090,15.553,1164.804474
3 Feb 2020 17:03:50.000,122.716,15.536,1165.531752
3 Feb 2020 17:03:51.000,122.342,15.519,1166.302258
3 Feb 2020 17:03:52.000,121.970,15.501,1167.115904
3 Feb 2020 17:03:53.000,121.598,15.482,1167.972600
3 Feb 2020 17:03:54.000,121.226,15.462,1168.872247
3 Feb 2020 17:03:55.000,120.855,15.440,1169.814752
3 Feb 2020 17:03:56.000,120.485,15.418,1170.800008
3 Feb 2020 17:03:57.000,120.115,15.395,1171.827902
3 Feb 2020 17:03:58.000,119.747,15.371,1172.898329
3 Feb 2020 17:03:59.000,119.379,15.347,1174.011168
3 Feb 2020 17:04:00.000,119.012,15.321,1175.166295
3 Feb 2020 17:04:01.000,118.645,15.294,1176.363591
3 Feb 2020 17:04:02.000,118.280,15.267,1177.602919
3 Feb 2020 17:04:03.000,117.915,15.238,1178.884153
3 Feb 2020 17:04:04.000,117.552,15.209,1180.207152
3 Feb 2020 17:04:05.000,117.189,15.179,1181.571771
3 Feb 2020 17:04:06.000,116.827,15.147,1182.977872
3 Feb 2020 17:04:07.000,116.466,15.115,1184.425300
3 Feb 2020 17:04:08.000,116.106,15.083,1185.913907
3 Feb 2020 17:04:09.000,115.748,15.049,1187.443532
3 Feb 2020 17:04:10.000,115.390,15.014,1189.014022
3 Feb 2020 17:04:11.000,115.033,14.979,1190.625206
3 Feb 2020 17:04:12.000,114.678,14.943,1192.276926
3 Feb 2020 17:04:13.000,114.324,14.906,1193.969004
3 Feb 2020 17:04:14.000,113.970,14.868,1195.701272
3 Feb 2020 17:04:15.000,113.618,14.830,1197.473556
3 Feb 2020 17:04:16.000,113.267,14.790,1199.285671
3 Feb 2020 17:04:17.000,112.918,14.750,1201.137442
3 Feb 2020 17:04:18.000,112.569,14.709,1203.028677
3 Feb 2020 17:04:19.000,112.222,14.668,1204.959192
3 Feb 2020 17:04:20.000,111.876,14.626,1206.928800
3 Feb 2020 17:04:21.000,111.531,14.583,1208.937301
3 Feb 2020 17:04:22.000,111.188,14.539,1210.984503
3 Feb 2020 17:04:23.000,110.846,14.494,1213.070212
3 Feb 2020 17:04:24.000,110.505,14.449,1215.194221
3 Feb 2020 17:04:25.000,110.166,14.403,1217.356331
3 Feb 2020 17:04:26.000,109.828,14.357,1219.556339
3 Feb 2020 17:04:27.000,109.491,14.310,1221.794033
3 Feb 2020 17:04:28.000,109.156,14.262,1224.069208
3 Feb 2020 17:04:29.000,108.822,14.213,1226.381652
3 Feb 2020 17:04:30.000,108.490,14.164,1228.731155
3 Feb 2020 17:04:31.000,108.159,14.115,1231.117498
3 Feb 2020 17:04:32.000,107.829,14.064,1233.540466
3 Feb 2020 17:04:33.000,107.501,14.013,1235.999843
3 Feb 2020 17:04:34.000,107.175,13.962,1238.495408
3 Feb 2020 17:04:35.000,106.849,13.910,1241.026941
3 Feb 2020 17:04:36.000,106.526,13.857,1243.594224
3 Feb 2020 17:04:37.000,106.204,13.804,1246.197025
3 Feb 2020 17:04:38.000,105.883,13.750,1248.835124
3 Feb 2020 17:04:39.000,105.564,13.696,1251.508294
3 Feb 2020 17:04:40.000,105.246,13.641,1254.216310
3 Feb 2020 17:04:41.000,104.930,13.586,1256.958941
3 Feb 2020 17:04:42.000,104.616,13.530,1259.735961
3 Feb 2020 17:04:43.000,104.303,13.474,1262.547139
3 Feb 2020 17:04:44.000,103.991,13.417,1265.392244
3 Feb 2020 17:04:45.000,103.682,13.360,1268.271045
3 Feb 2020 17:04:46.000,103.373,13.303,1271.183311
3 Feb 2020 17:04:47.000,103.067,13.245,1274.128809
3 Feb 2020 17:04:48.000,102.762,13.186,1277.107305
3 Feb 2020 17:04:49.000,102.458,13.127,1280.118567
3 Feb 2020 17:04:50.000,102.156,13.068,1283.162360
3 Feb 2020 17:04:51.000,101.856,13.008,1286.238451
3 Feb 2020 17:04:52.000,101.557,12.948,1289.346605
3 Feb 2020 17:04:53.000,101.260,12.887,1292.486588
3 Feb 2020 17:04:54.000,100.964,12.826,1295.658164
3 Feb 2020 17:04:55.000,100.670,12.765,1298.861100
3 Feb 2020 17:04:56.000,100.378,12.704,1302.095159
3 Feb 2020 17:04:57.000,100.087,12.642,1305.360109
3 Feb 2020 17:04:58.000,99.798,12.579,1308.655713
3 Feb 2020 17:04:59.000,99.511,12.517,1311.981737
3 Feb 2020 17:05:00.000,99.225,12.454,1315.337948
3 Feb 2020 17:05:01.000,98.941,12.391,1318.724110
3 Feb 2020 17:05:02.000,98.658,12.327,1322.139991
3 Feb 2020 17:05:03.000,98.377,12.263,1325.585353
3 Feb 2020 17:05:04.000,98.098,12.199,1329.059971
3 Feb 2020 17:05:05.000,97.820,12.135,1332.563608
3 Feb 2020 17:05:06.000,97.544,12.070,1336.096033
3 Feb 2020 17:05:07.000,97.269,12.005,1339.657013
3 Feb 2020 17:05:08.000,96.996,11.940,1343.246318
3 Feb 2020 17:05:09.000,96.725,11.875,1346.863715
3 Feb 2020 17:05:10.000,96.455,11.809,1350.508980
3 Feb 2020 17:05:11.000,96.187,11.744,1354.181881
3 Feb 2020 17:05:12.000,95.920,11.678,1357.882189
3 Feb 2020 17:05:13.000,95.655,11.611,1361.609675
3 Feb 2020 17:05:14.000,95.392,11.545,1365.364118
3 Feb 2020 17:05:15.000,95.130,11.478,1369.145289
3 Feb 2020 17:05:16.000,94.870,11.412,1372.952963
3 Feb 2020 17:05:17.000,94.611,11.345,1376.786912
3 Feb 2020 17:05:18.000,94.354,11.278,1380.646921
3 Feb 2020 17:05:19.000,94.099,11.210,1384.532763
3 Feb 2020 17:05:20.000,93.845,11.143,1388.444219
3 Feb 2020 17:05:21.000,93.592,11.076,1392.381063
3 Feb 2020 17:05:22.000,93.342,11.008,1396.343084
3 Feb 2020 17:05:23.000,93.092,10.940,1400.330061
3 Feb 2020 17:05:24.000,92.845,10.872,1404.341773
3 Feb 2020 17:05:25.000,92.599,10.804,1408.378011
3 Feb 2020 17:05:26.000,92.354,10.736,1412.438558
3 Feb 2020 17:05:27.000,92.111,10.668,1416.523195
3 Feb 2020 17:05:28.000,91.869,10.599,1420.631719
3 Feb 2020 17:05:29.000,91.629,10.531,1424.763910
3 Feb 2020 17:05:30.000,91.391,10.462,1428.919566
3 Feb 2020 17:05:31.000,91.154,10.394,1433.098475
3 Feb 2020 17:05:32.000,90.918,10.325,1437.300426
3 Feb 2020 17:05:33.000,90.684,10.256,1441.525219
3 Feb 2020 17:05:34.000,90.452,10.187,1445.772643
3 Feb 2020 17:05:35.000,90.221,10.118,1450.042501
3 Feb 2020 17:05:36.000,89.991,10.049,1454.334588
3 Feb 2020 17:05:37.000,89.763,9.980,1458.648699
3 Feb 2020 17:05:38.000,89.536,9.911,1462.984641
3 Feb 2020 17:05:39.000,89.311,9.842,1467.342209
3 Feb 2020 17:05:40.000,89.087,9.773,1471.721214
3 Feb 2020 17:05:41.000,88.865,9.704,1476.121451
3 Feb 2020 17:05:42.000,88.644,9.635,1480.542736
3 Feb 2020 17:05:43.000,88.425,9.566,1484.984866
3 Feb 2020 17:05:44.000,88.207,9.497,1489.447659
3 Feb 2020 17:05:45.000,87.990,9.427,1493.930916
3 Feb 2020 17:05:46.000,87.775,9.358,1498.434457
3 Feb 2020 17:05:47.000,87.561,9.289,1502.958087
3 Feb 2020 17:05:48.000,87.349,9.220,1507.501626
3 Feb 2020 17:05:49.000,87.138,9.150,1512.064885
3 Feb 2020 17:05:50.000,86.928,9.081,1516.647685
3 Feb 2020 17:05:51.000,86.720,9.012,1521.249839
3 Feb 2020 17:05:52.000,86.513,8.943,1525.871174
3 Feb 2020 17:05:53.000,86.307,8.874,1530.511504
3 Feb 2020 17:05:54.000,86.103,8.805,1535.170657
3 Feb 2020 17:05:55.000,85.900,8.735,1539.848452
3 Feb 2020 17:05:56.000,85.698,8.666,1544.544720
3 Feb 2020 17:05:57.000,85.498,8.597,1549.259281
3 Feb 2020 17:05:58.000,85.299,8.528,1553.991967
3 Feb 2020 17:05:59.000,85.101,8.459,1558.742612
3 Feb 2020 17:06:00.000,84.905,8.390,1563.511038
3 Feb 2020 17:06:01.000,84.710,8.322,1568.297087
3 Feb 2020 17:06:02.000,84.516,8.253,1573.100583
3 Feb 2020 17:06:03.000,84.323,8.184,1577.921367
3 Feb 2020 17:06:04.000,84.132,8.115,1582.759278
3 Feb 2020 17:06:05.000,83.942,8.047,1587.614147
3 Feb 2020 17:06:06.000,83.753,7.978,1592.485821
3 Feb 2020 17:06:07.000,83.565,7.909,1597.374133
3 Feb 2020 17:06:08.000,83.379,7.841,1602.278930
3 Feb 2020 17:06:09.000,83.194,7.773,1607.200058
3 Feb 2020 17:06:10.000,83.010,7.704,1612.137355
3 Feb 2020 17:06:11.000,82.827,7.636,1617.090671
3 Feb 2020 17:06:12.000,82.646,7.568,1622.059858
3 Feb 2020 17:06:13.000,82.465,7.500,1627.044757
3 Feb 2020 17:06:14.000,82.286,7.431,1632.045222
3 Feb 2020 17:06:15.000,82.108,7.364,1637.061108
3 Feb 2020 17:06:16.000,81.931,7.296,1642.092262
3 Feb 2020 17:06:17.000,81.756,7.228,1647.138541
3 Feb 2020 17:06:18.000,81.581,7.160,1652.199805
3 Feb 2020 17:06:19.000,81.408,7.092,1657.275903
3 Feb 2020 17:06:20.000,81.235,7.025,1662.366698
3 Feb 2020 17:06:21.000,81.064,6.957,1667.472052
3 Feb 2020 17:06:22.000,80.894,6.890,1672.591820
3 Feb 2020 17:06:23.000,80.725,6.823,1677.725867
3 Feb 2020 17:06:24.000,80.557,6.756,1682.874061
3 Feb 2020 17:06:25.000,80.390,6.688,1688.036258
3 Feb 2020 17:06:26.000,80.225,6.621,1693.212330
3 Feb 2020 17:06:27.000,80.060,6.554,1698.402142
3 Feb 2020 17:06:28.000,79.896,6.488,1703.605567
3 Feb 2020 17:06:29.000,79.734,6.421,1708.822467
3 Feb 2020 17:06:30.000,79.573,6.354,1714.052718
3 Feb 2020 17:06:31.000,79.412,6.288,1719.296192
3 Feb 2020 17:06:32.000,79.253,6.221,1724.552765
3 Feb 2020 17:06:33.000,79.094,6.155,1729.822305
3 Feb 2020 17:06:34.000,78.937,6.089,1735.104691
3 Feb 2020 17:06:35.000,78.781,6.023,1740.399801
3 Feb 2020 17:06:36.000,78.625,5.957,1745.707517
3 Feb 2020 17:06:37.000,78.471,5.891,1751.027709
3 Feb 2020 17:06:38.000,78.318,5.825,1756.360264
3 Feb 2020 17:06:39.000,78.165,5.760,1761.705062
3 Feb 2020 17:06:40.000,78.014,5.694,1767.061985
3 Feb 2020 17:06:41.000,77.864,5.629,1772.430923
3 Feb 2020 17:06:42.000,77.714,5.563,1777.811752
3 Feb 2020 17:06:43.000,77.566,5.498,1783.204362
3 Feb 2020 17:06:44.000,77.418,5.433,1788.608642
3 Feb 2020 17:06:45.000,77.272,5.368,1794.024478
3 Feb 2020 17:06:46.000,77.126,5.303,1799.451764
3 Feb 2020 17:06:47.000,76.981,5.238,1804.890385
3 Feb 2020 17:06:48.000,76.837,5.174,1810.340233
3 Feb 2020 17:06:49.000,76.694,5.109,1815.801204
3 Feb 2020 17:06:50.000,76.552,5.045,1821.273189
3 Feb 2020 17:06:51.000,76.411,4.980,1826.756088
3 Feb 2020 17:06:52.000,76.271,4.916,1832.249789
3 Feb 2020 17:06:53.000,76.132,4.852,1837.754193
3 Feb 2020 17:06:54.000,75.993,4.788,1843.269197
3 Feb 2020 17:06:55.000,75.856,4.724,1848.794701
3 Feb 2020 17:06:56.000,75.719,4.661,1854.330604
3 Feb 2020 17:06:57.000,75.583,4.597,1859.876810
3 Feb 2020 17:06:58.000,75.448,4.534,1865.433214
3 Feb 2020 17:06:59.000,75.314,4.470,1870.999723
3 Feb 2020 17:07:00.000,75.180,4.407,1876.576241
3 Feb 2020 17:07:01.000,75.048,4.344,1882.162671
3 Feb 2020 17:07:02.000,74.916,4.281,1887.758919
3 Feb 2020 17:07:03.000,74.785,4.218,1893.364893
3 Feb 2020 17:07:04.000,74.655,4.155,1898.980499
3 Feb 2020 17:07:05.000,74.526,4.092,1904.605650
3 Feb 2020 17:07:06.000,74.397,4.030,1910.240247
3 Feb 2020 17:07:07.000,74.270,3.968,1915.884205
3 Feb 2020 17:07:08.000,74.143,3.905,1921.537434
3 Feb 2020 17:07:09.000,74.017,3.843,1927.199846
3 Feb 2020 17:07:10.000,73.892,3.781,1932.871355
3 Feb 2020 17:07:11.000,73.767,3.719,1938.551873
3 Feb 2020 17:07:12.000,73.643,3.657,1944.241316
3 Feb 2020 17:07:13.000,73.520,3.596,1949.939602
3 Feb 2020 17:07:14.000,73.398,3.534,1955.646640
3 Feb 2020 17:07:15.000,73.276,3.473,1961.362352
3 Feb 2020 17:07:16.000,73.155,3.411,1967.086654
3 Feb 2020 17:07:17.000,73.035,3.350,1972.819465
3 Feb 2020 17:07:18.000,72.916,3.289,1978.560706
3 Feb 2020 17:07:19.000,72.797,3.228,1984.310295
3 Feb 2020 17:07:20.000,72.680,3.167,1990.068155
3 Feb 2020 17:07:21.000,72.562,3.106,1995.834207
3 Feb 2020 17:07:22.000,72.446,3.046,2001.608373
3 Feb 2020 17:07:23.000,72.330,2.985,2007.390577
3 Feb 2020 17:07:24.000,72.215,2.925,2013.180743
3 Feb 2020 17:07:25.000,72.101,2.865,2018.978800
3 Feb 2020 17:07:26.000,71.987,2.804,2024.784666
3 Feb 2020 17:07:27.000,71.874,2.744,2030.598270
3 Feb 2020 17:07:28.000,71.761,2.684,2036.419540
3 Feb 2020 17:07:29.000,71.650,2.625,2042.248404
3 Feb 2020 17:07:30.000,71.539,2.565,2048.084790
3 Feb 2020 17:07:31.000,71.428,2.505,2053.928627
3 Feb 2020 17:07:32.000,71.319,2.446,2059.779845
3 Feb 2020 17:07:33.000,71.210,2.387,2065.638374
3 Feb 2020 17:07:34.000,71.101,2.327,2071.504147
3 Feb 2020 17:07:35.000,70.993,2.268,2077.377094
3 Feb 2020 17:07:36.000,70.886,2.209,2083.257148
3 Feb 2020 17:07:37.000,70.780,2.150,2089.144243
3 Feb 2020 17:07:38.000,70.674,2.092,2095.038313
3 Feb 2020 17:07:39.000,70.568,2.033,2100.939291
3 Feb 2020 17:07:40.000,70.464,1.975,2106.847113
3 Feb 2020 17:07:41.000,70.360,1.916,2112.761715
3 Feb 2020 17:07:42.000,70.256,1.858,2118.683034
3 Feb 2020 17:07:43.000,70.153,1.800,2124.611005
3 Feb 2020 17:07:44.000,70.051,1.742,2130.545568
3 Feb 2020 17:07:45.000,69.949,1.684,2136.486659
3 Feb 2020 17:07:46.000,69.848,1.626,2142.434219
3 Feb 2020 17:07:47.000,69.748,1.568,2148.388186
3 Feb 2020 17:07:48.000,69.648,1.510,2154.348500
3 Feb 2020 17:07:49.000,69.549,1.453,2160.315102
3 Feb 2020 17:07:50.000,69.450,1.395,2166.287934
3 Feb 2020 17:07:51.000,69.352,1.338,2172.266936
3 Feb 2020 17:07:52.000,69.254,1.281,2178.252052
3 Feb 2020 17:07:53.000,69.157,1.224,2184.243223
3 Feb 2020 17:07:54.000,69.060,1.167,2190.240394
3 Feb 2020 17:07:55.000,68.964,1.110,2196.243508
3 Feb 2020 17:07:56.000,68.869,1.053,2202.252509
3 Feb 2020 17:07:57.000,68.774,0.997,2208.267344
3 Feb 2020 17:07:58.000,68.680,0.940,2214.287957
3 Feb 2020 17:07:59.000,68.586,0.884,2220.314294
3 Feb 2020 17:08:00.000,68.492,0.827,2226.346302
3 Feb 2020 17:08:01.000,68.400,0.771,2232.383928
3 Feb 2020 17:08:02.000,68.307,0.715,2238.427119
3 Feb 2020 17:08:03.000,68.216,0.659,2244.475824
3 Feb 2020 17:08:04.000,68.124,0.603,2250.529991
3 Feb 2020 17:08:05.000,68.034,0.547,2256.589570
3 Feb 2020 17:08:06.000,67.943,0.492,2262.654509
3 Feb 2020 17:08:07.000,67.854,0.436,2268.724758
3 Feb 2020 17:08:08.000,67.764,0.381,2274.800269
3 Feb 2020 17:08:09.000,67.676,0.325,2280.880991
3 Feb 2020 17:08:10.000,67.587,0.270,2286.966877
3 Feb 2020 17:08:11.000,67.499,0.215,2293.057879
3 Feb 2020 17:08:12.000,67.412,0.160,2299.153948
3 Feb 2020 17:08:13.000,67.325,0.105,2305.255037
3 Feb 2020 17:08:14.000,67.239,0.050,2311.361100
3 Feb 2020 17:08:15.000,67.153,-0.005,2317.472090
3 Feb 2020 17:08:15.926,67.074,-0.056,2323.134703
3 Feb 2020 18:34:26.604,242.692,-0.055,2315.248408
3 Feb 2020 18:34:27.000,242.706,-0.031,2312.552599
3 Feb 2020 18:34:28.000,242.740,0.030,2305.750926
3 Feb 2020 18:34:29.000,242.775,0.092,2298.949937
3 Feb 2020 18:34:30.000,242.810,0.153,2292.149644
3 Feb 2020 18:34:31.000,242.846,0.215,2285.350058
3 Feb 2020 18:34:32.000,242.881,0.277,2278.551201
3 Feb 2020 18:34:33.000,242.917,0.339,2271.753082
3 Feb 2020 18:34:34.000,242.953,0.402,2264.955718
3 Feb 2020 18:34:35.000,242.989,0.464,2258.159119
3 Feb 2020 18:34:36.000,243.025,0.527,2251.363307
3 Feb 2020 18:34:37.000,243.061,0.590,2244.568294
3 Feb 2020 18:34:38.000,243.098,0.653,2237.774090
3 Feb 2020 18:34:39.000,243.135,0.716,2230.980719
3 Feb 2020 18:34:40.000,243.172,0.780,2224.188193
3 Feb 2020 18:34:41.000,243.210,0.843,2217.396527
3 Feb 2020 18:34:42.000,243.247,0.907,2210.605733
3 Feb 2020 18:34:43.000,243.285,0.971,2203.815835
3 Feb 2020 18:34:44.000,243.323,1.036,2197.026844
3 Feb 2020 18:34:45.000,243.361,1.100,2190.238779
3 Feb 2020 18:34:46.000,243.400,1.165,2183.451650
3 Feb 2020 18:34:47.000,243.438,1.230,2176.665483
3 Feb 2020 18:34:48.000,243.477,1.295,2169.880290
3 Feb 2020 18:34:49.000,243.516,1.360,2163.096089
3 Feb 2020 18:34:50.000,243.556,1.426,2156.312894
3 Feb 2020 18:34:51.000,243.595,1.491,2149.530728
3 Feb 2020 18:34:52.000,243.635,1.557,2142.749605
3 Feb 2020 18:34:53.000,243.675,1.623,2135.969545
3 Feb 2020 18:34:54.000,243.716,1.690,2129.190560
3 Feb 2020 18:34:55.000,243.756,1.756,2122.412677
3 Feb 2020 18:34:56.000,243.797,1.823,2115.635911
3 Feb 2020 18:34:57.000,243.838,1.890,2108.860276
3 Feb 2020 18:34:58.000,243.880,1.958,2102.085798
3 Feb 2020 18:34:59.000,243.921,2.025,2095.312492
3 Feb 2020 18:35:00.000,243.963,2.093,2088.540379
3 Feb 2020 18:35:01.000,244.005,2.161,2081.769474
3 Feb 2020 18:35:02.000,244.048,2.229,2074.999804
3 Feb 2020 18:35:03.000,244.090,2.297,2068.231385
3 Feb 2020 18:35:04.000,244.133,2.366,2061.464238
3 Feb 2020 18:35:05.000,244.176,2.435,2054.698379
3 Feb 2020 18:35:06.000,244.220,2.504,2047.933836
3 Feb 2020 18:35:07.000,244.264,2.574,2041.170626
3 Feb 2020 18:35:08.000,244.308,2.643,2034.408771
3 Feb 2020 18:35:09.000,244.352,2.713,2027.648288
3 Feb 2020 18:35:10.000,244.397,2.783,2020.889206
3 Feb 2020 18:35:11.000,244.442,2.854,2014.131544
3 Feb 2020 18:35:12.000,244.487,2.924,2007.375323
3 Feb 2020 18:35:13.000,244.532,2.995,2000.620563
3 Feb 2020 18:35:14.000,244.578,3.067,1993.867293
3 Feb 2020 18:35:15.000,244.624,3.138,1987.115533
3 Feb 2020 18:35:16.000,244.671,3.210,1980.365306
3 Feb 2020 18:35:17.000,244.717,3.282,1973.616633
3 Feb 2020 18:35:18.000,244.764,3.354,1966.869543
3 Feb 2020 18:35:19.000,244.812,3.427,1960.124057
3 Feb 2020 18:35:20.000,244.859,3.500,1953.380201
3 Feb 2020 18:35:21.000,244.907,3.573,1946.637995
3 Feb 2020 18:35:22.000,244.956,3.646,1939.897471
3 Feb 2020 18:35:23.000,245.004,3.720,1933.158651
3 Feb 2020 18:35:24.000,245.053,3.794,1926.421562
3 Feb 2020 18:35:25.000,245.103,3.868,1919.686224
3 Feb 2020 18:35:26.000,245.152,3.943,1912.952673
3 Feb 2020 18:35:27.000,245.202,4.018,1906.220930
3 Feb 2020 18:35:28.000,245.253,4.093,1899.491023
3 Feb 2020 18:35:29.000,245.304,4.168,1892.762976
3 Feb 2020 18:35:30.000,245.355,4.244,1886.036823
3 Feb 2020 18:35:31.000,245.406,4.320,1879.312590
3 Feb 2020 18:35:32.000,245.458,4.396,1872.590304
3 Feb 2020 18:35:33.000,245.510,4.473,1865.869991
3 Feb 2020 18:35:34.000,245.562,4.550,1859.151687
3 Feb 2020 18:35:35.000,245.615,4.628,1852.435418
3 Feb 2020 18:35:36.000,245.669,4.705,1845.721215
3 Feb 2020 18:35:37.000,245.722,4.783,1839.009103
3 Feb 2020 18:35:38.000,245.776,4.862,1832.299121
3 Feb 2020 18:35:39.000,245.831,4.941,1825.591297
3 Feb 2020 18:35:40.000,245.886,5.020,1818.885662
3 Feb 2020 18:35:41.000,245.941,5.099,1812.182245
3 Feb 2020 18:35:42.000,245.997,5.179,1805.481085
3 Feb 2020 18:35:43.000,246.053,5.259,1798.782212
3 Feb 2020 18:35:44.000,246.109,5.339,1792.085658
3 Feb 2020 18:35:45.000,246.166,5.420,1785.391459
3 Feb 2020 18:35:46.000,246.223,5.501,1778.699644
3 Feb 2020 18:35:47.000,246.281,5.583,1772.010256
3 Feb 2020 18:35:48.000,246.339,5.665,1765.323326
3 Feb 2020 18:35:49.000,246.398,5.747,1758.638890
3 Feb 2020 18:35:50.000,246.457,5.830,1751.956981
3 Feb 2020 18:35:51.000,246.517,5.913,1745.277642
3 Feb 2020 18:35:52.000,246.577,5.996,1738.600908
3 Feb 2020 18:35:53.000,246.637,6.080,1731.926815
3 Feb 2020 18:35:54.000,246.698,6.164,1725.255400
3 Feb 2020 18:35:55.000,246.760,6.249,1718.586708
3 Feb 2020 18:35:56.000,246.821,6.334,1711.920775
3 Feb 2020 18:35:57.000,246.884,6.419,1705.257641
3 Feb 2020 18:35:58.000,246.947,6.505,1698.597346
3 Feb 2020 18:35:59.000,247.010,6.591,1691.939929
3 Feb 2020 18:36:00.000,247.074,6.678,1685.285437
3 Feb 2020 18:36:01.000,247.138,6.765,1678.633911
3 Feb 2020 18:36:02.000,247.203,6.853,1671.985393
3 Feb 2020 18:36:03.000,247.269,6.941,1665.339927
3 Feb 2020 18:36:04.000,247.335,7.029,1658.697554
3 Feb 2020 18:36:05.000,247.401,7.118,1652.058325
3 Feb 2020 18:36:06.000,247.468,7.207,1645.422283
3 Feb 2020 18:36:07.000,247.536,7.297,1638.789474
3 Feb 2020 18:36:08.000,247.604,7.387,1632.159942
3 Feb 2020 18:36:09.000,247.673,7.478,1625.533741
3 Feb 2020 18:36:10.000,247.742,7.569,1618.910918
3 Feb 2020 18:36:11.000,247.812,7.661,1612.291519
3 Feb 2020 18:36:12.000,247.882,7.753,1605.675597
3 Feb 2020 18:36:13.000,247.953,7.845,1599.063198
3 Feb 2020 18:36:14.000,248.025,7.938,1592.454380
3 Feb 2020 18:36:15.000,248.097,8.032,1585.849192
3 Feb 2020 18:36:16.000,248.170,8.126,1579.247688
3 Feb 2020 18:36:17.000,248.244,8.220,1572.649922
3 Feb 2020 18:36:18.000,248.318,8.316,1566.055944
3 Feb 2020 18:36:19.000,248.393,8.411,1559.465818
3 Feb 2020 18:36:20.000,248.468,8.507,1552.879597
3 Feb 2020 18:36:21.000,248.544,8.604,1546.297338
3 Feb 2020 18:36:22.000,248.621,8.701,1539.719099
3 Feb 2020 18:36:23.000,248.698,8.799,1533.144937
3 Feb 2020 18:36:24.000,248.777,8.897,1526.574918
3 Feb 2020 18:36:25.000,248.855,8.996,1520.009100
3 Feb 2020 18:36:26.000,248.935,9.095,1513.447546
3 Feb 2020 18:36:27.000,249.015,9.195,1506.890319
3 Feb 2020 18:36:28.000,249.096,9.296,1500.337479
3 Feb 2020 18:36:29.000,249.178,9.397,1493.789099
3 Feb 2020 18:36:30.000,249.260,9.499,1487.245241
3 Feb 2020 18:36:31.000,249.344,9.601,1480.705974
3 Feb 2020 18:36:32.000,249.428,9.704,1474.171366
3 Feb 2020 18:36:33.000,249.512,9.807,1467.641486
3 Feb 2020 18:36:34.000,249.598,9.912,1461.116402
3 Feb 2020 18:36:35.000,249.684,10.016,1454.596193
3 Feb 2020 18:36:36.000,249.771,10.122,1448.080929
3 Feb 2020 18:36:37.000,249.859,10.228,1441.570684
3 Feb 2020 18:36:38.000,249.948,10.334,1435.065534
3 Feb 2020 18:36:39.000,250.038,10.442,1428.565552
3 Feb 2020 18:36:40.000,250.129,10.550,1422.070825
3 Feb 2020 18:36:41.000,250.220,10.658,1415.581427
3 Feb 2020 18:36:42.000,250.312,10.768,1409.097441
3 Feb 2020 18:36:43.000,250.405,10.878,1402.618949
3 Feb 2020 18:36:44.000,250.500,10.988,1396.146034
3 Feb 2020 18:36:45.000,250.595,11.100,1389.678783
3 Feb 2020 18:36:46.000,250.691,11.212,1383.217277
3 Feb 2020 18:36:47.000,250.787,11.325,1376.761614
3 Feb 2020 18:36:48.000,250.885,11.438,1370.311878
3 Feb 2020 18:36:49.000,250.984,11.552,1363.868162
3 Feb 2020 18:36:50.000,251.084,11.667,1357.430558
3 Feb 2020 18:36:51.000,251.185,11.783,1350.999162
3 Feb 2020 18:36:52.000,251.287,11.900,1344.574067
3 Feb 2020 18:36:53.000,251.390,12.017,1338.155376
3 Feb 2020 18:36:54.000,251.494,12.135,1331.743188
3 Feb 2020 18:36:55.000,251.599,12.254,1325.337603
3 Feb 2020 18:36:56.000,251.705,12.373,1318.938725
3 Feb 2020 18:36:57.000,251.812,12.494,1312.546660
3 Feb 2020 18:36:58.000,251.921,12.615,1306.161514
3 Feb 2020 18:36:59.000,252.030,12.737,1299.783398
3 Feb 2020 18:37:00.000,252.141,12.860,1293.412418
3 Feb 2020 18:37:01.000,252.253,12.984,1287.048696
3 Feb 2020 18:37:02.000,252.366,13.109,1280.692343
3 Feb 2020 18:37:03.000,252.480,13.234,1274.343476
3 Feb 2020 18:37:04.000,252.596,13.360,1268.002215
3 Feb 2020 18:37:05.000,252.713,13.488,1261.668683
3 Feb 2020 18:37:06.000,252.831,13.616,1255.343003
3 Feb 2020 18:37:07.000,252.950,13.745,1249.025301
3 Feb 2020 18:37:08.000,253.071,13.875,1242.715705
3 Feb 2020 18:37:09.000,253.193,14.006,1236.414350
3 Feb 2020 18:37:10.000,253.316,14.138,1230.121369
3 Feb 2020 18:37:11.000,253.441,14.271,1223.836896
3 Feb 2020 18:37:12.000,253.567,14.404,1217.561072
3 Feb 2020 18:37:13.000,253.695,14.539,1211.294037
3 Feb 2020 18:37:14.000,253.824,14.675,1205.035937
3 Feb 2020 18:37:15.000,253.954,14.812,1198.786917
3 Feb 2020 18:37:16.000,254.087,14.949,1192.547128
3 Feb 2020 18:37:17.000,254.220,15.088,1186.316723
3 Feb 2020 18:37:18.000,254.355,15.228,1180.095856
3 Feb 2020 18:37:19.000,254.492,15.369,1173.884685
3 Feb 2020 18:37:20.000,254.630,15.511,1167.683376
3 Feb 2020 18:37:21.000,254.770,15.654,1161.492092
3 Feb 2020 18:37:22.000,254.912,15.798,1155.311002
3 Feb 2020 18:37:23.000,255.055,15.943,1149.140275
3 Feb 2020 18:37:24.000,255.201,16.089,1142.980088
3 Feb 2020 18:37:25.000,255.347,16.237,1136.830618
3 Feb 2020 18:37:26.000,255.496,16.385,1130.692048
3 Feb 2020 18:37:27.000,255.647,16.535,1124.564563
3 Feb 2020 18:37:28.000,255.799,16.686,1118.448351
3 Feb 2020 18:37:29.000,255.953,16.838,1112.343607
3 Feb 2020 18:37:30.000,256.109,16.991,1106.250526
3 Feb 2020 18:37:31.000,256.267,17.146,1100.169309
3 Feb 2020 18:37:32.000,256.427,17.301,1094.100162
3 Feb 2020 18:37:33.000,256.589,17.458,1088.043292
3 Feb 2020 18:37:34.000,256.754,17.616,1081.998913
3 Feb 2020 18:37:35.000,256.920,17.776,1075.967242
3 Feb 2020 18:37:36.000,257.088,17.937,1069.948501
3 Feb 2020 18:37:37.000,257.259,18.099,1063.942917
3 Feb 2020 18:37:38.000,257.432,18.262,1057.950719
3 Feb 2020 18:37:39.000,257.607,18.426,1051.972143
3 Feb 2020 18:37:40.000,257.784,18.592,1046.007431
3 Feb 2020 18:37:41.000,257.964,18.760,1040.056826
3 Feb 2020 18:37:42.000,258.146,18.928,1034.120580
3 Feb 2020 18:37:43.000,258.331,19.098,1028.198947
3 Feb 2020 18:37:44.000,258.518,19.270,1022.292189
3 Feb 2020 18:37:45.000,258.707,19.442,1016.400571
3 Feb 2020 18:37:46.000,258.900,19.617,1010.524364
3 Feb 2020 18:37:47.000,259.095,19.792,1004.663846
3 Feb 2020 18:37:48.000,259.292,19.969,998.819300
3 Feb 2020 18:37:49.000,259.492,20.148,992.991013
3 Feb 2020 18:37:50.000,259.695,20.328,987.179281
3 Feb 2020 18:37:51.000,259.901,20.509,981.384404
3 Feb 2020 18:37:52.000,260.110,20.692,975.606689
3 Feb 2020 18:37:53.000,260.322,20.877,969.846449
3 Feb 2020 18:37:54.000,260.537,21.063,964.104004
3 Feb 2020 18:37:55.000,260.754,21.251,958.379684
3 Feb 2020 18:37:56.000,260.975,21.440,952.673814
3 Feb 2020 18:37:57.000,261.200,21.630,946.986738
3 Feb 2020 18:37:58.000,261.427,21.823,941.318804
3 Feb 2020 18:37:59.000,261.658,22.016,935.670364
3 Feb 2020 18:38:00.000,261.892,22.212,930.041782
3 Feb 2020 18:38:01.000,262.130,22.409,924.433425
3 Feb 2020 18:38:02.000,262.371,22.608,918.845671
3 Feb 2020 18:38:03.000,262.616,22.808,913.278903
3 Feb 2020 18:38:04.000,262.865,23.010,907.733518
3 Feb 2020 18:38:05.000,263.117,23.214,902.209909
3 Feb 2020 18:38:06.000,263.373,23.419,896.708488
3 Feb 2020 18:38:07.000,263.633,23.626,891.229672
3 Feb 2020 18:38:08.000,263.897,23.834,885.773886
3 Feb 2020 18:38:09.000,264.165,24.045,880.341565
3 Feb 2020 18:38:10.000,264.438,24.257,874.933156
3 Feb 2020 18:38:11.000,264.714,24.470,869.549103
3 Feb 2020 18:38:12.000,264.995,24.686,864.189871
3 Feb 2020 18:38:13.000,265.281,24.903,858.855931
3 Feb 2020 18:38:14.000,265.571,25.122,853.547763
3 Feb 2020 18:38:15.000,265.866,25.342,848.265860
3 Feb 2020 18:38:16.000,266.165,25.564,843.010715
3 Feb 2020 18:38:17.000,266.469,25.788,837.782840
3 Feb 2020 18:38:18.000,266.778,26.014,832.582754
3 Feb 2020 18:38:19.000,267.092,26.241,827.410992
3 Feb 2020 18:38:20.000,267.412,26.470,822.268086
3 Feb 2020 18:38:21.000,267.736,26.701,817.154589
3 Feb 2020 18:38:22.000,268.066,26.933,812.071068
3 Feb 2020 18:38:23.000,268.402,27.167,807.018086
3 Feb 2020 18:38:24.000,268.743,27.403,801.996230
3 Feb 2020 18:38:25.000,269.090,27.640,797.006097
3 Feb 2020 18:38:26.000,269.442,27.879,792.048286
3 Feb 2020 18:38:27.000,269.801,28.120,787.123416
3 Feb 2020 18:38:28.000,270.165,28.362,782.232118
3 Feb 2020 18:38:29.000,270.536,28.606,777.375024
3 Feb 2020 18:38:30.000,270.914,28.851,772.552788
3 Feb 2020 18:38:31.000,271.297,29.098,767.766076
3 Feb 2020 18:38:32.000,271.688,29.346,763.015554
3 Feb 2020 18:38:33.000,272.085,29.596,758.301914
3 Feb 2020 18:38:34.000,272.489,29.847,753.625848
3 Feb 2020 18:38:35.000,272.900,30.100,748.988066
3 Feb 2020 18:38:36.000,273.318,30.354,744.389294
3 Feb 2020 18:38:37.000,273.744,30.609,739.830256
3 Feb 2020 18:38:38.000,274.177,30.866,735.311704
3 Feb 2020 18:38:39.000,274.618,31.123,730.834386
3 Feb 2020 18:38:40.000,275.066,31.382,726.399076
3 Feb 2020 18:38:41.000,275.523,31.642,722.006547
3 Feb 2020 18:38:42.000,275.988,31.903,717.657596
3 Feb 2020 18:38:43.000,276.461,32.165,713.353020
3 Feb 2020 18:38:44.000,276.942,32.427,709.093629
3 Feb 2020 18:38:45.000,277.432,32.691,704.880254
3 Feb 2020 18:38:46.000,277.930,32.955,700.713723
3 Feb 2020 18:38:47.000,278.438,33.220,696.594887
3 Feb 2020 18:38:48.000,278.955,33.485,692.524597
3 Feb 2020 18:38:49.000,279.481,33.751,688.503717
3 Feb 2020 18:38:50.000,280.016,34.017,684.533127
3 Feb 2020 18:38:51.000,280.561,34.283,680.613709
3 Feb 2020 18:38:52.000,281.115,34.550,676.746352
3 Feb 2020 18:38:53.000,281.680,34.816,672.931965
3 Feb 2020 18:38:54.000,282.254,35.082,669.171454
3 Feb 2020 18:38:55.000,282.839,35.348,665.465733
3 Feb 2020 18:38:56.000,283.434,35.614,661.815733
3 Feb 2020 18:38:57.000,284.040,35.879,658.222382
3 Feb 2020 18:38:58.000,284.656,36.143,654.686615
3 Feb 2020 18:38:59.000,285.283,36.406,651.209374
3 Feb 2020 18:39:00.000,285.921,36.668,647.791606
3 Feb 2020 18:39:01.000,286.570,36.929,644.434257
3 Feb 2020 18:39:02.000,287.230,37.189,641.138286
3 Feb 2020 18:39:03.000,287.902,37.447,637.904644
3 Feb 2020 18:39:04.000,288.585,37.703,634.734287
3 Feb 2020 18:39:05.000,289.279,37.957,631.628172
3 Feb 2020 18:39:06.000,289.985,38.209,628.587253
3 Feb 2020 18:39:07.000,290.703,38.459,625.612486
3 Feb 2020 18:39:08.000,291.433,38.706,622.704819
3 Feb 2020 18:39:09.000,292.174,38.950,619.865202
3 Feb 2020 18:39:10.000,292.927,39.191,617.094575
3 Feb 2020 18:39:11.000,293.692,39.429,614.393875
3 Feb 2020 18:39:12.000,294.469,39.663,611.764030
3 Feb 2020 18:39:13.000,295.257,39.894,609.205964
3 Feb 2020 18:39:14.000,296.058,40.120,606.720581
3 Feb 2020 18:39:15.000,296.870,40.342,604.308784
3 Feb 2020 18:39:16.000,297.694,40.560,601.971458
3 Feb 2020 18:39:17.000,298.530,40.773,599.709477
3 Feb 2020 18:39:18.000,299.377,40.981,597.523701
3 Feb 2020 18:39:19.000,300.236,41.183,595.414967
3 Feb 2020 18:39:20.000,301.105,41.380,593.384099
3 Feb 2020 18:39:21.000,301.986,41.571,591.431902
3 Feb 2020 18:39:22.000,302.878,41.756,589.559162
3 Feb 2020 18:39:23.000,303.781,41.934,587.766635
3 Feb 2020 18:39:24.000,304.693,42.106,586.055063
3 Feb 2020 18:39:25.000,305.616,42.271,584.425153
3 Feb 2020 18:39:26.000,306.549,42.429,582.877598
3 Feb 2020 18:39:27.000,307.491,42.580,581.413052
3 Feb 2020 18:39:28.000,308.442,42.723,580.032148
3 Feb 2020 18:39:29.000,309.402,42.859,578.735482
3 Feb 2020 18:39:30.000,310.370,42.986,577.523627
3 Feb 2020 18:39:31.000,311.346,43.105,576.397114
3 Feb 2020 18:39:32.000,312.329,43.216,575.356449
3 Feb 2020 18:39:33.000,313.319,43.318,574.402098
3 Feb 2020 18:39:34.000,314.315,43.411,573.534490
3 Feb 2020 18:39:35.000,315.317,43.495,572.754024
3 Feb 2020 18:39:36.000,316.325,43.571,572.061054
3 Feb 2020 18:39:37.000,317.337,43.637,571.455899
3 Feb 2020 18:39:38.000,318.353,43.693,570.938836
3 Feb 2020 18:39:39.000,319.372,43.740,570.510109
3 Feb 2020 18:39:40.000,320.395,43.778,570.169915
3 Feb 2020 18:39:41.000,321.419,43.806,569.918413
3 Feb 2020 18:39:42.000,322.445,43.825,569.755718
3 Feb 2020 18:39:43.000,323.472,43.834,569.681908
3 Feb 2020 18:39:44.000,324.499,43.833,569.697016
3 Feb 2020 18:39:45.000,325.526,43.822,569.801035
3 Feb 2020 18:39:46.000,326.552,43.802,569.993914
3 Feb 2020 18:39:47.000,327.576,43.772,570.275563
3 Feb 2020 18:39:48.000,328.597,43.733,570.645850
3 Feb 2020 18:39:49.000,329.616,43.684,571.104602
3 Feb 2020 18:39:50.000,330.631,43.625,571.651603
3 Feb 2020 18:39:51.000,331.642,43.558,572.286601
3 Feb 2020 18:39:52.000,332.648,43.481,573.009299
3 Feb 2020 18:39:53.000,333.649,43.395,573.819367
3 Feb 2020 18:39:54.000,334.643,43.300,574.716432
3 Feb 2020 18:39:55.000,335.632,43.196,575.700088
3 Feb 2020 18:39:56.000,336.613,43.084,576.769888
3 Feb 2020 18:39:57.000,337.587,42.964,577.925352
3 Feb 2020 18:39:58.000,338.553,42.835,579.165967
3 Feb 2020 18:39:59.000,339.510,42.698,580.491183
3 Feb 2020 18:40:00.000,340.459,42.554,581.900422
3 Feb 2020 18:40:01.000,341.399,42.402,583.393070
3 Feb 2020 18:40:02.000,342.329,42.243,584.968489
3 Feb 2020 18:40:03.000,343.249,42.077,586.626007
3 Feb 2020 18:40:04.000,344.159,41.904,588.364930
3 Feb 2020 18:40:05.000,345.059,41.724,590.184534
3 Feb 2020 18:40:06.000,345.948,41.539,592.084073
3 Feb 2020 18:40:07.000,346.826,41.347,594.062778
3 Feb 2020 18:40:08.000,347.693,41.149,596.119857
3 Feb 2020 18:40:09.000,348.549,40.946,598.254499
3 Feb 2020 18:40:10.000,349.393,40.738,600.465873
3 Feb 2020 18:40:11.000,350.225,40.525,602.753133
3 Feb 2020 18:40:12.000,351.046,40.306,605.115412
3 Feb 2020 18:40:13.000,351.856,40.084,607.551835
3 Feb 2020 18:40:14.000,352.653,39.857,610.061508
3 Feb 2020 18:40:15.000,353.439,39.626,612.643528
3 Feb 2020 18:40:16.000,354.213,39.392,615.296981
3 Feb 2020 18:40:17.000,354.974,39.154,618.020943
3 Feb 2020 18:40:18.000,355.725,38.913,620.814481
3 Feb 2020 18:40:19.000,356.463,38.669,623.676658
3 Feb 2020 18:40:20.000,357.189,38.422,626.606528
3 Feb 2020 18:40:21.000,357.904,38.172,629.603143
3 Feb 2020 18:40:22.000,358.607,37.920,632.665550
3 Feb 2020 18:40:23.000,359.298,37.666,635.792794
3 Feb 2020 18:40:24.000,359.979,37.410,638.983919
3 Feb 2020 18:40:25.000,0.647,37.153,642.237968
3 Feb 2020 18:40:26.000,1.305,36.893,645.553987
3 Feb 2020 18:40:27.000,1.951,36.633,648.931019
3 Feb 2020 18:40:28.000,2.586,36.371,652.368113
3 Feb 2020 18:40:29.000,3.210,36.108,655.864321
3 Feb 2020 18:40:30.000,3.824,35.844,659.418696
3 Feb 2020 18:40:31.000,4.427,35.580,663.030300
3 Feb 2020 18:40:32.000,5.019,35.315,666.698197
3 Feb 2020 18:40:33.000,5.601,35.050,670.421459
3 Feb 2020 18:40:34.000,6.173,34.784,674.199163
3 Feb 2020 18:40:35.000,6.735,34.518,678.030395
3 Feb 2020 18:40:36.000,7.288,34.253,681.914246
3 Feb 2020 18:40:37.000,7.830,33.987,685.849819
3 Feb 2020 18:40:38.000,8.363,33.722,689.836222
3 Feb 2020 18:40:39.000,8.887,33.457,693.872574
3 Feb 2020 18:40:40.000,9.401,33.192,697.958005
3 Feb 2020 18:40:41.000,9.906,32.928,702.091651
3 Feb 2020 18:40:42.000,10.403,32.665,706.272660
3 Feb 2020 18:40:43.000,10.891,32.402,710.500192
3 Feb 2020 18:40:44.000,11.370,32.140,714.773414
3 Feb 2020 18:40:45.000,11.841,31.879,719.091508
3 Feb 2020 18:40:46.000,12.303,31.619,723.453664
3 Feb 2020 18:40:47.000,12.758,31.360,727.859084
3 Feb 2020 18:40:48.000,13.205,31.102,732.306982
3 Feb 2020 18:40:49.000,13.644,30.845,736.796581
3 Feb 2020 18:40:50.000,14.075,30.590,741.327121
3 Feb 2020 18:40:51.000,14.499,30.336,745.897848
3 Feb 2020 18:40:52.000,14.915,30.083,750.508022
3 Feb 2020 18:40:53.000,15.325,29.831,755.156915
3 Feb 2020 18:40:54.000,15.727,29.581,759.843811
3 Feb 2020 18:40:55.000,16.123,29.332,764.568004
3 Feb 2020 18:40:56.000,16.512,29.084,769.328802
3 Feb 2020 18:40:57.000,16.894,28.838,774.125523
3 Feb 2020 18:40:58.000,17.270,28.594,778.957496
3 Feb 2020 18:40:59.000,17.639,28.351,783.824065
3 Feb 2020 18:41:00.000,18.002,28.110,788.724584
3 Feb 2020 18:41:01.000,18.360,27.870,793.658415
3 Feb 2020 18:41:02.000,18.711,27.632,798.624937
3 Feb 2020 18:41:03.000,19.056,27.396,803.623536
3 Feb 2020 18:41:04.000,19.396,27.161,808.653611
3 Feb 2020 18:41:05.000,19.730,26.928,813.714573
3 Feb 2020 18:41:06.000,20.059,26.696,818.805842
3 Feb 2020 18:41:07.000,20.383,26.467,823.926850
3 Feb 2020 18:41:08.000,20.701,26.238,829.077039
3 Feb 2020 18:41:09.000,21.014,26.012,834.255864
3 Feb 2020 18:41:10.000,21.322,25.787,839.462785
3 Feb 2020 18:41:11.000,21.625,25.564,844.697279
3 Feb 2020 18:41:12.000,21.923,25.343,849.958829
3 Feb 2020 18:41:13.000,22.217,25.123,855.246930
3 Feb 2020 18:41:14.000,22.506,24.905,860.561084
3 Feb 2020 18:41:15.000,22.791,24.689,865.900805
3 Feb 2020 18:41:16.000,23.071,24.475,871.265617
3 Feb 2020 18:41:17.000,23.346,24.262,876.655054
3 Feb 2020 18:41:18.000,23.618,24.051,882.068656
3 Feb 2020 18:41:19.000,23.885,23.841,887.505973
3 Feb 2020 18:41:20.000,24.149,23.633,892.966567
3 Feb 2020 18:41:21.000,24.408,23.427,898.450007
3 Feb 2020 18:41:22.000,24.663,23.223,903.955870
3 Feb 2020 18:41:23.000,24.915,23.020,909.483741
3 Feb 2020 18:41:24.000,25.163,22.819,915.033214
3 Feb 2020 18:41:25.000,25.407,22.619,920.603893
3 Feb 2020 18:41:26.000,25.648,22.421,926.195387
3 Feb 2020 18:41:27.000,25.885,22.225,931.807315
3 Feb 2020 18:41:28.000,26.118,22.031,937.439304
3 Feb 2020 18:41:29.000,26.349,21.837,943.090986
3 Feb 2020 18:41:30.000,26.576,21.646,948.762005
3 Feb 2020 18:41:31.000,26.799,21.456,954.452005
3 Feb 2020 18:41:32.000,27.020,21.268,960.160644
3 Feb 2020 18:41:33.000,27.237,21.081,965.887583
3 Feb 2020 18:41:34.000,27.451,20.895,971.632493
3 Feb 2020 18:41:35.000,27.663,20.712,977.395050
3 Feb 2020 18:41:36.000,27.871,20.529,983.174935
3 Feb 2020 18:41:37.000,28.077,20.349,988.971838
3 Feb 2020 18:41:38.000,28.279,20.169,994.785455
3 Feb 2020 18:41:39.000,28.479,19.991,1000.615486
3 Feb 2020 18:41:40.000,28.676,19.815,1006.461640
3 Feb 2020 18:41:41.000,28.871,19.640,1012.323630
3 Feb 2020 18:41:42.000,29.063,19.466,1018.201175
3 Feb 2020 18:41:43.000,29.252,19.294,1024.093999
3 Feb 2020 18:41:44.000,29.439,19.124,1030.001836
3 Feb 2020 18:41:45.000,29.623,18.954,1035.924418
3 Feb 2020 18:41:46.000,29.805,18.786,1041.861487
3 Feb 2020 18:41:47.000,29.984,18.620,1047.812791
3 Feb 2020 18:41:48.000,30.161,18.454,1053.778080
3 Feb 2020 18:41:49.000,30.336,18.290,1059.757111
3 Feb 2020 18:41:50.000,30.509,18.128,1065.749646
3 Feb 2020 18:41:51.000,30.679,17.966,1071.755450
3 Feb 2020 18:41:52.000,30.847,17.806,1077.774295
3 Feb 2020 18:41:53.000,31.014,17.647,1083.805955
3 Feb 2020 18:41:54.000,31.178,17.490,1089.850211
3 Feb 2020 18:41:55.000,31.339,17.333,1095.906847
3 Feb 2020 18:41:56.000,31.499,17.178,1101.975651
3 Feb 2020 18:41:57.000,31.657,17.024,1108.056415
3 Feb 2020 18:41:58.000,31.813,16.872,1114.148936
3 Feb 2020 18:41:59.000,31.968,16.720,1120.253016
3 Feb 2020 18:42:00.000,32.120,16.570,1126.368459
3 Feb 2020 18:42:01.000,32.270,16.421,1132.495074
3 Feb 2020 18:42:02.000,32.419,16.273,1138.632672
3 Feb 2020 18:42:03.000,32.565,16.126,1144.781069
3 Feb 2020 18:42:04.000,32.711,15.980,1150.940085
3 Feb 2020 18:42:05.000,32.854,15.835,1157.109543
3 Feb 2020 18:42:06.000,32.996,15.692,1163.289269
3 Feb 2020 18:42:07.000,33.136,15.549,1169.479092
3 Feb 2020 18:42:08.000,33.274,15.408,1175.678846
3 Feb 2020 18:42:09.000,33.411,15.267,1181.888366
3 Feb 2020 18:42:10.000,33.546,15.128,1188.107493
3 Feb 2020 18:42:11.000,33.679,14.990,1194.336068
3 Feb 2020 18:42:12.000,33.812,14.852,1200.573936
3 Feb 2020 18:42:13.000,33.942,14.716,1206.820947
3 Feb 2020 18:42:14.000,34.071,14.581,1213.076951
3 Feb 2020 18:42:15.000,34.199,14.446,1219.341799
3 Feb 2020 18:42:16.000,34.325,14.313,1225.615354
3 Feb 2020 18:42:17.000,34.450,14.181,1231.897472
3 Feb 2020 18:42:18.000,34.574,14.049,1238.188015
3 Feb 2020 18:42:19.000,34.696,13.919,1244.486847
3 Feb 2020 18:42:20.000,34.817,13.789,1250.793837
3 Feb 2020 18:42:21.000,34.936,13.660,1257.108852
3 Feb 2020 18:42:22.000,35.054,13.533,1263.431767
3 Feb 2020 18:42:23.000,35.171,13.406,1269.762453
3 Feb 2020 18:42:24.000,35.287,13.280,1276.100790
3 Feb 2020 18:42:25.000,35.401,13.155,1282.446652
3 Feb 2020 18:42:26.000,35.515,13.031,1288.799925
3 Feb 2020 18:42:27.000,35.627,12.907,1295.160491
3 Feb 2020 18:42:28.000,35.737,12.785,1301.528235
3 Feb 2020 18:42:29.000,35.847,12.663,1307.903044
3 Feb 2020 18:42:30.000,35.956,12.542,1314.284808
3 Feb 2020 18:42:31.000,36.063,12.422,1320.673418
3 Feb 2020 18:42:32.000,36.170,12.303,1327.068767
3 Feb 2020 18:42:33.000,36.275,12.184,1333.470750
3 Feb 2020 18:42:34.000,36.379,12.066,1339.879266
3 Feb 2020 18:42:35.000,36.482,11.950,1346.294213
3 Feb 2020 18:42:36.000,36.584,11.833,1352.715491
3 Feb 2020 18:42:37.000,36.686,11.718,1359.143004
3 Feb 2020 18:42:38.000,36.786,11.603,1365.576654
3 Feb 2020 18:42:39.000,36.885,11.489,1372.016349
3 Feb 2020 18:42:40.000,36.983,11.376,1378.461994
3 Feb 2020 18:42:41.000,37.080,11.264,1384.913501
3 Feb 2020 18:42:42.000,37.176,11.152,1391.370779
3 Feb 2020 18:42:43.000,37.272,11.041,1397.833741
3 Feb 2020 18:42:44.000,37.366,10.931,1404.302300
3 Feb 2020 18:42:45.000,37.460,10.821,1410.776371
3 Feb 2020 18:42:46.000,37.552,10.712,1417.255869
3 Feb 2020 18:42:47.000,37.644,10.604,1423.740717
3 Feb 2020 18:42:48.000,37.735,10.496,1430.230831
3 Feb 2020 18:42:49.000,37.825,10.389,1436.726132
3 Feb 2020 18:42:50.000,37.914,10.283,1443.226542
3 Feb 2020 18:42:51.000,38.002,10.177,1449.731985
3 Feb 2020 18:42:52.000,38.090,10.072,1456.242384
3 Feb 2020 18:42:53.000,38.176,9.967,1462.757667
3 Feb 2020 18:42:54.000,38.262,9.864,1469.277762
3 Feb 2020 18:42:55.000,38.347,9.760,1475.802595
3 Feb 2020 18:42:56.000,38.432,9.658,1482.332097
3 Feb 2020 18:42:57.000,38.515,9.556,1488.866197
3 Feb 2020 18:42:58.000,38.598,9.454,1495.404827
3 Feb 2020 18:42:59.000,38.680,9.353,1501.947922
3 Feb 2020 18:43:00.000,38.762,9.253,1508.495415
3 Feb 2020 18:43:01.000,38.842,9.153,1515.047241
3 Feb 2020 18:43:02.000,38.922,9.054,1521.603337
3 Feb 2020 18:43:03.000,39.002,8.956,1528.163636
3 Feb 2020 18:43:04.000,39.080,8.858,1534.728081
3 Feb 2020 18:43:05.000,39.158,8.760,1541.296610
3 Feb 2020 18:43:06.000,39.235,8.663,1547.869163
3 Feb 2020 18:43:07.000,39.312,8.567,1554.445680
3 Feb 2020 18:43:08.000,39.388,8.471,1561.026104
3 Feb 2020 18:43:09.000,39.463,8.376,1567.610375
3 Feb 2020 18:43:10.000,39.537,8.281,1574.198441
3 Feb 2020 18:43:11.000,39.611,8.187,1580.790245
3 Feb 2020 18:43:12.000,39.685,8.093,1587.385732
3 Feb 2020 18:43:13.000,39.757,8.000,1593.984848
3 Feb 2020 18:43:14.000,39.830,7.907,1600.587540
3 Feb 2020 18:43:15.000,39.901,7.814,1607.193758
3 Feb 2020 18:43:16.000,39.972,7.723,1613.803449
3 Feb 2020 18:43:17.000,40.042,7.631,1620.416564
3 Feb 2020 18:43:18.000,40.112,7.540,1627.033049
3 Feb 2020 18:43:19.000,40.181,7.450,1633.652861
3 Feb 2020 18:43:20.000,40.250,7.360,1640.275949
3 Feb 2020 18:43:21.000,40.318,7.270,1646.902266
3 Feb 2020 18:43:22.000,40.386,7.181,1653.531765
3 Feb 2020 18:43:23.000,40.453,7.093,1660.164396
3 Feb 2020 18:43:24.000,40.519,7.004,1666.800121
3 Feb 2020 18:43:25.000,40.585,6.917,1673.438891
3 Feb 2020 18:43:26.000,40.650,6.829,1680.080662
3 Feb 2020 18:43:27.000,40.715,6.743,1686.725391
3 Feb 2020 18:43:28.000,40.780,6.656,1693.373033
3 Feb 2020 18:43:29.000,40.844,6.570,1700.023551
3 Feb 2020 18:43:30.000,40.907,6.484,1706.676900
3 Feb 2020 18:43:31.000,40.970,6.399,1713.333039
3 Feb 2020 18:43:32.000,41.033,6.314,1719.991925
3 Feb 2020 18:43:33.000,41.094,6.230,1726.653525
3 Feb 2020 18:43:34.000,41.156,6.146,1733.317795
3 Feb 2020 18:43:35.000,41.217,6.062,1739.984697
3 Feb 2020 18:43:36.000,41.278,5.979,1746.654194
3 Feb 2020 18:43:37.000,41.338,5.896,1753.326244
3 Feb 2020 18:43:38.000,41.397,5.814,1760.000816
3 Feb 2020 18:43:39.000,41.457,5.732,1766.677871
3 Feb 2020 18:43:40.000,41.515,5.650,1773.357372
3 Feb 2020 18:43:41.000,41.574,5.569,1780.039283
3 Feb 2020 18:43:42.000,41.632,5.488,1786.723571
3 Feb 2020 18:43:43.000,41.689,5.407,1793.410201
3 Feb 2020 18:43:44.000,41.746,5.327,1800.099139
3 Feb 2020 18:43:45.000,41.803,5.247,1806.790350
3 Feb 2020 18:43:46.000,41.859,5.167,1813.483799
3 Feb 2020 18:43:47.000,41.915,5.088,1820.179458
3 Feb 2020 18:43:48.000,41.971,5.009,1826.877293
3 Feb 2020 18:43:49.000,42.026,4.931,1833.577271
3 Feb 2020 18:43:50.000,42.080,4.853,1840.279358
3 Feb 2020 18:43:51.000,42.135,4.775,1846.983529
3 Feb 2020 18:43:52.000,42.189,4.697,1853.689751
3 Feb 2020 18:43:53.000,42.242,4.620,1860.397992
3 Feb 2020 18:43:54.000,42.295,4.543,1867.108222
3 Feb 2020 18:43:55.000,42.348,4.467,1873.820415
3 Feb 2020 18:43:56.000,42.401,4.390,1880.534539
3 Feb 2020 18:43:57.000,42.453,4.314,1887.250567
3 Feb 2020 18:43:58.000,42.504,4.239,1893.968467
3 Feb 2020 18:43:59.000,42.556,4.164,1900.688217
3 Feb 2020 18:44:00.000,42.607,4.088,1907.409786
3 Feb 2020 18:44:01.000,42.657,4.014,1914.133147
3 Feb 2020 18:44:02.000,42.708,3.939,1920.858273
3 Feb 2020 18:44:03.000,42.758,3.865,1927.585136
3 Feb 2020 18:44:04.000,42.807,3.791,1934.313713
3 Feb 2020 18:44:05.000,42.857,3.718,1941.043978
3 Feb 2020 18:44:06.000,42.906,3.645,1947.775903
3 Feb 2020 18:44:07.000,42.955,3.572,1954.509461
3 Feb 2020 18:44:08.000,43.003,3.499,1961.244633
3 Feb 2020 18:44:09.000,43.051,3.427,1967.981392
3 Feb 2020 18:44:10.000,43.099,3.355,1974.719712
3 Feb 2020 18:44:11.000,43.146,3.283,1981.459568
3 Feb 2020 18:44:12.000,43.193,3.211,1988.200941
3 Feb 2020 18:44:13.000,43.240,3.140,1994.943804
3 Feb 2020 18:44:14.000,43.287,3.069,2001.688135
3 Feb 2020 18:44:15.000,43.333,2.998,2008.433909
3 Feb 2020 18:44:16.000,43.379,2.927,2015.181107
3 Feb 2020 18:44:17.000,43.424,2.857,2021.929705
3 Feb 2020 18:44:18.000,43.470,2.787,2028.679681
3 Feb 2020 18:44:19.000,43.515,2.717,2035.431011
3 Feb 2020 18:44:20.000,43.560,2.648,2042.183678
3 Feb 2020 18:44:21.000,43.604,2.579,2048.937658
3 Feb 2020 18:44:22.000,43.648,2.510,2055.692930
3 Feb 2020 18:44:23.000,43.692,2.441,2062.449471
3 Feb 2020 18:44:24.000,43.736,2.372,2069.207266
3 Feb 2020 18:44:25.000,43.780,2.304,2075.966291
3 Feb 2020 18:44:26.000,43.823,2.236,2082.726527
3 Feb 2020 18:44:27.000,43.866,2.168,2089.487951
3 Feb 2020 18:44:28.000,43.908,2.101,2096.250549
3 Feb 2020 18:44:29.000,43.951,2.033,2103.014299
3 Feb 2020 18:44:30.000,43.993,1.966,2109.779181
3 Feb 2020 18:44:31.000,44.035,1.899,2116.545174
3 Feb 2020 18:44:32.000,44.076,1.833,2123.312264
3 Feb 2020 18:44:33.000,44.118,1.766,2130.080431
3 Feb 2020 18:44:34.000,44.159,1.700,2136.849653
3 Feb 2020 18:44:35.000,44.200,1.634,2143.619918
3 Feb 2020 18:44:36.000,44.240,1.568,2150.391205
3 Feb 2020 18:44:37.000,44.281,1.502,2157.163495
3 Feb 2020 18:44:38.000,44.321,1.437,2163.936771
3 Feb 2020 18:44:39.000,44.361,1.372,2170.711018
3 Feb 2020 18:44:40.000,44.401,1.307,2177.486217
3 Feb 2020 18:44:41.000,44.440,1.242,2184.262351
3 Feb 2020 18:44:42.000,44.480,1.178,2191.039402
3 Feb 2020 18:44:43.000,44.519,1.113,2197.817357
3 Feb 2020 18:44:44.000,44.558,1.049,2204.596198
3 Feb 2020 18:44:45.000,44.596,0.985,2211.375907
3 Feb 2020 18:44:46.000,44.635,0.922,2218.156468
3 Feb 2020 18:44:47.000,44.673,0.858,2224.937868
3 Feb 2020 18:44:48.000,44.711,0.795,2231.720090
3 Feb 2020 18:44:49.000,44.748,0.731,2238.503117
3 Feb 2020 18:44:50.000,44.786,0.669,2245.286933
3 Feb 2020 18:44:51.000,44.823,0.606,2252.071527
3 Feb 2020 18:44:52.000,44.861,0.543,2258.856881
3 Feb 2020 18:44:53.000,44.897,0.481,2265.642980
3 Feb 2020 18:44:54.000,44.934,0.419,2272.429807
3 Feb 2020 18:44:55.000,44.971,0.356,2279.217352
3 Feb 2020 18:44:56.000,45.007,0.295,2286.005599
3 Feb 2020 18:44:57.000,45.043,0.233,2292.794531
3 Feb 2020 18:44:58.000,45.079,0.171,2299.584138
3 Feb 2020 18:44:59.000,45.115,0.110,2306.374404
