vcc_sched/network/input/aer_odugs_wj2xoh_vcc-b_44431.csv

"Time (UTCG)","Azimuth (deg)","Elevation (deg)","Range (km)"
1 Dec 2019 17:34:44.740,166.759,-0.124,2317.514196
1 Dec 2019 17:34:45.000,166.723,-0.114,2316.329080
1 Dec 2019 17:34:46.000,166.586,-0.073,2311.771107
1 Dec 2019 17:34:47.000,166.448,-0.032,2307.225180
1 Dec 2019 17:34:48.000,166.309,0.009,2302.691378
1 Dec 2019 17:34:49.000,166.170,0.050,2298.169777
1 Dec 2019 17:34:50.000,166.031,0.091,2293.660458
1 Dec 2019 17:34:51.000,165.890,0.132,2289.163495
1 Dec 2019 17:34:52.000,165.750,0.173,2284.678972
1 Dec 2019 17:34:53.000,165.608,0.214,2280.206964
1 Dec 2019 17:34:54.000,165.466,0.255,2275.747554
1 Dec 2019 17:34:55.000,165.324,0.296,2271.300819
1 Dec 2019 17:34:56.000,165.181,0.337,2266.866843
1 Dec 2019 17:34:57.000,165.037,0.378,2262.445704
1 Dec 2019 17:34:58.000,164.893,0.418,2258.037485
1 Dec 2019 17:34:59.000,164.748,0.459,2253.642267
1 Dec 2019 17:35:00.000,164.603,0.500,2249.260132
1 Dec 2019 17:35:01.000,164.457,0.540,2244.891162
1 Dec 2019 17:35:02.000,164.310,0.581,2240.535442
1 Dec 2019 17:35:03.000,164.163,0.621,2236.193052
1 Dec 2019 17:35:04.000,164.016,0.662,2231.864078
1 Dec 2019 17:35:05.000,163.868,0.702,2227.548603
1 Dec 2019 17:35:06.000,163.719,0.743,2223.246711
1 Dec 2019 17:35:07.000,163.569,0.783,2218.958488
1 Dec 2019 17:35:08.000,163.419,0.823,2214.684018
1 Dec 2019 17:35:09.000,163.269,0.864,2210.423388
1 Dec 2019 17:35:10.000,163.118,0.904,2206.176682
1 Dec 2019 17:35:11.000,162.966,0.944,2201.943988
1 Dec 2019 17:35:12.000,162.814,0.984,2197.725390
1 Dec 2019 17:35:13.000,162.661,1.024,2193.520977
1 Dec 2019 17:35:14.000,162.507,1.064,2189.330837
1 Dec 2019 17:35:15.000,162.353,1.104,2185.155055
1 Dec 2019 17:35:16.000,162.199,1.144,2180.993723
1 Dec 2019 17:35:17.000,162.043,1.184,2176.846926
1 Dec 2019 17:35:18.000,161.887,1.223,2172.714753
1 Dec 2019 17:35:19.000,161.731,1.263,2168.597296
1 Dec 2019 17:35:20.000,161.574,1.303,2164.494641
1 Dec 2019 17:35:21.000,161.416,1.342,2160.406880
1 Dec 2019 17:35:22.000,161.258,1.382,2156.334104
1 Dec 2019 17:35:23.000,161.099,1.421,2152.276401
1 Dec 2019 17:35:24.000,160.939,1.461,2148.233862
1 Dec 2019 17:35:25.000,160.779,1.500,2144.206582
1 Dec 2019 17:35:26.000,160.618,1.539,2140.194647
1 Dec 2019 17:35:27.000,160.457,1.579,2136.198154
1 Dec 2019 17:35:28.000,160.295,1.618,2132.217192
1 Dec 2019 17:35:29.000,160.132,1.657,2128.251854
1 Dec 2019 17:35:30.000,159.969,1.696,2124.302233
1 Dec 2019 17:35:31.000,159.805,1.735,2120.368424
1 Dec 2019 17:35:32.000,159.641,1.774,2116.450518
1 Dec 2019 17:35:33.000,159.476,1.812,2112.548609
1 Dec 2019 17:35:34.000,159.310,1.851,2108.662794
1 Dec 2019 17:35:35.000,159.143,1.890,2104.793163
1 Dec 2019 17:35:36.000,158.976,1.928,2100.939814
1 Dec 2019 17:35:37.000,158.809,1.966,2097.102841
1 Dec 2019 17:35:38.000,158.641,2.005,2093.282338
1 Dec 2019 17:35:39.000,158.472,2.043,2089.478402
1 Dec 2019 17:35:40.000,158.302,2.081,2085.691128
1 Dec 2019 17:35:41.000,158.132,2.119,2081.920614
1 Dec 2019 17:35:42.000,157.961,2.157,2078.166954
1 Dec 2019 17:35:43.000,157.790,2.195,2074.430244
1 Dec 2019 17:35:44.000,157.618,2.233,2070.710584
1 Dec 2019 17:35:45.000,157.446,2.271,2067.008070
1 Dec 2019 17:35:46.000,157.272,2.308,2063.322797
1 Dec 2019 17:35:47.000,157.098,2.346,2059.654865
1 Dec 2019 17:35:48.000,156.924,2.383,2056.004370
1 Dec 2019 17:35:49.000,156.749,2.420,2052.371414
1 Dec 2019 17:35:50.000,156.573,2.458,2048.756090
1 Dec 2019 17:35:51.000,156.396,2.495,2045.158499
1 Dec 2019 17:35:52.000,156.219,2.532,2041.578740
1 Dec 2019 17:35:53.000,156.042,2.569,2038.016911
1 Dec 2019 17:35:54.000,155.863,2.605,2034.473113
1 Dec 2019 17:35:55.000,155.684,2.642,2030.947443
1 Dec 2019 17:35:56.000,155.505,2.678,2027.440000
1 Dec 2019 17:35:57.000,155.324,2.715,2023.950885
1 Dec 2019 17:35:58.000,155.144,2.751,2020.480198
1 Dec 2019 17:35:59.000,154.962,2.787,2017.028037
1 Dec 2019 17:36:00.000,154.780,2.823,2013.594505
1 Dec 2019 17:36:01.000,154.597,2.859,2010.179701
1 Dec 2019 17:36:02.000,154.414,2.895,2006.783724
1 Dec 2019 17:36:03.000,154.230,2.931,2003.406675
1 Dec 2019 17:36:04.000,154.045,2.966,2000.048655
1 Dec 2019 17:36:05.000,153.859,3.002,1996.709764
1 Dec 2019 17:36:06.000,153.673,3.037,1993.390104
1 Dec 2019 17:36:07.000,153.487,3.072,1990.089774
1 Dec 2019 17:36:08.000,153.300,3.107,1986.808877
1 Dec 2019 17:36:09.000,153.112,3.142,1983.547514
1 Dec 2019 17:36:10.000,152.923,3.177,1980.305784
1 Dec 2019 17:36:11.000,152.734,3.211,1977.083789
1 Dec 2019 17:36:12.000,152.544,3.246,1973.881630
1 Dec 2019 17:36:13.000,152.354,3.280,1970.699408
1 Dec 2019 17:36:14.000,152.163,3.314,1967.537225
1 Dec 2019 17:36:15.000,151.971,3.348,1964.395181
1 Dec 2019 17:36:16.000,151.779,3.382,1961.273379
1 Dec 2019 17:36:17.000,151.586,3.416,1958.171918
1 Dec 2019 17:36:18.000,151.392,3.449,1955.090901
1 Dec 2019 17:36:19.000,151.198,3.483,1952.030428
1 Dec 2019 17:36:20.000,151.003,3.516,1948.990600
1 Dec 2019 17:36:21.000,150.808,3.549,1945.971519
1 Dec 2019 17:36:22.000,150.612,3.582,1942.973286
1 Dec 2019 17:36:23.000,150.415,3.615,1939.996000
1 Dec 2019 17:36:24.000,150.217,3.647,1937.039764
1 Dec 2019 17:36:25.000,150.019,3.680,1934.104677
1 Dec 2019 17:36:26.000,149.821,3.712,1931.190841
1 Dec 2019 17:36:27.000,149.622,3.744,1928.298355
1 Dec 2019 17:36:28.000,149.422,3.776,1925.427321
1 Dec 2019 17:36:29.000,149.221,3.807,1922.577838
1 Dec 2019 17:36:30.000,149.020,3.839,1919.750006
1 Dec 2019 17:36:31.000,148.819,3.870,1916.943925
1 Dec 2019 17:36:32.000,148.617,3.901,1914.159695
1 Dec 2019 17:36:33.000,148.414,3.932,1911.397415
1 Dec 2019 17:36:34.000,148.210,3.963,1908.657185
1 Dec 2019 17:36:35.000,148.006,3.994,1905.939103
1 Dec 2019 17:36:36.000,147.801,4.024,1903.243267
1 Dec 2019 17:36:37.000,147.596,4.054,1900.569778
1 Dec 2019 17:36:38.000,147.390,4.084,1897.918733
1 Dec 2019 17:36:39.000,147.184,4.114,1895.290230
1 Dec 2019 17:36:40.000,146.977,4.144,1892.684367
1 Dec 2019 17:36:41.000,146.769,4.173,1890.101242
1 Dec 2019 17:36:42.000,146.561,4.202,1887.540950
1 Dec 2019 17:36:43.000,146.352,4.231,1885.003589
1 Dec 2019 17:36:44.000,146.143,4.260,1882.489254
1 Dec 2019 17:36:45.000,145.933,4.288,1879.998044
1 Dec 2019 17:36:46.000,145.722,4.317,1877.530053
1 Dec 2019 17:36:47.000,145.511,4.345,1875.085377
1 Dec 2019 17:36:48.000,145.299,4.373,1872.664110
1 Dec 2019 17:36:49.000,145.087,4.400,1870.266344
1 Dec 2019 17:36:50.000,144.874,4.428,1867.892178
1 Dec 2019 17:36:51.000,144.661,4.455,1865.541704
1 Dec 2019 17:36:52.000,144.447,4.482,1863.215013
1 Dec 2019 17:36:53.000,144.233,4.509,1860.912200
1 Dec 2019 17:36:54.000,144.017,4.535,1858.633354
1 Dec 2019 17:36:55.000,143.802,4.561,1856.378571
1 Dec 2019 17:36:56.000,143.586,4.587,1854.147939
1 Dec 2019 17:36:57.000,143.369,4.613,1851.941550
1 Dec 2019 17:36:58.000,143.152,4.639,1849.759492
1 Dec 2019 17:36:59.000,142.934,4.664,1847.601858
1 Dec 2019 17:37:00.000,142.716,4.689,1845.468734
1 Dec 2019 17:37:01.000,142.497,4.714,1843.360210
1 Dec 2019 17:37:02.000,142.278,4.738,1841.276370
1 Dec 2019 17:37:03.000,142.058,4.763,1839.217307
1 Dec 2019 17:37:04.000,141.838,4.787,1837.183104
1 Dec 2019 17:37:05.000,141.617,4.811,1835.173844
1 Dec 2019 17:37:06.000,141.396,4.834,1833.189618
1 Dec 2019 17:37:07.000,141.174,4.857,1831.230507
1 Dec 2019 17:37:08.000,140.952,4.880,1829.296594
1 Dec 2019 17:37:09.000,140.729,4.903,1827.387964
1 Dec 2019 17:37:10.000,140.505,4.926,1825.504697
1 Dec 2019 17:37:11.000,140.282,4.948,1823.646878
1 Dec 2019 17:37:12.000,140.058,4.970,1821.814585
1 Dec 2019 17:37:13.000,139.833,4.991,1820.007897
1 Dec 2019 17:37:14.000,139.608,5.013,1818.226896
1 Dec 2019 17:37:15.000,139.382,5.034,1816.471660
1 Dec 2019 17:37:16.000,139.156,5.055,1814.742262
1 Dec 2019 17:37:17.000,138.930,5.075,1813.038785
1 Dec 2019 17:37:18.000,138.703,5.096,1811.361300
1 Dec 2019 17:37:19.000,138.475,5.116,1809.709885
1 Dec 2019 17:37:20.000,138.247,5.135,1808.084611
1 Dec 2019 17:37:21.000,138.019,5.155,1806.485556
1 Dec 2019 17:37:22.000,137.790,5.174,1804.912786
1 Dec 2019 17:37:23.000,137.561,5.193,1803.366379
1 Dec 2019 17:37:24.000,137.332,5.211,1801.846399
1 Dec 2019 17:37:25.000,137.102,5.230,1800.352921
1 Dec 2019 17:37:26.000,136.872,5.247,1798.886008
1 Dec 2019 17:37:27.000,136.641,5.265,1797.445732
1 Dec 2019 17:37:28.000,136.410,5.282,1796.032156
1 Dec 2019 17:37:29.000,136.179,5.300,1794.645350
1 Dec 2019 17:37:30.000,135.947,5.316,1793.285372
1 Dec 2019 17:37:31.000,135.715,5.333,1791.952292
1 Dec 2019 17:37:32.000,135.482,5.349,1790.646166
1 Dec 2019 17:37:33.000,135.249,5.365,1789.367061
1 Dec 2019 17:37:34.000,135.016,5.380,1788.115032
1 Dec 2019 17:37:35.000,134.783,5.395,1786.890141
1 Dec 2019 17:37:36.000,134.549,5.410,1785.692448
1 Dec 2019 17:37:37.000,134.315,5.425,1784.522005
1 Dec 2019 17:37:38.000,134.080,5.439,1783.378872
1 Dec 2019 17:37:39.000,133.845,5.453,1782.263099
1 Dec 2019 17:37:40.000,133.610,5.466,1781.174743
1 Dec 2019 17:37:41.000,133.375,5.480,1780.113857
1 Dec 2019 17:37:42.000,133.139,5.493,1779.080488
1 Dec 2019 17:37:43.000,132.903,5.505,1778.074688
1 Dec 2019 17:37:44.000,132.667,5.518,1777.096509
1 Dec 2019 17:37:45.000,132.430,5.530,1776.145992
1 Dec 2019 17:37:46.000,132.193,5.541,1775.223186
1 Dec 2019 17:37:47.000,131.956,5.553,1774.328140
1 Dec 2019 17:37:48.000,131.719,5.564,1773.460891
1 Dec 2019 17:37:49.000,131.481,5.574,1772.621485
1 Dec 2019 17:37:50.000,131.244,5.585,1771.809965
1 Dec 2019 17:37:51.000,131.006,5.595,1771.026366
1 Dec 2019 17:37:52.000,130.767,5.604,1770.270730
1 Dec 2019 17:37:53.000,130.529,5.614,1769.543094
1 Dec 2019 17:37:54.000,130.290,5.623,1768.843496
1 Dec 2019 17:37:55.000,130.052,5.631,1768.171966
1 Dec 2019 17:37:56.000,129.813,5.639,1767.528540
1 Dec 2019 17:37:57.000,129.573,5.647,1766.913251
1 Dec 2019 17:37:58.000,129.334,5.655,1766.326128
1 Dec 2019 17:37:59.000,129.095,5.662,1765.767204
1 Dec 2019 17:38:00.000,128.855,5.669,1765.236502
1 Dec 2019 17:38:01.000,128.615,5.676,1764.734052
1 Dec 2019 17:38:02.000,128.375,5.682,1764.259877
1 Dec 2019 17:38:03.000,128.135,5.688,1763.814004
1 Dec 2019 17:38:04.000,127.895,5.694,1763.396453
1 Dec 2019 17:38:05.000,127.654,5.699,1763.007250
1 Dec 2019 17:38:06.000,127.414,5.704,1762.646409
1 Dec 2019 17:38:07.000,127.173,5.708,1762.313950
1 Dec 2019 17:38:08.000,126.933,5.712,1762.009891
1 Dec 2019 17:38:09.000,126.692,5.716,1761.734247
1 Dec 2019 17:38:10.000,126.451,5.720,1761.487034
1 Dec 2019 17:38:11.000,126.210,5.723,1761.268263
1 Dec 2019 17:38:12.000,125.970,5.726,1761.077947
1 Dec 2019 17:38:13.000,125.729,5.728,1760.916095
1 Dec 2019 17:38:14.000,125.488,5.730,1760.782716
1 Dec 2019 17:38:15.000,125.247,5.732,1760.677817
1 Dec 2019 17:38:16.000,125.005,5.733,1760.601404
1 Dec 2019 17:38:17.000,124.764,5.734,1760.553482
1 Dec 2019 17:38:18.000,124.523,5.735,1760.534054
1 Dec 2019 17:38:19.000,124.282,5.735,1760.543120
1 Dec 2019 17:38:20.000,124.041,5.735,1760.580682
1 Dec 2019 17:38:21.000,123.800,5.735,1760.646738
1 Dec 2019 17:38:22.000,123.559,5.734,1760.741286
1 Dec 2019 17:38:23.000,123.318,5.733,1760.864320
1 Dec 2019 17:38:24.000,123.077,5.732,1761.015837
1 Dec 2019 17:38:25.000,122.836,5.730,1761.195829
1 Dec 2019 17:38:26.000,122.595,5.728,1761.404287
1 Dec 2019 17:38:27.000,122.354,5.725,1761.641202
1 Dec 2019 17:38:28.000,122.114,5.722,1761.906562
1 Dec 2019 17:38:29.000,121.873,5.719,1762.200356
1 Dec 2019 17:38:30.000,121.632,5.716,1762.522569
1 Dec 2019 17:38:31.000,121.392,5.712,1762.873186
1 Dec 2019 17:38:32.000,121.151,5.708,1763.252190
1 Dec 2019 17:38:33.000,120.911,5.703,1763.659563
1 Dec 2019 17:38:34.000,120.671,5.698,1764.095283
1 Dec 2019 17:38:35.000,120.431,5.693,1764.559334
1 Dec 2019 17:38:36.000,120.191,5.687,1765.051691
1 Dec 2019 17:38:37.000,119.951,5.681,1765.572331
1 Dec 2019 17:38:38.000,119.712,5.675,1766.121228
1 Dec 2019 17:38:39.000,119.472,5.668,1766.698357
1 Dec 2019 17:38:40.000,119.233,5.661,1767.303685
1 Dec 2019 17:38:41.000,118.994,5.654,1767.937192
1 Dec 2019 17:38:42.000,118.755,5.646,1768.598842
1 Dec 2019 17:38:43.000,118.516,5.638,1769.288605
1 Dec 2019 17:38:44.000,118.278,5.630,1770.006443
1 Dec 2019 17:38:45.000,118.039,5.621,1770.752329
1 Dec 2019 17:38:46.000,117.801,5.612,1771.526224
1 Dec 2019 17:38:47.000,117.563,5.603,1772.328092
1 Dec 2019 17:38:48.000,117.326,5.593,1773.157889
1 Dec 2019 17:38:49.000,117.088,5.583,1774.015584
1 Dec 2019 17:38:50.000,116.851,5.573,1774.901132
1 Dec 2019 17:38:51.000,116.614,5.562,1775.814491
1 Dec 2019 17:38:52.000,116.378,5.551,1776.755615
1 Dec 2019 17:38:53.000,116.141,5.540,1777.724465
1 Dec 2019 17:38:54.000,115.905,5.528,1778.720992
1 Dec 2019 17:38:55.000,115.669,5.516,1779.745146
1 Dec 2019 17:38:56.000,115.434,5.504,1780.796885
1 Dec 2019 17:38:57.000,115.198,5.491,1781.876156
1 Dec 2019 17:38:58.000,114.964,5.478,1782.982906
1 Dec 2019 17:38:59.000,114.729,5.465,1784.117089
1 Dec 2019 17:39:00.000,114.495,5.451,1785.278645
1 Dec 2019 17:39:01.000,114.261,5.437,1786.467527
1 Dec 2019 17:39:02.000,114.027,5.423,1787.683676
1 Dec 2019 17:39:03.000,113.793,5.409,1788.927032
1 Dec 2019 17:39:04.000,113.560,5.394,1790.197545
1 Dec 2019 17:39:05.000,113.328,5.378,1791.495149
1 Dec 2019 17:39:06.000,113.095,5.363,1792.819790
1 Dec 2019 17:39:07.000,112.864,5.347,1794.171402
1 Dec 2019 17:39:08.000,112.632,5.331,1795.549930
1 Dec 2019 17:39:09.000,112.401,5.315,1796.955306
1 Dec 2019 17:39:10.000,112.170,5.298,1798.387463
1 Dec 2019 17:39:11.000,111.940,5.281,1799.846343
1 Dec 2019 17:39:12.000,111.709,5.263,1801.331874
1 Dec 2019 17:39:13.000,111.480,5.246,1802.843994
1 Dec 2019 17:39:14.000,111.251,5.228,1804.382629
1 Dec 2019 17:39:15.000,111.022,5.210,1805.947717
1 Dec 2019 17:39:16.000,110.793,5.191,1807.539181
1 Dec 2019 17:39:17.000,110.565,5.172,1809.156957
1 Dec 2019 17:39:18.000,110.338,5.153,1810.800966
1 Dec 2019 17:39:19.000,110.111,5.134,1812.471139
1 Dec 2019 17:39:20.000,109.884,5.114,1814.167405
1 Dec 2019 17:39:21.000,109.658,5.094,1815.889683
1 Dec 2019 17:39:22.000,109.432,5.074,1817.637905
1 Dec 2019 17:39:23.000,109.207,5.053,1819.411987
1 Dec 2019 17:39:24.000,108.982,5.033,1821.211859
1 Dec 2019 17:39:25.000,108.757,5.011,1823.037436
1 Dec 2019 17:39:26.000,108.533,4.990,1824.888643
1 Dec 2019 17:39:27.000,108.310,4.968,1826.765404
1 Dec 2019 17:39:28.000,108.087,4.947,1828.667632
1 Dec 2019 17:39:29.000,107.864,4.924,1830.595248
1 Dec 2019 17:39:30.000,107.642,4.902,1832.548175
1 Dec 2019 17:39:31.000,107.421,4.879,1834.526322
1 Dec 2019 17:39:32.000,107.200,4.856,1836.529611
1 Dec 2019 17:39:33.000,106.979,4.833,1838.557960
1 Dec 2019 17:39:34.000,106.759,4.809,1840.611278
1 Dec 2019 17:39:35.000,106.540,4.786,1842.689483
1 Dec 2019 17:39:36.000,106.321,4.762,1844.792492
1 Dec 2019 17:39:37.000,106.103,4.737,1846.920212
1 Dec 2019 17:39:38.000,105.885,4.713,1849.072559
1 Dec 2019 17:39:39.000,105.667,4.688,1851.249449
1 Dec 2019 17:39:40.000,105.450,4.663,1853.450785
1 Dec 2019 17:39:41.000,105.234,4.638,1855.676483
1 Dec 2019 17:39:42.000,105.018,4.612,1857.926453
1 Dec 2019 17:39:43.000,104.803,4.587,1860.200608
1 Dec 2019 17:39:44.000,104.588,4.561,1862.498849
1 Dec 2019 17:39:45.000,104.374,4.535,1864.821091
1 Dec 2019 17:39:46.000,104.161,4.508,1867.167240
1 Dec 2019 17:39:47.000,103.948,4.481,1869.537208
1 Dec 2019 17:39:48.000,103.735,4.455,1871.930895
1 Dec 2019 17:39:49.000,103.523,4.427,1874.348211
1 Dec 2019 17:39:50.000,103.312,4.400,1876.789064
1 Dec 2019 17:39:51.000,103.101,4.373,1879.253358
1 Dec 2019 17:39:52.000,102.891,4.345,1881.740999
1 Dec 2019 17:39:53.000,102.682,4.317,1884.251896
1 Dec 2019 17:39:54.000,102.473,4.288,1886.785947
1 Dec 2019 17:39:55.000,102.264,4.260,1889.343058
1 Dec 2019 17:39:56.000,102.057,4.231,1891.923136
1 Dec 2019 17:39:57.000,101.849,4.203,1894.526081
1 Dec 2019 17:39:58.000,101.643,4.173,1897.151800
1 Dec 2019 17:39:59.000,101.437,4.144,1899.800193
1 Dec 2019 17:40:00.000,101.231,4.115,1902.471168
1 Dec 2019 17:40:01.000,101.026,4.085,1905.164619
1 Dec 2019 17:40:02.000,100.822,4.055,1907.880452
1 Dec 2019 17:40:03.000,100.618,4.025,1910.618570
1 Dec 2019 17:40:04.000,100.415,3.995,1913.378873
1 Dec 2019 17:40:05.000,100.213,3.964,1916.161264
1 Dec 2019 17:40:06.000,100.011,3.934,1918.965642
1 Dec 2019 17:40:07.000,99.810,3.903,1921.791909
1 Dec 2019 17:40:08.000,99.609,3.872,1924.639967
1 Dec 2019 17:40:09.000,99.409,3.841,1927.509714
1 Dec 2019 17:40:10.000,99.210,3.809,1930.401052
1 Dec 2019 17:40:11.000,99.011,3.778,1933.313881
1 Dec 2019 17:40:12.000,98.813,3.746,1936.248100
1 Dec 2019 17:40:13.000,98.616,3.714,1939.203611
1 Dec 2019 17:40:14.000,98.419,3.682,1942.180312
1 Dec 2019 17:40:15.000,98.223,3.650,1945.178103
1 Dec 2019 17:40:16.000,98.027,3.617,1948.196883
1 Dec 2019 17:40:17.000,97.832,3.585,1951.236553
1 Dec 2019 17:40:18.000,97.638,3.552,1954.297012
1 Dec 2019 17:40:19.000,97.444,3.519,1957.378158
1 Dec 2019 17:40:20.000,97.251,3.486,1960.479892
1 Dec 2019 17:40:21.000,97.059,3.453,1963.602112
1 Dec 2019 17:40:22.000,96.867,3.419,1966.744718
1 Dec 2019 17:40:23.000,96.676,3.386,1969.907608
1 Dec 2019 17:40:24.000,96.485,3.352,1973.090683
1 Dec 2019 17:40:25.000,96.295,3.318,1976.293840
1 Dec 2019 17:40:26.000,96.106,3.284,1979.516980
1 Dec 2019 17:40:27.000,95.917,3.250,1982.760001
1 Dec 2019 17:40:28.000,95.729,3.216,1986.022803
1 Dec 2019 17:40:29.000,95.542,3.181,1989.305285
1 Dec 2019 17:40:30.000,95.355,3.147,1992.607347
1 Dec 2019 17:40:31.000,95.169,3.112,1995.928886
1 Dec 2019 17:40:32.000,94.984,3.077,1999.269801
1 Dec 2019 17:40:33.000,94.799,3.042,2002.629996
1 Dec 2019 17:40:34.000,94.615,3.007,2006.009369
1 Dec 2019 17:40:35.000,94.431,2.972,2009.407818
1 Dec 2019 17:40:36.000,94.248,2.936,2012.825244
1 Dec 2019 17:40:37.000,94.066,2.901,2016.261547
1 Dec 2019 17:40:38.000,93.885,2.865,2019.716626
1 Dec 2019 17:40:39.000,93.704,2.829,2023.190378
1 Dec 2019 17:40:40.000,93.523,2.793,2026.682711
1 Dec 2019 17:40:41.000,93.344,2.757,2030.193521
1 Dec 2019 17:40:42.000,93.165,2.721,2033.722709
1 Dec 2019 17:40:43.000,92.986,2.685,2037.270176
1 Dec 2019 17:40:44.000,92.809,2.649,2040.835823
1 Dec 2019 17:40:45.000,92.632,2.612,2044.419546
1 Dec 2019 17:40:46.000,92.455,2.576,2048.021256
1 Dec 2019 17:40:47.000,92.279,2.539,2051.640848
1 Dec 2019 17:40:48.000,92.104,2.502,2055.278226
1 Dec 2019 17:40:49.000,91.930,2.465,2058.933291
1 Dec 2019 17:40:50.000,91.756,2.428,2062.605941
1 Dec 2019 17:40:51.000,91.582,2.391,2066.296086
1 Dec 2019 17:40:52.000,91.410,2.354,2070.003625
1 Dec 2019 17:40:53.000,91.238,2.316,2073.728460
1 Dec 2019 17:40:54.000,91.067,2.279,2077.470491
1 Dec 2019 17:40:55.000,90.896,2.241,2081.229629
1 Dec 2019 17:40:56.000,90.726,2.204,2085.005773
1 Dec 2019 17:40:57.000,90.556,2.166,2088.798826
1 Dec 2019 17:40:58.000,90.388,2.128,2092.608690
1 Dec 2019 17:40:59.000,90.219,2.090,2096.435276
1 Dec 2019 17:41:00.000,90.052,2.052,2100.278484
1 Dec 2019 17:41:01.000,89.885,2.014,2104.138219
1 Dec 2019 17:41:02.000,89.719,1.976,2108.014383
1 Dec 2019 17:41:03.000,89.553,1.938,2111.906889
1 Dec 2019 17:41:04.000,89.388,1.900,2115.815638
1 Dec 2019 17:41:05.000,89.224,1.861,2119.740532
1 Dec 2019 17:41:06.000,89.060,1.823,2123.681486
1 Dec 2019 17:41:07.000,88.897,1.784,2127.638401
1 Dec 2019 17:41:08.000,88.734,1.745,2131.611182
1 Dec 2019 17:41:09.000,88.572,1.707,2135.599742
1 Dec 2019 17:41:10.000,88.411,1.668,2139.603985
1 Dec 2019 17:41:11.000,88.250,1.629,2143.623816
1 Dec 2019 17:41:12.000,88.090,1.590,2147.659150
1 Dec 2019 17:41:13.000,87.931,1.551,2151.709892
1 Dec 2019 17:41:14.000,87.772,1.512,2155.775946
1 Dec 2019 17:41:15.000,87.614,1.473,2159.857229
1 Dec 2019 17:41:16.000,87.456,1.434,2163.953647
1 Dec 2019 17:41:17.000,87.299,1.394,2168.065106
1 Dec 2019 17:41:18.000,87.143,1.355,2172.191523
1 Dec 2019 17:41:19.000,86.987,1.315,2176.332801
1 Dec 2019 17:41:20.000,86.832,1.276,2180.488860
1 Dec 2019 17:41:21.000,86.677,1.236,2184.659605
1 Dec 2019 17:41:22.000,86.524,1.197,2188.844944
1 Dec 2019 17:41:23.000,86.370,1.157,2193.044798
1 Dec 2019 17:41:24.000,86.217,1.117,2197.259074
1 Dec 2019 17:41:25.000,86.065,1.078,2201.487682
1 Dec 2019 17:41:26.000,85.914,1.038,2205.730541
1 Dec 2019 17:41:27.000,85.763,0.998,2209.987558
1 Dec 2019 17:41:28.000,85.613,0.958,2214.258653
1 Dec 2019 17:41:29.000,85.463,0.918,2218.543734
1 Dec 2019 17:41:30.000,85.314,0.878,2222.842722
1 Dec 2019 17:41:31.000,85.165,0.838,2227.155527
1 Dec 2019 17:41:32.000,85.017,0.798,2231.482062
1 Dec 2019 17:41:33.000,84.870,0.758,2235.822250
1 Dec 2019 17:41:34.000,84.723,0.717,2240.175998
1 Dec 2019 17:41:35.000,84.577,0.677,2244.543231
1 Dec 2019 17:41:36.000,84.431,0.637,2248.923858
1 Dec 2019 17:41:37.000,84.286,0.596,2253.317803
1 Dec 2019 17:41:38.000,84.141,0.556,2257.724976
1 Dec 2019 17:41:39.000,83.998,0.516,2262.145302
1 Dec 2019 17:41:40.000,83.854,0.475,2266.578693
1 Dec 2019 17:41:41.000,83.711,0.435,2271.025074
1 Dec 2019 17:41:42.000,83.569,0.394,2275.484357
1 Dec 2019 17:41:43.000,83.428,0.353,2279.956468
1 Dec 2019 17:41:44.000,83.287,0.313,2284.441320
1 Dec 2019 17:41:45.000,83.146,0.272,2288.938841
1 Dec 2019 17:41:46.000,83.006,0.232,2293.448942
1 Dec 2019 17:41:47.000,82.867,0.191,2297.971554
1 Dec 2019 17:41:48.000,82.728,0.150,2302.506589
1 Dec 2019 17:41:49.000,82.590,0.109,2307.053977
1 Dec 2019 17:41:50.000,82.452,0.068,2311.613633
1 Dec 2019 17:41:51.000,82.315,0.028,2316.185485
1 Dec 2019 17:41:52.000,82.178,-0.013,2320.769451
1 Dec 2019 17:41:53.000,82.042,-0.054,2325.365459
1 Dec 2019 17:41:54.000,81.907,-0.095,2329.973428
1 Dec 2019 17:41:54.708,81.811,-0.124,2333.244776
1 Dec 2019 19:08:52.273,225.104,-0.124,2321.303351
1 Dec 2019 19:08:53.000,225.100,-0.079,2316.268731
1 Dec 2019 19:08:54.000,225.095,-0.017,2309.342589
1 Dec 2019 19:08:55.000,225.090,0.046,2302.416494
1 Dec 2019 19:08:56.000,225.085,0.109,2295.490451
1 Dec 2019 19:08:57.000,225.079,0.172,2288.564467
1 Dec 2019 19:08:58.000,225.074,0.235,2281.638554
1 Dec 2019 19:08:59.000,225.069,0.298,2274.712720
1 Dec 2019 19:09:00.000,225.063,0.361,2267.786970
1 Dec 2019 19:09:01.000,225.058,0.425,2260.861320
1 Dec 2019 19:09:02.000,225.053,0.489,2253.935775
1 Dec 2019 19:09:03.000,225.047,0.553,2247.010345
1 Dec 2019 19:09:04.000,225.042,0.618,2240.085036
1 Dec 2019 19:09:05.000,225.036,0.682,2233.159863
1 Dec 2019 19:09:06.000,225.030,0.747,2226.234833
1 Dec 2019 19:09:07.000,225.025,0.812,2219.309952
1 Dec 2019 19:09:08.000,225.019,0.877,2212.385236
1 Dec 2019 19:09:09.000,225.013,0.942,2205.460692
1 Dec 2019 19:09:10.000,225.008,1.008,2198.536326
1 Dec 2019 19:09:11.000,225.002,1.074,2191.612155
1 Dec 2019 19:09:12.000,224.996,1.140,2184.688185
1 Dec 2019 19:09:13.000,224.990,1.206,2177.764424
1 Dec 2019 19:09:14.000,224.984,1.272,2170.840888
1 Dec 2019 19:09:15.000,224.978,1.339,2163.917584
1 Dec 2019 19:09:16.000,224.972,1.406,2156.994523
1 Dec 2019 19:09:17.000,224.966,1.473,2150.071712
1 Dec 2019 19:09:18.000,224.959,1.541,2143.149167
1 Dec 2019 19:09:19.000,224.953,1.608,2136.226897
1 Dec 2019 19:09:20.000,224.947,1.676,2129.304910
1 Dec 2019 19:09:21.000,224.941,1.744,2122.383223
1 Dec 2019 19:09:22.000,224.934,1.812,2115.461842
1 Dec 2019 19:09:23.000,224.928,1.881,2108.540778
1 Dec 2019 19:09:24.000,224.921,1.950,2101.620047
1 Dec 2019 19:09:25.000,224.915,2.019,2094.699658
1 Dec 2019 19:09:26.000,224.908,2.088,2087.779619
1 Dec 2019 19:09:27.000,224.901,2.158,2080.859948
1 Dec 2019 19:09:28.000,224.895,2.228,2073.940653
1 Dec 2019 19:09:29.000,224.888,2.298,2067.021748
1 Dec 2019 19:09:30.000,224.881,2.368,2060.103240
1 Dec 2019 19:09:31.000,224.874,2.439,2053.185149
1 Dec 2019 19:09:32.000,224.867,2.510,2046.267483
1 Dec 2019 19:09:33.000,224.860,2.581,2039.350253
1 Dec 2019 19:09:34.000,224.853,2.652,2032.433476
1 Dec 2019 19:09:35.000,224.846,2.724,2025.517163
1 Dec 2019 19:09:36.000,224.839,2.796,2018.601323
1 Dec 2019 19:09:37.000,224.831,2.868,2011.685976
1 Dec 2019 19:09:38.000,224.824,2.941,2004.771132
1 Dec 2019 19:09:39.000,224.817,3.013,1997.856802
1 Dec 2019 19:09:40.000,224.809,3.087,1990.943004
1 Dec 2019 19:09:41.000,224.802,3.160,1984.029749
1 Dec 2019 19:09:42.000,224.794,3.234,1977.117052
1 Dec 2019 19:09:43.000,224.787,3.308,1970.204925
1 Dec 2019 19:09:44.000,224.779,3.382,1963.293385
1 Dec 2019 19:09:45.000,224.771,3.457,1956.382446
1 Dec 2019 19:09:46.000,224.763,3.531,1949.472119
1 Dec 2019 19:09:47.000,224.755,3.607,1942.562424
1 Dec 2019 19:09:48.000,224.747,3.682,1935.653373
1 Dec 2019 19:09:49.000,224.739,3.758,1928.744979
1 Dec 2019 19:09:50.000,224.731,3.834,1921.837263
1 Dec 2019 19:09:51.000,224.723,3.911,1914.930237
1 Dec 2019 19:09:52.000,224.714,3.988,1908.023914
1 Dec 2019 19:09:53.000,224.706,4.065,1901.118316
1 Dec 2019 19:09:54.000,224.698,4.142,1894.213455
1 Dec 2019 19:09:55.000,224.689,4.220,1887.309349
1 Dec 2019 19:09:56.000,224.681,4.298,1880.406011
1 Dec 2019 19:09:57.000,224.672,4.377,1873.503463
1 Dec 2019 19:09:58.000,224.663,4.456,1866.601719
1 Dec 2019 19:09:59.000,224.654,4.535,1859.700794
1 Dec 2019 19:10:00.000,224.645,4.614,1852.800710
1 Dec 2019 19:10:01.000,224.636,4.694,1845.901482
1 Dec 2019 19:10:02.000,224.627,4.775,1839.003126
1 Dec 2019 19:10:03.000,224.618,4.855,1832.105664
1 Dec 2019 19:10:04.000,224.609,4.936,1825.209113
1 Dec 2019 19:10:05.000,224.599,5.018,1818.313491
1 Dec 2019 19:10:06.000,224.590,5.100,1811.418814
1 Dec 2019 19:10:07.000,224.580,5.182,1804.525106
1 Dec 2019 19:10:08.000,224.571,5.264,1797.632384
1 Dec 2019 19:10:09.000,224.561,5.347,1790.740665
1 Dec 2019 19:10:10.000,224.551,5.431,1783.849974
1 Dec 2019 19:10:11.000,224.541,5.515,1776.960328
1 Dec 2019 19:10:12.000,224.531,5.599,1770.071745
1 Dec 2019 19:10:13.000,224.521,5.683,1763.184252
1 Dec 2019 19:10:14.000,224.511,5.768,1756.297865
1 Dec 2019 19:10:15.000,224.501,5.854,1749.412607
1 Dec 2019 19:10:16.000,224.491,5.940,1742.528497
1 Dec 2019 19:10:17.000,224.480,6.026,1735.645561
1 Dec 2019 19:10:18.000,224.470,6.113,1728.763819
1 Dec 2019 19:10:19.000,224.459,6.200,1721.883290
1 Dec 2019 19:10:20.000,224.448,6.288,1715.004004
1 Dec 2019 19:10:21.000,224.437,6.376,1708.125980
1 Dec 2019 19:10:22.000,224.426,6.464,1701.249241
1 Dec 2019 19:10:23.000,224.415,6.553,1694.373810
1 Dec 2019 19:10:24.000,224.404,6.643,1687.499714
1 Dec 2019 19:10:25.000,224.392,6.733,1680.626977
1 Dec 2019 19:10:26.000,224.381,6.823,1673.755621
1 Dec 2019 19:10:27.000,224.369,6.914,1666.885675
1 Dec 2019 19:10:28.000,224.358,7.006,1660.017162
1 Dec 2019 19:10:29.000,224.346,7.098,1653.150108
1 Dec 2019 19:10:30.000,224.334,7.190,1646.284541
1 Dec 2019 19:10:31.000,224.322,7.283,1639.420488
1 Dec 2019 19:10:32.000,224.310,7.377,1632.557975
1 Dec 2019 19:10:33.000,224.298,7.471,1625.697027
1 Dec 2019 19:10:34.000,224.285,7.565,1618.837678
1 Dec 2019 19:10:35.000,224.273,7.660,1611.979953
1 Dec 2019 19:10:36.000,224.260,7.756,1605.123878
1 Dec 2019 19:10:37.000,224.247,7.852,1598.269488
1 Dec 2019 19:10:38.000,224.234,7.949,1591.416811
1 Dec 2019 19:10:39.000,224.221,8.046,1584.565877
1 Dec 2019 19:10:40.000,224.208,8.144,1577.716713
1 Dec 2019 19:10:41.000,224.195,8.242,1570.869357
1 Dec 2019 19:10:42.000,224.181,8.341,1564.023837
1 Dec 2019 19:10:43.000,224.167,8.441,1557.180184
1 Dec 2019 19:10:44.000,224.154,8.541,1550.338435
1 Dec 2019 19:10:45.000,224.140,8.642,1543.498621
1 Dec 2019 19:10:46.000,224.126,8.743,1536.660776
1 Dec 2019 19:10:47.000,224.111,8.846,1529.824931
1 Dec 2019 19:10:48.000,224.097,8.948,1522.991128
1 Dec 2019 19:10:49.000,224.083,9.052,1516.159399
1 Dec 2019 19:10:50.000,224.068,9.156,1509.329777
1 Dec 2019 19:10:51.000,224.053,9.260,1502.502306
1 Dec 2019 19:10:52.000,224.038,9.366,1495.677019
1 Dec 2019 19:10:53.000,224.023,9.472,1488.853954
1 Dec 2019 19:10:54.000,224.007,9.579,1482.033148
1 Dec 2019 19:10:55.000,223.992,9.686,1475.214646
1 Dec 2019 19:10:56.000,223.976,9.794,1468.398485
1 Dec 2019 19:10:57.000,223.960,9.903,1461.584705
1 Dec 2019 19:10:58.000,223.944,10.012,1454.773347
1 Dec 2019 19:10:59.000,223.928,10.123,1447.964456
1 Dec 2019 19:11:00.000,223.912,10.234,1441.158073
1 Dec 2019 19:11:01.000,223.895,10.346,1434.354241
1 Dec 2019 19:11:02.000,223.878,10.458,1427.553007
1 Dec 2019 19:11:03.000,223.861,10.572,1420.754415
1 Dec 2019 19:11:04.000,223.844,10.686,1413.958512
1 Dec 2019 19:11:05.000,223.827,10.801,1407.165341
1 Dec 2019 19:11:06.000,223.809,10.916,1400.374955
1 Dec 2019 19:11:07.000,223.791,11.033,1393.587401
1 Dec 2019 19:11:08.000,223.773,11.150,1386.802728
1 Dec 2019 19:11:09.000,223.755,11.269,1380.020984
1 Dec 2019 19:11:10.000,223.736,11.388,1373.242225
1 Dec 2019 19:11:11.000,223.718,11.508,1366.466502
1 Dec 2019 19:11:12.000,223.699,11.629,1359.693868
1 Dec 2019 19:11:13.000,223.680,11.750,1352.924374
1 Dec 2019 19:11:14.000,223.660,11.873,1346.158081
1 Dec 2019 19:11:15.000,223.641,11.997,1339.395044
1 Dec 2019 19:11:16.000,223.621,12.121,1332.635318
1 Dec 2019 19:11:17.000,223.601,12.247,1325.878961
1 Dec 2019 19:11:18.000,223.581,12.373,1319.126038
1 Dec 2019 19:11:19.000,223.560,12.500,1312.376606
1 Dec 2019 19:11:20.000,223.539,12.629,1305.630728
1 Dec 2019 19:11:21.000,223.518,12.758,1298.888464
1 Dec 2019 19:11:22.000,223.497,12.889,1292.149885
1 Dec 2019 19:11:23.000,223.475,13.020,1285.415053
1 Dec 2019 19:11:24.000,223.453,13.153,1278.684036
1 Dec 2019 19:11:25.000,223.431,13.286,1271.956900
1 Dec 2019 19:11:26.000,223.409,13.421,1265.233719
1 Dec 2019 19:11:27.000,223.386,13.557,1258.514562
1 Dec 2019 19:11:28.000,223.363,13.694,1251.799502
1 Dec 2019 19:11:29.000,223.340,13.832,1245.088610
1 Dec 2019 19:11:30.000,223.316,13.971,1238.381968
1 Dec 2019 19:11:31.000,223.292,14.111,1231.679650
1 Dec 2019 19:11:32.000,223.268,14.253,1224.981735
1 Dec 2019 19:11:33.000,223.243,14.396,1218.288301
1 Dec 2019 19:11:34.000,223.218,14.540,1211.599435
1 Dec 2019 19:11:35.000,223.193,14.685,1204.915218
1 Dec 2019 19:11:36.000,223.167,14.831,1198.235736
1 Dec 2019 19:11:37.000,223.141,14.979,1191.561074
1 Dec 2019 19:11:38.000,223.115,15.128,1184.891327
1 Dec 2019 19:11:39.000,223.088,15.279,1178.226583
1 Dec 2019 19:11:40.000,223.061,15.430,1171.566935
1 Dec 2019 19:11:41.000,223.034,15.584,1164.912479
1 Dec 2019 19:11:42.000,223.006,15.738,1158.263309
1 Dec 2019 19:11:43.000,222.978,15.894,1151.619530
1 Dec 2019 19:11:44.000,222.949,16.052,1144.981241
1 Dec 2019 19:11:45.000,222.920,16.210,1138.348546
1 Dec 2019 19:11:46.000,222.891,16.371,1131.721548
1 Dec 2019 19:11:47.000,222.861,16.533,1125.100361
1 Dec 2019 19:11:48.000,222.831,16.696,1118.485093
1 Dec 2019 19:11:49.000,222.800,16.861,1111.875857
1 Dec 2019 19:11:50.000,222.769,17.028,1105.272770
1 Dec 2019 19:11:51.000,222.737,17.196,1098.675948
1 Dec 2019 19:11:52.000,222.705,17.366,1092.085517
1 Dec 2019 19:11:53.000,222.673,17.537,1085.501599
1 Dec 2019 19:11:54.000,222.640,17.711,1078.924320
1 Dec 2019 19:11:55.000,222.606,17.886,1072.353811
1 Dec 2019 19:11:56.000,222.572,18.062,1065.790201
1 Dec 2019 19:11:57.000,222.537,18.241,1059.233632
1 Dec 2019 19:11:58.000,222.502,18.421,1052.684241
1 Dec 2019 19:11:59.000,222.467,18.603,1046.142170
1 Dec 2019 19:12:00.000,222.430,18.788,1039.607564
1 Dec 2019 19:12:01.000,222.394,18.974,1033.080574
1 Dec 2019 19:12:02.000,222.356,19.162,1026.561349
1 Dec 2019 19:12:03.000,222.318,19.352,1020.050051
1 Dec 2019 19:12:04.000,222.280,19.544,1013.546838
1 Dec 2019 19:12:05.000,222.240,19.738,1007.051875
1 Dec 2019 19:12:06.000,222.201,19.934,1000.565328
1 Dec 2019 19:12:07.000,222.160,20.132,994.087372
1 Dec 2019 19:12:08.000,222.119,20.333,987.618179
1 Dec 2019 19:12:09.000,222.077,20.535,981.157936
1 Dec 2019 19:12:10.000,222.035,20.740,974.706826
1 Dec 2019 19:12:11.000,221.991,20.948,968.265039
1 Dec 2019 19:12:12.000,221.947,21.157,961.832769
1 Dec 2019 19:12:13.000,221.902,21.369,955.410217
1 Dec 2019 19:12:14.000,221.857,21.584,948.997585
1 Dec 2019 19:12:15.000,221.811,21.801,942.595087
1 Dec 2019 19:12:16.000,221.763,22.020,936.202937
1 Dec 2019 19:12:17.000,221.715,22.242,929.821355
1 Dec 2019 19:12:18.000,221.667,22.467,923.450568
1 Dec 2019 19:12:19.000,221.617,22.694,917.090809
1 Dec 2019 19:12:20.000,221.566,22.924,910.742315
1 Dec 2019 19:12:21.000,221.515,23.157,904.405332
1 Dec 2019 19:12:22.000,221.462,23.392,898.080107
1 Dec 2019 19:12:23.000,221.409,23.631,891.766905
1 Dec 2019 19:12:24.000,221.354,23.872,885.465985
1 Dec 2019 19:12:25.000,221.299,24.117,879.177621
1 Dec 2019 19:12:26.000,221.242,24.364,872.902090
1 Dec 2019 19:12:27.000,221.185,24.615,866.639679
1 Dec 2019 19:12:28.000,221.126,24.868,860.390682
1 Dec 2019 19:12:29.000,221.066,25.125,854.155400
1 Dec 2019 19:12:30.000,221.005,25.385,847.934142
1 Dec 2019 19:12:31.000,220.942,25.649,841.727228
1 Dec 2019 19:12:32.000,220.879,25.916,835.534984
1 Dec 2019 19:12:33.000,220.814,26.186,829.357745
1 Dec 2019 19:12:34.000,220.748,26.460,823.195855
1 Dec 2019 19:12:35.000,220.680,26.738,817.049673
1 Dec 2019 19:12:36.000,220.611,27.019,810.919560
1 Dec 2019 19:12:37.000,220.541,27.305,804.805891
1 Dec 2019 19:12:38.000,220.469,27.593,798.709050
1 Dec 2019 19:12:39.000,220.396,27.886,792.629433
1 Dec 2019 19:12:40.000,220.321,28.183,786.567447
1 Dec 2019 19:12:41.000,220.244,28.484,780.523508
1 Dec 2019 19:12:42.000,220.166,28.789,774.498047
1 Dec 2019 19:12:43.000,220.086,29.098,768.491506
1 Dec 2019 19:12:44.000,220.004,29.412,762.504337
1 Dec 2019 19:12:45.000,219.920,29.730,756.537009
1 Dec 2019 19:12:46.000,219.835,30.053,750.590001
1 Dec 2019 19:12:47.000,219.747,30.380,744.663807
1 Dec 2019 19:12:48.000,219.657,30.711,738.758935
1 Dec 2019 19:12:49.000,219.565,31.048,732.875906
1 Dec 2019 19:12:50.000,219.471,31.389,727.015259
1 Dec 2019 19:12:51.000,219.375,31.736,721.177545
1 Dec 2019 19:12:52.000,219.276,32.087,715.363332
1 Dec 2019 19:12:53.000,219.175,32.444,709.573208
1 Dec 2019 19:12:54.000,219.072,32.805,703.807768
1 Dec 2019 19:12:55.000,218.965,33.172,698.067634
1 Dec 2019 19:12:56.000,218.856,33.545,692.353441
1 Dec 2019 19:12:57.000,218.744,33.923,686.665844
1 Dec 2019 19:12:58.000,218.630,34.307,681.005516
1 Dec 2019 19:12:59.000,218.512,34.697,675.373147
1 Dec 2019 19:13:00.000,218.391,35.092,669.769452
1 Dec 2019 19:13:01.000,218.266,35.494,664.195161
1 Dec 2019 19:13:02.000,218.139,35.901,658.651027
1 Dec 2019 19:13:03.000,218.007,36.315,653.137828
1 Dec 2019 19:13:04.000,217.872,36.735,647.656354
1 Dec 2019 19:13:05.000,217.733,37.162,642.207427
1 Dec 2019 19:13:06.000,217.590,37.595,636.791889
1 Dec 2019 19:13:07.000,217.443,38.035,631.410605
1 Dec 2019 19:13:08.000,217.291,38.481,626.064466
1 Dec 2019 19:13:09.000,217.135,38.935,620.754382
1 Dec 2019 19:13:10.000,216.974,39.395,615.481295
1 Dec 2019 19:13:11.000,216.807,39.863,610.246170
1 Dec 2019 19:13:12.000,216.636,40.338,605.049999
1 Dec 2019 19:13:13.000,216.459,40.820,599.893798
1 Dec 2019 19:13:14.000,216.276,41.310,594.778614
1 Dec 2019 19:13:15.000,216.087,41.808,589.705519
1 Dec 2019 19:13:16.000,215.892,42.313,584.675617
1 Dec 2019 19:13:17.000,215.690,42.826,579.690035
1 Dec 2019 19:13:18.000,215.481,43.347,574.749933
1 Dec 2019 19:13:19.000,215.265,43.876,569.856500
1 Dec 2019 19:13:20.000,215.041,44.413,565.010953
1 Dec 2019 19:13:21.000,214.808,44.958,560.214542
1 Dec 2019 19:13:22.000,214.567,45.512,555.468542
1 Dec 2019 19:13:23.000,214.317,46.074,550.774264
1 Dec 2019 19:13:24.000,214.058,46.644,546.133047
1 Dec 2019 19:13:25.000,213.788,47.223,541.546259
1 Dec 2019 19:13:26.000,213.507,47.811,537.015302
1 Dec 2019 19:13:27.000,213.215,48.407,532.541604
1 Dec 2019 19:13:28.000,212.911,49.012,528.126626
1 Dec 2019 19:13:29.000,212.593,49.626,523.771857
1 Dec 2019 19:13:30.000,212.263,50.248,519.478818
1 Dec 2019 19:13:31.000,211.917,50.880,515.249055
1 Dec 2019 19:13:32.000,211.557,51.520,511.084144
1 Dec 2019 19:13:33.000,211.179,52.168,506.985689
1 Dec 2019 19:13:34.000,210.784,52.826,502.955317
1 Dec 2019 19:13:35.000,210.370,53.492,498.994685
1 Dec 2019 19:13:36.000,209.936,54.166,495.105469
1 Dec 2019 19:13:37.000,209.481,54.849,491.289369
1 Dec 2019 19:13:38.000,209.002,55.540,487.548108
1 Dec 2019 19:13:39.000,208.498,56.240,483.883425
1 Dec 2019 19:13:40.000,207.967,56.947,480.297076
1 Dec 2019 19:13:41.000,207.408,57.661,476.790833
1 Dec 2019 19:13:42.000,206.817,58.383,473.366482
1 Dec 2019 19:13:43.000,206.192,59.113,470.025814
1 Dec 2019 19:13:44.000,205.531,59.848,466.770630
1 Dec 2019 19:13:45.000,204.830,60.590,463.602734
1 Dec 2019 19:13:46.000,204.085,61.337,460.523931
1 Dec 2019 19:13:47.000,203.294,62.090,457.536024
1 Dec 2019 19:13:48.000,202.451,62.847,454.640806
1 Dec 2019 19:13:49.000,201.552,63.608,451.840064
1 Dec 2019 19:13:50.000,200.592,64.371,449.135567
1 Dec 2019 19:13:51.000,199.565,65.136,446.529067
1 Dec 2019 19:13:52.000,198.464,65.903,444.022292
1 Dec 2019 19:13:53.000,197.282,66.668,441.616945
1 Dec 2019 19:13:54.000,196.011,67.432,439.314691
1 Dec 2019 19:13:55.000,194.642,68.193,437.117164
1 Dec 2019 19:13:56.000,193.164,68.948,435.025953
1 Dec 2019 19:13:57.000,191.567,69.696,433.042599
1 Dec 2019 19:13:58.000,189.838,70.435,431.168594
1 Dec 2019 19:13:59.000,187.965,71.162,429.405370
1 Dec 2019 19:14:00.000,185.931,71.873,427.754299
1 Dec 2019 19:14:01.000,183.723,72.567,426.216687
1 Dec 2019 19:14:02.000,181.325,73.238,424.793767
1 Dec 2019 19:14:03.000,178.719,73.883,423.486696
1 Dec 2019 19:14:04.000,175.890,74.497,422.296551
1 Dec 2019 19:14:05.000,172.824,75.075,421.224324
1 Dec 2019 19:14:06.000,169.510,75.611,420.270919
1 Dec 2019 19:14:07.000,165.942,76.100,419.437146
1 Dec 2019 19:14:08.000,162.119,76.533,418.723721
1 Dec 2019 19:14:09.000,158.053,76.907,418.131261
1 Dec 2019 19:14:10.000,153.762,77.213,417.660280
1 Dec 2019 19:14:11.000,149.280,77.448,417.311190
1 Dec 2019 19:14:12.000,144.653,77.605,417.084297
1 Dec 2019 19:14:13.000,139.935,77.682,416.979800
1 Dec 2019 19:14:14.000,135.189,77.676,416.997792
1 Dec 2019 19:14:15.000,130.479,77.590,417.138255
1 Dec 2019 19:14:16.000,125.868,77.423,417.401066
1 Dec 2019 19:14:17.000,121.409,77.179,417.785993
1 Dec 2019 19:14:18.000,117.147,76.864,418.292698
1 Dec 2019 19:14:19.000,113.111,76.483,418.920739
1 Dec 2019 19:14:20.000,109.322,76.043,419.669568
1 Dec 2019 19:14:21.000,105.787,75.548,420.538541
1 Dec 2019 19:14:22.000,102.507,75.007,421.526912
1 Dec 2019 19:14:23.000,99.473,74.425,422.633841
1 Dec 2019 19:14:24.000,96.674,73.808,423.858400
1 Dec 2019 19:14:25.000,94.096,73.160,425.199570
1 Dec 2019 19:14:26.000,91.724,72.487,426.656247
1 Dec 2019 19:14:27.000,89.540,71.792,428.227253
1 Dec 2019 19:14:28.000,87.528,71.079,429.911330
1 Dec 2019 19:14:29.000,85.675,70.352,431.707154
1 Dec 2019 19:14:30.000,83.964,69.614,433.613336
1 Dec 2019 19:14:31.000,82.384,68.866,435.628420
1 Dec 2019 19:14:32.000,80.921,68.111,437.750902
1 Dec 2019 19:14:33.000,79.565,67.351,439.979226
1 Dec 2019 19:14:34.000,78.306,66.589,442.311786
1 Dec 2019 19:14:35.000,77.136,65.825,444.746941
1 Dec 2019 19:14:36.000,76.045,65.060,447.283012
1 Dec 2019 19:14:37.000,75.027,64.297,449.918288
1 Dec 2019 19:14:38.000,74.075,63.535,452.651036
1 Dec 2019 19:14:39.000,73.184,62.777,455.479494
1 Dec 2019 19:14:40.000,72.349,62.022,458.401888
1 Dec 2019 19:14:41.000,71.564,61.272,461.416430
1 Dec 2019 19:14:42.000,70.825,60.527,464.521321
1 Dec 2019 19:14:43.000,70.130,59.788,467.714758
1 Dec 2019 19:14:44.000,69.473,59.055,470.994936
1 Dec 2019 19:14:45.000,68.853,58.328,474.360050
1 Dec 2019 19:14:46.000,68.267,57.609,477.808304
1 Dec 2019 19:14:47.000,67.711,56.897,481.337905
1 Dec 2019 19:14:48.000,67.184,56.193,484.947072
1 Dec 2019 19:14:49.000,66.684,55.496,488.634038
1 Dec 2019 19:14:50.000,66.208,54.808,492.397050
1 Dec 2019 19:14:51.000,65.756,54.128,496.234371
1 Dec 2019 19:14:52.000,65.325,53.457,500.144290
1 Dec 2019 19:14:53.000,64.914,52.794,504.125112
1 Dec 2019 19:14:54.000,64.521,52.139,508.175162
1 Dec 2019 19:14:55.000,64.146,51.493,512.292797
1 Dec 2019 19:14:56.000,63.788,50.856,516.476395
1 Dec 2019 19:14:57.000,63.444,50.228,520.724357
1 Dec 2019 19:14:58.000,63.116,49.608,525.035120
1 Dec 2019 19:14:59.000,62.800,48.997,529.407140
1 Dec 2019 19:15:00.000,62.498,48.395,533.838912
1 Dec 2019 19:15:01.000,62.208,47.802,538.328949
1 Dec 2019 19:15:02.000,61.928,47.217,542.875804
1 Dec 2019 19:15:03.000,61.660,46.640,547.478052
1 Dec 2019 19:15:04.000,61.402,46.073,552.134306
1 Dec 2019 19:15:05.000,61.153,45.513,556.843201
1 Dec 2019 19:15:06.000,60.913,44.962,561.603411
1 Dec 2019 19:15:07.000,60.682,44.420,566.413633
1 Dec 2019 19:15:08.000,60.460,43.885,571.272599
1 Dec 2019 19:15:09.000,60.244,43.359,576.179072
1 Dec 2019 19:15:10.000,60.037,42.840,581.131839
1 Dec 2019 19:15:11.000,59.836,42.330,586.129721
1 Dec 2019 19:15:12.000,59.642,41.827,591.171570
1 Dec 2019 19:15:13.000,59.454,41.332,596.256261
1 Dec 2019 19:15:14.000,59.272,40.845,601.382703
1 Dec 2019 19:15:15.000,59.096,40.365,606.549833
1 Dec 2019 19:15:16.000,58.925,39.892,611.756608
1 Dec 2019 19:15:17.000,58.760,39.426,617.002022
1 Dec 2019 19:15:18.000,58.600,38.968,622.285090
1 Dec 2019 19:15:19.000,58.444,38.517,627.604857
1 Dec 2019 19:15:20.000,58.293,38.072,632.960388
1 Dec 2019 19:15:21.000,58.147,37.635,638.350776
1 Dec 2019 19:15:22.000,58.005,37.203,643.775141
1 Dec 2019 19:15:23.000,57.866,36.779,649.232624
1 Dec 2019 19:15:24.000,57.732,36.361,654.722392
1 Dec 2019 19:15:25.000,57.601,35.949,660.243628
1 Dec 2019 19:15:26.000,57.474,35.543,665.795545
1 Dec 2019 19:15:27.000,57.351,35.144,671.377375
1 Dec 2019 19:15:28.000,57.230,34.750,676.988372
1 Dec 2019 19:15:29.000,57.113,34.362,682.627809
1 Dec 2019 19:15:30.000,56.999,33.980,688.294980
1 Dec 2019 19:15:31.000,56.888,33.604,693.989201
1 Dec 2019 19:15:32.000,56.779,33.233,699.709800
1 Dec 2019 19:15:33.000,56.674,32.867,705.456131
1 Dec 2019 19:15:34.000,56.571,32.507,711.227562
1 Dec 2019 19:15:35.000,56.470,32.152,717.023481
1 Dec 2019 19:15:36.000,56.372,31.802,722.843292
1 Dec 2019 19:15:37.000,56.276,31.458,728.686414
1 Dec 2019 19:15:38.000,56.183,31.118,734.552285
1 Dec 2019 19:15:39.000,56.092,30.783,740.440357
1 Dec 2019 19:15:40.000,56.002,30.452,746.350096
1 Dec 2019 19:15:41.000,55.915,30.127,752.280986
1 Dec 2019 19:15:42.000,55.830,29.806,758.232522
1 Dec 2019 19:15:43.000,55.747,29.489,764.204214
1 Dec 2019 19:15:44.000,55.666,29.177,770.195588
1 Dec 2019 19:15:45.000,55.586,28.869,776.206179
1 Dec 2019 19:15:46.000,55.508,28.565,782.235537
1 Dec 2019 19:15:47.000,55.432,28.265,788.283224
1 Dec 2019 19:15:48.000,55.358,27.970,794.348815
1 Dec 2019 19:15:49.000,55.285,27.678,800.431894
1 Dec 2019 19:15:50.000,55.214,27.390,806.532059
1 Dec 2019 19:15:51.000,55.144,27.106,812.648918
1 Dec 2019 19:15:52.000,55.075,26.826,818.782088
1 Dec 2019 19:15:53.000,55.008,26.550,824.931199
1 Dec 2019 19:15:54.000,54.943,26.277,831.095890
1 Dec 2019 19:15:55.000,54.878,26.007,837.275807
1 Dec 2019 19:15:56.000,54.815,25.742,843.470610
1 Dec 2019 19:15:57.000,54.754,25.479,849.679966
1 Dec 2019 19:15:58.000,54.693,25.220,855.903549
1 Dec 2019 19:15:59.000,54.634,24.964,862.141045
1 Dec 2019 19:16:00.000,54.575,24.711,868.392145
1 Dec 2019 19:16:01.000,54.518,24.462,874.656548
1 Dec 2019 19:16:02.000,54.462,24.215,880.933968
1 Dec 2019 19:16:03.000,54.407,23.972,887.224119
1 Dec 2019 19:16:04.000,54.353,23.731,893.526723
1 Dec 2019 19:16:05.000,54.300,23.494,899.841511
1 Dec 2019 19:16:06.000,54.248,23.259,906.168221
1 Dec 2019 19:16:07.000,54.197,23.027,912.506598
1 Dec 2019 19:16:08.000,54.147,22.798,918.856392
1 Dec 2019 19:16:09.000,54.098,22.571,925.217360
1 Dec 2019 19:16:10.000,54.050,22.348,931.589264
1 Dec 2019 19:16:11.000,54.002,22.126,937.971877
1 Dec 2019 19:16:12.000,53.955,21.908,944.364972
1 Dec 2019 19:16:13.000,53.910,21.692,950.768331
1 Dec 2019 19:16:14.000,53.864,21.478,957.181739
1 Dec 2019 19:16:15.000,53.820,21.267,963.604988
1 Dec 2019 19:16:16.000,53.777,21.058,970.037875
1 Dec 2019 19:16:17.000,53.734,20.851,976.480198
1 Dec 2019 19:16:18.000,53.692,20.647,982.931770
1 Dec 2019 19:16:19.000,53.651,20.445,989.392399
1 Dec 2019 19:16:20.000,53.610,20.245,995.861901
1 Dec 2019 19:16:21.000,53.570,20.047,1002.340097
1 Dec 2019 19:16:22.000,53.531,19.852,1008.826811
1 Dec 2019 19:16:23.000,53.492,19.658,1015.321872
1 Dec 2019 19:16:24.000,53.454,19.467,1021.825110
1 Dec 2019 19:16:25.000,53.416,19.278,1028.336368
1 Dec 2019 19:16:26.000,53.379,19.090,1034.855484
1 Dec 2019 19:16:27.000,53.343,18.905,1041.382302
1 Dec 2019 19:16:28.000,53.307,18.721,1047.916671
1 Dec 2019 19:16:29.000,53.272,18.540,1054.458439
1 Dec 2019 19:16:30.000,53.238,18.360,1061.007468
1 Dec 2019 19:16:31.000,53.204,18.182,1067.563612
1 Dec 2019 19:16:32.000,53.170,18.006,1074.126734
1 Dec 2019 19:16:33.000,53.137,17.831,1080.696698
1 Dec 2019 19:16:34.000,53.105,17.659,1087.273373
1 Dec 2019 19:16:35.000,53.073,17.488,1093.856627
1 Dec 2019 19:16:36.000,53.041,17.318,1100.446340
1 Dec 2019 19:16:37.000,53.010,17.151,1107.042385
1 Dec 2019 19:16:38.000,52.979,16.985,1113.644641
1 Dec 2019 19:16:39.000,52.949,16.820,1120.252992
1 Dec 2019 19:16:40.000,52.919,16.657,1126.867319
1 Dec 2019 19:16:41.000,52.890,16.496,1133.487514
1 Dec 2019 19:16:42.000,52.861,16.336,1140.113466
1 Dec 2019 19:16:43.000,52.833,16.177,1146.745066
1 Dec 2019 19:16:44.000,52.805,16.020,1153.382209
1 Dec 2019 19:16:45.000,52.777,15.865,1160.024788
1 Dec 2019 19:16:46.000,52.750,15.711,1166.672710
1 Dec 2019 19:16:47.000,52.723,15.558,1173.325871
1 Dec 2019 19:16:48.000,52.697,15.407,1179.984175
1 Dec 2019 19:16:49.000,52.671,15.257,1186.647526
1 Dec 2019 19:16:50.000,52.645,15.108,1193.315835
1 Dec 2019 19:16:51.000,52.619,14.961,1199.989010
1 Dec 2019 19:16:52.000,52.594,14.815,1206.666961
1 Dec 2019 19:16:53.000,52.570,14.670,1213.349602
1 Dec 2019 19:16:54.000,52.545,14.526,1220.036845
1 Dec 2019 19:16:55.000,52.521,14.384,1226.728612
1 Dec 2019 19:16:56.000,52.498,14.243,1233.424819
1 Dec 2019 19:16:57.000,52.474,14.103,1240.125385
1 Dec 2019 19:16:58.000,52.451,13.964,1246.830230
1 Dec 2019 19:16:59.000,52.429,13.826,1253.539282
1 Dec 2019 19:17:00.000,52.406,13.690,1260.252463
1 Dec 2019 19:17:01.000,52.384,13.554,1266.969700
1 Dec 2019 19:17:02.000,52.362,13.420,1273.690917
1 Dec 2019 19:17:03.000,52.341,13.287,1280.416050
1 Dec 2019 19:17:04.000,52.319,13.154,1287.145025
1 Dec 2019 19:17:05.000,52.298,13.023,1293.877776
1 Dec 2019 19:17:06.000,52.278,12.893,1300.614232
1 Dec 2019 19:17:07.000,52.257,12.764,1307.354333
1 Dec 2019 19:17:08.000,52.237,12.636,1314.098014
1 Dec 2019 19:17:09.000,52.217,12.509,1320.845210
1 Dec 2019 19:17:10.000,52.197,12.383,1327.595857
1 Dec 2019 19:17:11.000,52.178,12.258,1334.349900
1 Dec 2019 19:17:12.000,52.159,12.133,1341.107278
1 Dec 2019 19:17:13.000,52.140,12.010,1347.867931
1 Dec 2019 19:17:14.000,52.121,11.888,1354.631800
1 Dec 2019 19:17:15.000,52.103,11.766,1361.398835
1 Dec 2019 19:17:16.000,52.084,11.646,1368.168977
1 Dec 2019 19:17:17.000,52.066,11.526,1374.942172
1 Dec 2019 19:17:18.000,52.049,11.407,1381.718365
1 Dec 2019 19:17:19.000,52.031,11.289,1388.497509
1 Dec 2019 19:17:20.000,52.014,11.172,1395.279550
1 Dec 2019 19:17:21.000,51.996,11.056,1402.064438
1 Dec 2019 19:17:22.000,51.979,10.940,1408.852120
1 Dec 2019 19:17:23.000,51.963,10.826,1415.642555
1 Dec 2019 19:17:24.000,51.946,10.712,1422.435692
1 Dec 2019 19:17:25.000,51.930,10.599,1429.231484
1 Dec 2019 19:17:26.000,51.914,10.486,1436.029882
1 Dec 2019 19:17:27.000,51.898,10.375,1442.830847
1 Dec 2019 19:17:28.000,51.882,10.264,1449.634332
1 Dec 2019 19:17:29.000,51.867,10.154,1456.440290
1 Dec 2019 19:17:30.000,51.851,10.045,1463.248685
1 Dec 2019 19:17:31.000,51.836,9.936,1470.059472
1 Dec 2019 19:17:32.000,51.821,9.828,1476.872609
1 Dec 2019 19:17:33.000,51.806,9.721,1483.688053
1 Dec 2019 19:17:34.000,51.791,9.614,1490.505770
1 Dec 2019 19:17:35.000,51.777,9.509,1497.325717
1 Dec 2019 19:17:36.000,51.763,9.404,1504.147857
1 Dec 2019 19:17:37.000,51.749,9.299,1510.972148
1 Dec 2019 19:17:38.000,51.735,9.195,1517.798560
1 Dec 2019 19:17:39.000,51.721,9.092,1524.627052
1 Dec 2019 19:17:40.000,51.707,8.990,1531.457585
1 Dec 2019 19:17:41.000,51.694,8.888,1538.290130
1 Dec 2019 19:17:42.000,51.680,8.787,1545.124650
1 Dec 2019 19:17:43.000,51.667,8.686,1551.961109
1 Dec 2019 19:17:44.000,51.654,8.586,1558.799472
1 Dec 2019 19:17:45.000,51.641,8.486,1565.639710
1 Dec 2019 19:17:46.000,51.628,8.388,1572.481789
1 Dec 2019 19:17:47.000,51.616,8.289,1579.325673
1 Dec 2019 19:17:48.000,51.603,8.192,1586.171337
1 Dec 2019 19:17:49.000,51.591,8.095,1593.018746
1 Dec 2019 19:17:50.000,51.579,7.998,1599.867870
1 Dec 2019 19:17:51.000,51.567,7.902,1606.718676
1 Dec 2019 19:17:52.000,51.555,7.807,1613.571139
1 Dec 2019 19:17:53.000,51.543,7.712,1620.425229
1 Dec 2019 19:17:54.000,51.531,7.617,1627.280913
1 Dec 2019 19:17:55.000,51.520,7.524,1634.138168
1 Dec 2019 19:17:56.000,51.508,7.430,1640.996964
1 Dec 2019 19:17:57.000,51.497,7.338,1647.857273
1 Dec 2019 19:17:58.000,51.486,7.245,1654.719066
1 Dec 2019 19:17:59.000,51.475,7.154,1661.582322
1 Dec 2019 19:18:00.000,51.464,7.062,1668.447011
1 Dec 2019 19:18:01.000,51.453,6.972,1675.313105
1 Dec 2019 19:18:02.000,51.443,6.881,1682.180583
1 Dec 2019 19:18:03.000,51.432,6.791,1689.049419
1 Dec 2019 19:18:04.000,51.422,6.702,1695.919587
1 Dec 2019 19:18:05.000,51.411,6.613,1702.791061
1 Dec 2019 19:18:06.000,51.401,6.525,1709.663821
1 Dec 2019 19:18:07.000,51.391,6.437,1716.537841
1 Dec 2019 19:18:08.000,51.381,6.349,1723.413096
1 Dec 2019 19:18:09.000,51.371,6.262,1730.289567
1 Dec 2019 19:18:10.000,51.361,6.176,1737.167230
1 Dec 2019 19:18:11.000,51.352,6.090,1744.046062
1 Dec 2019 19:18:12.000,51.342,6.004,1750.926038
1 Dec 2019 19:18:13.000,51.333,5.919,1757.807142
1 Dec 2019 19:18:14.000,51.323,5.834,1764.689350
1 Dec 2019 19:18:15.000,51.314,5.749,1771.572638
1 Dec 2019 19:18:16.000,51.305,5.665,1778.456991
1 Dec 2019 19:18:17.000,51.296,5.582,1785.342385
1 Dec 2019 19:18:18.000,51.287,5.498,1792.228797
1 Dec 2019 19:18:19.000,51.278,5.416,1799.116214
1 Dec 2019 19:18:20.000,51.269,5.333,1806.004612
1 Dec 2019 19:18:21.000,51.261,5.251,1812.893973
1 Dec 2019 19:18:22.000,51.252,5.169,1819.784273
1 Dec 2019 19:18:23.000,51.244,5.088,1826.675500
1 Dec 2019 19:18:24.000,51.235,5.007,1833.567633
1 Dec 2019 19:18:25.000,51.227,4.927,1840.460649
1 Dec 2019 19:18:26.000,51.219,4.847,1847.354537
1 Dec 2019 19:18:27.000,51.210,4.767,1854.249277
1 Dec 2019 19:18:28.000,51.202,4.687,1861.144846
1 Dec 2019 19:18:29.000,51.194,4.608,1868.041233
1 Dec 2019 19:18:30.000,51.187,4.529,1874.938420
1 Dec 2019 19:18:31.000,51.179,4.451,1881.836387
1 Dec 2019 19:18:32.000,51.171,4.373,1888.735116
1 Dec 2019 19:18:33.000,51.163,4.295,1895.634596
1 Dec 2019 19:18:34.000,51.156,4.218,1902.534807
1 Dec 2019 19:18:35.000,51.148,4.141,1909.435731
1 Dec 2019 19:18:36.000,51.141,4.064,1916.337357
1 Dec 2019 19:18:37.000,51.134,3.988,1923.239667
1 Dec 2019 19:18:38.000,51.126,3.912,1930.142641
1 Dec 2019 19:18:39.000,51.119,3.836,1937.046272
1 Dec 2019 19:18:40.000,51.112,3.761,1943.950539
1 Dec 2019 19:18:41.000,51.105,3.686,1950.855429
1 Dec 2019 19:18:42.000,51.098,3.611,1957.760924
1 Dec 2019 19:18:43.000,51.091,3.536,1964.667014
1 Dec 2019 19:18:44.000,51.085,3.462,1971.573683
1 Dec 2019 19:18:45.000,51.078,3.388,1978.480912
1 Dec 2019 19:18:46.000,51.071,3.315,1985.388695
1 Dec 2019 19:18:47.000,51.065,3.241,1992.297013
1 Dec 2019 19:18:48.000,51.058,3.168,1999.205851
1 Dec 2019 19:18:49.000,51.052,3.096,2006.115200
1 Dec 2019 19:18:50.000,51.045,3.023,2013.025044
1 Dec 2019 19:18:51.000,51.039,2.951,2019.935370
1 Dec 2019 19:18:52.000,51.033,2.879,2026.846161
1 Dec 2019 19:18:53.000,51.026,2.808,2033.757410
1 Dec 2019 19:18:54.000,51.020,2.736,2040.669102
1 Dec 2019 19:18:55.000,51.014,2.665,2047.581221
1 Dec 2019 19:18:56.000,51.008,2.595,2054.493760
1 Dec 2019 19:18:57.000,51.002,2.524,2061.406703
1 Dec 2019 19:18:58.000,50.997,2.454,2068.320036
1 Dec 2019 19:18:59.000,50.991,2.384,2075.233752
1 Dec 2019 19:19:00.000,50.985,2.314,2082.147837
1 Dec 2019 19:19:01.000,50.979,2.245,2089.062274
1 Dec 2019 19:19:02.000,50.974,2.176,2095.977059
1 Dec 2019 19:19:03.000,50.968,2.107,2102.892177
1 Dec 2019 19:19:04.000,50.963,2.038,2109.807616
1 Dec 2019 19:19:05.000,50.957,1.969,2116.723362
1 Dec 2019 19:19:06.000,50.952,1.901,2123.639409
1 Dec 2019 19:19:07.000,50.946,1.833,2130.555744
1 Dec 2019 19:19:08.000,50.941,1.766,2137.472352
1 Dec 2019 19:19:09.000,50.936,1.698,2144.389229
1 Dec 2019 19:19:10.000,50.931,1.631,2151.306360
1 Dec 2019 19:19:11.000,50.926,1.564,2158.223732
1 Dec 2019 19:19:12.000,50.921,1.497,2165.141340
1 Dec 2019 19:19:13.000,50.916,1.430,2172.059171
1 Dec 2019 19:19:14.000,50.911,1.364,2178.977212
1 Dec 2019 19:19:15.000,50.906,1.298,2185.895458
1 Dec 2019 19:19:16.000,50.901,1.232,2192.813895
1 Dec 2019 19:19:17.000,50.896,1.166,2199.732514
1 Dec 2019 19:19:18.000,50.891,1.101,2206.651303
1 Dec 2019 19:19:19.000,50.887,1.035,2213.570256
1 Dec 2019 19:19:20.000,50.882,0.970,2220.489362
1 Dec 2019 19:19:21.000,50.877,0.906,2227.408607
1 Dec 2019 19:19:22.000,50.873,0.841,2234.327988
1 Dec 2019 19:19:23.000,50.868,0.776,2241.247493
1 Dec 2019 19:19:24.000,50.864,0.712,2248.167108
1 Dec 2019 19:19:25.000,50.859,0.648,2255.086832
1 Dec 2019 19:19:26.000,50.855,0.584,2262.006651
1 Dec 2019 19:19:27.000,50.851,0.521,2268.926554
1 Dec 2019 19:19:28.000,50.846,0.457,2275.846536
1 Dec 2019 19:19:29.000,50.842,0.394,2282.766588
1 Dec 2019 19:19:30.000,50.838,0.331,2289.686699
1 Dec 2019 19:19:31.000,50.834,0.268,2296.606857
1 Dec 2019 19:19:32.000,50.830,0.206,2303.527061
1 Dec 2019 19:19:33.000,50.826,0.143,2310.447298
1 Dec 2019 19:19:34.000,50.822,0.081,2317.367557
1 Dec 2019 19:19:35.000,50.818,0.019,2324.287835
1 Dec 2019 19:19:36.000,50.814,-0.043,2331.208121
1 Dec 2019 19:19:37.000,50.810,-0.105,2338.128404
1 Dec 2019 19:19:37.317,50.809,-0.124,2340.322733
1 Dec 2019 20:46:17.856,271.958,-0.124,2331.653861
1 Dec 2019 20:46:18.000,271.971,-0.116,2330.795788
1 Dec 2019 20:46:19.000,272.063,-0.063,2324.820052
1 Dec 2019 20:46:20.000,272.155,-0.009,2318.849304
1 Dec 2019 20:46:21.000,272.247,0.045,2312.883588
1 Dec 2019 20:46:22.000,272.340,0.099,2306.922950
1 Dec 2019 20:46:23.000,272.434,0.153,2300.967436
1 Dec 2019 20:46:24.000,272.528,0.207,2295.017093
1 Dec 2019 20:46:25.000,272.622,0.261,2289.071968
1 Dec 2019 20:46:26.000,272.717,0.316,2283.132108
1 Dec 2019 20:46:27.000,272.812,0.370,2277.197561
1 Dec 2019 20:46:28.000,272.908,0.425,2271.268375
1 Dec 2019 20:46:29.000,273.004,0.479,2265.344599
1 Dec 2019 20:46:30.000,273.101,0.534,2259.426283
1 Dec 2019 20:46:31.000,273.198,0.589,2253.513475
1 Dec 2019 20:46:32.000,273.296,0.644,2247.606226
1 Dec 2019 20:46:33.000,273.395,0.699,2241.704587
1 Dec 2019 20:46:34.000,273.493,0.754,2235.808608
1 Dec 2019 20:46:35.000,273.593,0.809,2229.918341
1 Dec 2019 20:46:36.000,273.692,0.864,2224.033839
1 Dec 2019 20:46:37.000,273.793,0.920,2218.155152
1 Dec 2019 20:46:38.000,273.894,0.975,2212.282335
1 Dec 2019 20:46:39.000,273.995,1.031,2206.415441
1 Dec 2019 20:46:40.000,274.097,1.086,2200.554523
1 Dec 2019 20:46:41.000,274.199,1.142,2194.699636
1 Dec 2019 20:46:42.000,274.302,1.198,2188.850835
1 Dec 2019 20:46:43.000,274.406,1.254,2183.008176
1 Dec 2019 20:46:44.000,274.510,1.310,2177.171714
1 Dec 2019 20:46:45.000,274.615,1.366,2171.341506
1 Dec 2019 20:46:46.000,274.720,1.423,2165.517609
1 Dec 2019 20:46:47.000,274.826,1.479,2159.700081
1 Dec 2019 20:46:48.000,274.932,1.536,2153.888979
1 Dec 2019 20:46:49.000,275.039,1.592,2148.084366
1 Dec 2019 20:46:50.000,275.146,1.649,2142.286293
1 Dec 2019 20:46:51.000,275.254,1.706,2136.494825
1 Dec 2019 20:46:52.000,275.363,1.763,2130.710021
1 Dec 2019 20:46:53.000,275.472,1.820,2124.931942
1 Dec 2019 20:46:54.000,275.582,1.877,2119.160650
1 Dec 2019 20:46:55.000,275.692,1.934,2113.396207
1 Dec 2019 20:46:56.000,275.803,1.991,2107.638675
1 Dec 2019 20:46:57.000,275.915,2.049,2101.888118
1 Dec 2019 20:46:58.000,276.027,2.106,2096.144599
1 Dec 2019 20:46:59.000,276.140,2.164,2090.408183
1 Dec 2019 20:47:00.000,276.253,2.222,2084.678934
1 Dec 2019 20:47:01.000,276.367,2.280,2078.956919
1 Dec 2019 20:47:02.000,276.482,2.338,2073.242207
1 Dec 2019 20:47:03.000,276.597,2.396,2067.534858
1 Dec 2019 20:47:04.000,276.713,2.454,2061.834943
1 Dec 2019 20:47:05.000,276.829,2.512,2056.142530
1 Dec 2019 20:47:06.000,276.946,2.571,2050.457688
1 Dec 2019 20:47:07.000,277.064,2.629,2044.780487
1 Dec 2019 20:47:08.000,277.183,2.688,2039.110996
1 Dec 2019 20:47:09.000,277.302,2.746,2033.449287
1 Dec 2019 20:47:10.000,277.422,2.805,2027.795430
1 Dec 2019 20:47:11.000,277.542,2.864,2022.149498
1 Dec 2019 20:47:12.000,277.663,2.923,2016.511568
1 Dec 2019 20:47:13.000,277.785,2.982,2010.881705
1 Dec 2019 20:47:14.000,277.908,3.041,2005.259988
1 Dec 2019 20:47:15.000,278.031,3.101,1999.646491
1 Dec 2019 20:47:16.000,278.155,3.160,1994.041290
1 Dec 2019 20:47:17.000,278.279,3.220,1988.444462
1 Dec 2019 20:47:18.000,278.404,3.280,1982.856083
1 Dec 2019 20:47:19.000,278.530,3.339,1977.276235
1 Dec 2019 20:47:20.000,278.657,3.399,1971.704989
1 Dec 2019 20:47:21.000,278.784,3.459,1966.142429
1 Dec 2019 20:47:22.000,278.912,3.519,1960.588634
1 Dec 2019 20:47:23.000,279.041,3.580,1955.043685
1 Dec 2019 20:47:24.000,279.171,3.640,1949.507664
1 Dec 2019 20:47:25.000,279.301,3.700,1943.980653
1 Dec 2019 20:47:26.000,279.432,3.761,1938.462739
1 Dec 2019 20:47:27.000,279.564,3.822,1932.953999
1 Dec 2019 20:47:28.000,279.697,3.882,1927.454521
1 Dec 2019 20:47:29.000,279.830,3.943,1921.964390
1 Dec 2019 20:47:30.000,279.964,4.004,1916.483694
1 Dec 2019 20:47:31.000,280.099,4.065,1911.012519
1 Dec 2019 20:47:32.000,280.235,4.126,1905.550956
1 Dec 2019 20:47:33.000,280.371,4.188,1900.099089
1 Dec 2019 20:47:34.000,280.508,4.249,1894.657009
1 Dec 2019 20:47:35.000,280.646,4.311,1889.224807
1 Dec 2019 20:47:36.000,280.785,4.372,1883.802576
1 Dec 2019 20:47:37.000,280.925,4.434,1878.390411
1 Dec 2019 20:47:38.000,281.065,4.496,1872.988397
1 Dec 2019 20:47:39.000,281.206,4.558,1867.596633
1 Dec 2019 20:47:40.000,281.348,4.620,1862.215213
1 Dec 2019 20:47:41.000,281.491,4.682,1856.844234
1 Dec 2019 20:47:42.000,281.635,4.744,1851.483795
1 Dec 2019 20:47:43.000,281.780,4.806,1846.133988
1 Dec 2019 20:47:44.000,281.925,4.869,1840.794913
1 Dec 2019 20:47:45.000,282.072,4.931,1835.466672
1 Dec 2019 20:47:46.000,282.219,4.994,1830.149364
1 Dec 2019 20:47:47.000,282.367,5.057,1824.843095
1 Dec 2019 20:47:48.000,282.516,5.119,1819.547959
1 Dec 2019 20:47:49.000,282.665,5.182,1814.264064
1 Dec 2019 20:47:50.000,282.816,5.245,1808.991513
1 Dec 2019 20:47:51.000,282.968,5.309,1803.730416
1 Dec 2019 20:47:52.000,283.120,5.372,1798.480872
1 Dec 2019 20:47:53.000,283.274,5.435,1793.242991
1 Dec 2019 20:47:54.000,283.428,5.499,1788.016882
1 Dec 2019 20:47:55.000,283.583,5.562,1782.802657
1 Dec 2019 20:47:56.000,283.739,5.626,1777.600421
1 Dec 2019 20:47:57.000,283.896,5.689,1772.410286
1 Dec 2019 20:47:58.000,284.054,5.753,1767.232367
1 Dec 2019 20:47:59.000,284.213,5.817,1762.066780
1 Dec 2019 20:48:00.000,284.373,5.881,1756.913631
1 Dec 2019 20:48:01.000,284.534,5.945,1751.773040
1 Dec 2019 20:48:02.000,284.696,6.009,1746.645128
1 Dec 2019 20:48:03.000,284.859,6.074,1741.530004
1 Dec 2019 20:48:04.000,285.022,6.138,1736.427791
1 Dec 2019 20:48:05.000,285.187,6.202,1731.338608
1 Dec 2019 20:48:06.000,285.353,6.267,1726.262580
1 Dec 2019 20:48:07.000,285.520,6.332,1721.199821
1 Dec 2019 20:48:08.000,285.688,6.396,1716.150458
1 Dec 2019 20:48:09.000,285.856,6.461,1711.114620
1 Dec 2019 20:48:10.000,286.026,6.526,1706.092423
1 Dec 2019 20:48:11.000,286.197,6.591,1701.083997
1 Dec 2019 20:48:12.000,286.369,6.656,1696.089475
1 Dec 2019 20:48:13.000,286.542,6.721,1691.108976
1 Dec 2019 20:48:14.000,286.716,6.786,1686.142635
1 Dec 2019 20:48:15.000,286.891,6.851,1681.190586
1 Dec 2019 20:48:16.000,287.067,6.917,1676.252953
1 Dec 2019 20:48:17.000,287.244,6.982,1671.329874
1 Dec 2019 20:48:18.000,287.422,7.047,1666.421487
1 Dec 2019 20:48:19.000,287.602,7.113,1661.527919
1 Dec 2019 20:48:20.000,287.782,7.178,1656.649310
1 Dec 2019 20:48:21.000,287.964,7.244,1651.785804
