vcc_sched/network/input/aer_vtgs_wj2xms_vcc-c_44430.csv

"Time (UTCG)","Azimuth (deg)","Elevation (deg)","Range (km)"
3 Feb 2020 17:17:12.858,203.563,-0.055,2301.431275
3 Feb 2020 17:17:13.000,203.554,-0.047,2300.495826
3 Feb 2020 17:17:14.000,203.496,0.012,2293.920841
3 Feb 2020 17:17:15.000,203.437,0.072,2287.348093
3 Feb 2020 17:17:16.000,203.378,0.131,2280.777608
3 Feb 2020 17:17:17.000,203.319,0.191,2274.209415
3 Feb 2020 17:17:18.000,203.259,0.251,2267.643540
3 Feb 2020 17:17:19.000,203.199,0.311,2261.080014
3 Feb 2020 17:17:20.000,203.138,0.371,2254.518866
3 Feb 2020 17:17:21.000,203.077,0.431,2247.960122
3 Feb 2020 17:17:22.000,203.016,0.492,2241.403813
3 Feb 2020 17:17:23.000,202.954,0.553,2234.849967
3 Feb 2020 17:17:24.000,202.892,0.613,2228.298616
3 Feb 2020 17:17:25.000,202.830,0.674,2221.749789
3 Feb 2020 17:17:26.000,202.767,0.735,2215.203516
3 Feb 2020 17:17:27.000,202.704,0.797,2208.659829
3 Feb 2020 17:17:28.000,202.641,0.858,2202.118759
3 Feb 2020 17:17:29.000,202.577,0.920,2195.580334
3 Feb 2020 17:17:30.000,202.513,0.982,2189.044591
3 Feb 2020 17:17:31.000,202.448,1.044,2182.511559
3 Feb 2020 17:17:32.000,202.383,1.106,2175.981272
3 Feb 2020 17:17:33.000,202.317,1.168,2169.453762
3 Feb 2020 17:17:34.000,202.252,1.231,2162.929062
3 Feb 2020 17:17:35.000,202.185,1.293,2156.407204
3 Feb 2020 17:17:36.000,202.119,1.356,2149.888225
3 Feb 2020 17:17:37.000,202.051,1.419,2143.372159
3 Feb 2020 17:17:38.000,201.984,1.482,2136.859039
3 Feb 2020 17:17:39.000,201.916,1.546,2130.348900
3 Feb 2020 17:17:40.000,201.847,1.609,2123.841778
3 Feb 2020 17:17:41.000,201.779,1.673,2117.337710
3 Feb 2020 17:17:42.000,201.709,1.737,2110.836731
3 Feb 2020 17:17:43.000,201.640,1.801,2104.338878
3 Feb 2020 17:17:44.000,201.569,1.865,2097.844188
3 Feb 2020 17:17:45.000,201.499,1.930,2091.352699
3 Feb 2020 17:17:46.000,201.428,1.995,2084.864446
3 Feb 2020 17:17:47.000,201.356,2.060,2078.379472
3 Feb 2020 17:17:48.000,201.284,2.125,2071.897813
3 Feb 2020 17:17:49.000,201.212,2.190,2065.419508
3 Feb 2020 17:17:50.000,201.139,2.255,2058.944598
3 Feb 2020 17:17:51.000,201.065,2.321,2052.473122
3 Feb 2020 17:17:52.000,200.992,2.387,2046.005121
3 Feb 2020 17:17:53.000,200.917,2.453,2039.540636
3 Feb 2020 17:17:54.000,200.842,2.519,2033.079709
3 Feb 2020 17:17:55.000,200.767,2.586,2026.622381
3 Feb 2020 17:17:56.000,200.691,2.652,2020.168696
3 Feb 2020 17:17:57.000,200.615,2.719,2013.718696
3 Feb 2020 17:17:58.000,200.538,2.786,2007.272424
3 Feb 2020 17:17:59.000,200.460,2.853,2000.829923
3 Feb 2020 17:18:00.000,200.383,2.921,1994.391241
3 Feb 2020 17:18:01.000,200.304,2.989,1987.956421
3 Feb 2020 17:18:02.000,200.225,3.057,1981.525508
3 Feb 2020 17:18:03.000,200.146,3.125,1975.098549
3 Feb 2020 17:18:04.000,200.066,3.193,1968.675591
3 Feb 2020 17:18:05.000,199.985,3.262,1962.256680
3 Feb 2020 17:18:06.000,199.904,3.331,1955.841864
3 Feb 2020 17:18:07.000,199.822,3.400,1949.431192
3 Feb 2020 17:18:08.000,199.740,3.469,1943.024713
3 Feb 2020 17:18:09.000,199.657,3.538,1936.622477
3 Feb 2020 17:18:10.000,199.574,3.608,1930.224533
3 Feb 2020 17:18:11.000,199.490,3.678,1923.830932
3 Feb 2020 17:18:12.000,199.405,3.748,1917.441725
3 Feb 2020 17:18:13.000,199.320,3.819,1911.056964
3 Feb 2020 17:18:14.000,199.234,3.889,1904.676703
3 Feb 2020 17:18:15.000,199.148,3.960,1898.300994
3 Feb 2020 17:18:16.000,199.061,4.031,1891.929892
3 Feb 2020 17:18:17.000,198.974,4.103,1885.563450
3 Feb 2020 17:18:18.000,198.885,4.174,1879.201724
3 Feb 2020 17:18:19.000,198.797,4.246,1872.844770
3 Feb 2020 17:18:20.000,198.707,4.318,1866.492645
3 Feb 2020 17:18:21.000,198.617,4.390,1860.145405
3 Feb 2020 17:18:22.000,198.526,4.463,1853.803110
3 Feb 2020 17:18:23.000,198.435,4.536,1847.465817
3 Feb 2020 17:18:24.000,198.343,4.609,1841.133587
3 Feb 2020 17:18:25.000,198.250,4.682,1834.806479
3 Feb 2020 17:18:26.000,198.157,4.756,1828.484554
3 Feb 2020 17:18:27.000,198.063,4.830,1822.167875
3 Feb 2020 17:18:28.000,197.968,4.904,1815.856504
3 Feb 2020 17:18:29.000,197.873,4.978,1809.550504
3 Feb 2020 17:18:30.000,197.777,5.053,1803.249938
3 Feb 2020 17:18:31.000,197.680,5.128,1796.954874
3 Feb 2020 17:18:32.000,197.582,5.203,1790.665375
3 Feb 2020 17:18:33.000,197.484,5.279,1784.381510
3 Feb 2020 17:18:34.000,197.385,5.354,1778.103344
3 Feb 2020 17:18:35.000,197.285,5.430,1771.830948
3 Feb 2020 17:18:36.000,197.185,5.507,1765.564389
3 Feb 2020 17:18:37.000,197.084,5.583,1759.303738
3 Feb 2020 17:18:38.000,196.982,5.660,1753.049067
3 Feb 2020 17:18:39.000,196.879,5.737,1746.800446
3 Feb 2020 17:18:40.000,196.775,5.815,1740.557950
3 Feb 2020 17:18:41.000,196.671,5.892,1734.321650
3 Feb 2020 17:18:42.000,196.566,5.970,1728.091624
3 Feb 2020 17:18:43.000,196.460,6.049,1721.867947
3 Feb 2020 17:18:44.000,196.353,6.127,1715.650695
3 Feb 2020 17:18:45.000,196.245,6.206,1709.439946
3 Feb 2020 17:18:46.000,196.137,6.285,1703.235780
3 Feb 2020 17:18:47.000,196.028,6.365,1697.038275
3 Feb 2020 17:18:48.000,195.918,6.444,1690.847513
3 Feb 2020 17:18:49.000,195.807,6.525,1684.663576
3 Feb 2020 17:18:50.000,195.695,6.605,1678.486546
3 Feb 2020 17:18:51.000,195.582,6.686,1672.316509
3 Feb 2020 17:18:52.000,195.469,6.767,1666.153550
3 Feb 2020 17:18:53.000,195.354,6.848,1659.997755
3 Feb 2020 17:18:54.000,195.239,6.930,1653.849211
3 Feb 2020 17:18:55.000,195.123,7.012,1647.708008
3 Feb 2020 17:18:56.000,195.005,7.094,1641.574235
3 Feb 2020 17:18:57.000,194.887,7.177,1635.447983
3 Feb 2020 17:18:58.000,194.768,7.259,1629.329346
3 Feb 2020 17:18:59.000,194.648,7.343,1623.218417
3 Feb 2020 17:19:00.000,194.527,7.426,1617.115291
3 Feb 2020 17:19:01.000,194.405,7.510,1611.020064
3 Feb 2020 17:19:02.000,194.282,7.594,1604.932834
3 Feb 2020 17:19:03.000,194.158,7.679,1598.853699
3 Feb 2020 17:19:04.000,194.033,7.764,1592.782761
3 Feb 2020 17:19:05.000,193.907,7.849,1586.720120
3 Feb 2020 17:19:06.000,193.780,7.935,1580.665879
3 Feb 2020 17:19:07.000,193.652,8.021,1574.620143
3 Feb 2020 17:19:08.000,193.523,8.107,1568.583018
3 Feb 2020 17:19:09.000,193.393,8.194,1562.554612
3 Feb 2020 17:19:10.000,193.262,8.281,1556.535032
3 Feb 2020 17:19:11.000,193.129,8.368,1550.524389
3 Feb 2020 17:19:12.000,192.996,8.456,1544.522796
3 Feb 2020 17:19:13.000,192.861,8.544,1538.530365
3 Feb 2020 17:19:14.000,192.725,8.632,1532.547212
3 Feb 2020 17:19:15.000,192.589,8.721,1526.573452
3 Feb 2020 17:19:16.000,192.451,8.810,1520.609204
3 Feb 2020 17:19:17.000,192.311,8.900,1514.654589
3 Feb 2020 17:19:18.000,192.171,8.990,1508.709726
3 Feb 2020 17:19:19.000,192.030,9.080,1502.774741
3 Feb 2020 17:19:20.000,191.887,9.170,1496.849756
3 Feb 2020 17:19:21.000,191.743,9.261,1490.934900
3 Feb 2020 17:19:22.000,191.598,9.353,1485.030300
3 Feb 2020 17:19:23.000,191.451,9.445,1479.136087
3 Feb 2020 17:19:24.000,191.303,9.537,1473.252392
3 Feb 2020 17:19:25.000,191.154,9.629,1467.379350
3 Feb 2020 17:19:26.000,191.004,9.722,1461.517096
3 Feb 2020 17:19:27.000,190.852,9.815,1455.665769
3 Feb 2020 17:19:28.000,190.699,9.909,1449.825507
3 Feb 2020 17:19:29.000,190.545,10.003,1443.996452
3 Feb 2020 17:19:30.000,190.389,10.098,1438.178747
3 Feb 2020 17:19:31.000,190.232,10.192,1432.372539
3 Feb 2020 17:19:32.000,190.074,10.288,1426.577974
3 Feb 2020 17:19:33.000,189.914,10.383,1420.795203
3 Feb 2020 17:19:34.000,189.753,10.479,1415.024378
3 Feb 2020 17:19:35.000,189.590,10.576,1409.265651
3 Feb 2020 17:19:36.000,189.426,10.672,1403.519181
3 Feb 2020 17:19:37.000,189.261,10.770,1397.785124
3 Feb 2020 17:19:38.000,189.094,10.867,1392.063641
3 Feb 2020 17:19:39.000,188.925,10.965,1386.354896
3 Feb 2020 17:19:40.000,188.755,11.064,1380.659053
3 Feb 2020 17:19:41.000,188.583,11.163,1374.976280
3 Feb 2020 17:19:42.000,188.410,11.262,1369.306747
3 Feb 2020 17:19:43.000,188.235,11.361,1363.650626
3 Feb 2020 17:19:44.000,188.059,11.462,1358.008091
3 Feb 2020 17:19:45.000,187.881,11.562,1352.379320
3 Feb 2020 17:19:46.000,187.701,11.663,1346.764492
3 Feb 2020 17:19:47.000,187.520,11.764,1341.163790
3 Feb 2020 17:19:48.000,187.337,11.866,1335.577398
3 Feb 2020 17:19:49.000,187.153,11.968,1330.005504
3 Feb 2020 17:19:50.000,186.966,12.070,1324.448297
3 Feb 2020 17:19:51.000,186.778,12.173,1318.905971
3 Feb 2020 17:19:52.000,186.588,12.277,1313.378720
3 Feb 2020 17:19:53.000,186.397,12.381,1307.866742
3 Feb 2020 17:19:54.000,186.203,12.485,1302.370239
3 Feb 2020 17:19:55.000,186.008,12.589,1296.889414
3 Feb 2020 17:19:56.000,185.811,12.694,1291.424475
3 Feb 2020 17:19:57.000,185.612,12.800,1285.975628
3 Feb 2020 17:19:58.000,185.412,12.905,1280.543088
3 Feb 2020 17:19:59.000,185.209,13.012,1275.127070
3 Feb 2020 17:20:00.000,185.004,13.118,1269.727792
3 Feb 2020 17:20:01.000,184.798,13.225,1264.345474
3 Feb 2020 17:20:02.000,184.589,13.333,1258.980342
3 Feb 2020 17:20:03.000,184.379,13.441,1253.632623
3 Feb 2020 17:20:04.000,184.167,13.549,1248.302546
3 Feb 2020 17:20:05.000,183.952,13.658,1242.990347
3 Feb 2020 17:20:06.000,183.735,13.767,1237.696262
3 Feb 2020 17:20:07.000,183.517,13.876,1232.420531
3 Feb 2020 17:20:08.000,183.296,13.986,1227.163396
3 Feb 2020 17:20:09.000,183.073,14.096,1221.925106
3 Feb 2020 17:20:10.000,182.848,14.207,1216.705910
3 Feb 2020 17:20:11.000,182.621,14.318,1211.506061
3 Feb 2020 17:20:12.000,182.392,14.429,1206.325816
3 Feb 2020 17:20:13.000,182.160,14.541,1201.165436
3 Feb 2020 17:20:14.000,181.926,14.653,1196.025183
3 Feb 2020 17:20:15.000,181.690,14.766,1190.905326
3 Feb 2020 17:20:16.000,181.452,14.878,1185.806134
3 Feb 2020 17:20:17.000,181.211,14.992,1180.727882
3 Feb 2020 17:20:18.000,180.968,15.105,1175.670848
3 Feb 2020 17:20:19.000,180.722,15.219,1170.635312
3 Feb 2020 17:20:20.000,180.474,15.334,1165.621561
3 Feb 2020 17:20:21.000,180.224,15.448,1160.629883
3 Feb 2020 17:20:22.000,179.971,15.563,1155.660569
3 Feb 2020 17:20:23.000,179.716,15.679,1150.713917
3 Feb 2020 17:20:24.000,179.458,15.794,1145.790225
3 Feb 2020 17:20:25.000,179.198,15.910,1140.889798
3 Feb 2020 17:20:26.000,178.935,16.026,1136.012943
3 Feb 2020 17:20:27.000,178.669,16.143,1131.159970
3 Feb 2020 17:20:28.000,178.401,16.260,1126.331195
3 Feb 2020 17:20:29.000,178.131,16.377,1121.526936
3 Feb 2020 17:20:30.000,177.857,16.494,1116.747517
3 Feb 2020 17:20:31.000,177.581,16.612,1111.993262
3 Feb 2020 17:20:32.000,177.302,16.730,1107.264503
3 Feb 2020 17:20:33.000,177.021,16.848,1102.561573
3 Feb 2020 17:20:34.000,176.736,16.967,1097.884810
3 Feb 2020 17:20:35.000,176.449,17.085,1093.234557
3 Feb 2020 17:20:36.000,176.159,17.204,1088.611159
3 Feb 2020 17:20:37.000,175.866,17.323,1084.014965
3 Feb 2020 17:20:38.000,175.570,17.442,1079.446328
3 Feb 2020 17:20:39.000,175.272,17.562,1074.905607
3 Feb 2020 17:20:40.000,174.970,17.681,1070.393162
3 Feb 2020 17:20:41.000,174.665,17.801,1065.909357
3 Feb 2020 17:20:42.000,174.358,17.921,1061.454562
3 Feb 2020 17:20:43.000,174.047,18.041,1057.029150
3 Feb 2020 17:20:44.000,173.734,18.161,1052.633495
3 Feb 2020 17:20:45.000,173.417,18.281,1048.267979
3 Feb 2020 17:20:46.000,173.097,18.402,1043.932984
3 Feb 2020 17:20:47.000,172.774,18.522,1039.628900
3 Feb 2020 17:20:48.000,172.448,18.642,1035.356115
3 Feb 2020 17:20:49.000,172.119,18.763,1031.115025
3 Feb 2020 17:20:50.000,171.786,18.883,1026.906029
3 Feb 2020 17:20:51.000,171.450,19.003,1022.729527
3 Feb 2020 17:20:52.000,171.111,19.124,1018.585926
3 Feb 2020 17:20:53.000,170.769,19.244,1014.475632
3 Feb 2020 17:20:54.000,170.424,19.364,1010.399058
3 Feb 2020 17:20:55.000,170.075,19.484,1006.356621
3 Feb 2020 17:20:56.000,169.722,19.604,1002.348736
3 Feb 2020 17:20:57.000,169.367,19.724,998.375826
3 Feb 2020 17:20:58.000,169.008,19.843,994.438315
3 Feb 2020 17:20:59.000,168.645,19.962,990.536630
3 Feb 2020 17:21:00.000,168.280,20.082,986.671202
3 Feb 2020 17:21:01.000,167.910,20.200,982.842463
3 Feb 2020 17:21:02.000,167.538,20.319,979.050849
3 Feb 2020 17:21:03.000,167.161,20.437,975.296796
3 Feb 2020 17:21:04.000,166.782,20.555,971.580747
3 Feb 2020 17:21:05.000,166.399,20.673,967.903144
3 Feb 2020 17:21:06.000,166.012,20.790,964.264430
3 Feb 2020 17:21:07.000,165.622,20.907,960.665052
3 Feb 2020 17:21:08.000,165.228,21.023,957.105460
3 Feb 2020 17:21:09.000,164.830,21.139,953.586103
3 Feb 2020 17:21:10.000,164.429,21.254,950.107435
3 Feb 2020 17:21:11.000,164.025,21.369,946.669905
3 Feb 2020 17:21:12.000,163.617,21.483,943.273970
3 Feb 2020 17:21:13.000,163.205,21.597,939.920085
3 Feb 2020 17:21:14.000,162.790,21.709,936.608705
3 Feb 2020 17:21:15.000,162.371,21.822,933.340289
3 Feb 2020 17:21:16.000,161.948,21.933,930.115292
3 Feb 2020 17:21:17.000,161.522,22.044,926.934173
3 Feb 2020 17:21:18.000,161.093,22.154,923.797388
3 Feb 2020 17:21:19.000,160.659,22.263,920.705396
3 Feb 2020 17:21:20.000,160.222,22.371,917.658653
3 Feb 2020 17:21:21.000,159.782,22.478,914.657615
3 Feb 2020 17:21:22.000,159.338,22.584,911.702738
3 Feb 2020 17:21:23.000,158.890,22.689,908.794476
3 Feb 2020 17:21:24.000,158.439,22.794,905.933281
3 Feb 2020 17:21:25.000,157.984,22.897,903.119605
3 Feb 2020 17:21:26.000,157.526,22.999,900.353898
3 Feb 2020 17:21:27.000,157.064,23.099,897.636605
3 Feb 2020 17:21:28.000,156.599,23.199,894.968173
3 Feb 2020 17:21:29.000,156.130,23.297,892.349042
3 Feb 2020 17:21:30.000,155.658,23.394,889.779652
3 Feb 2020 17:21:31.000,155.182,23.490,887.260439
3 Feb 2020 17:21:32.000,154.704,23.584,884.791834
3 Feb 2020 17:21:33.000,154.221,23.677,882.374264
3 Feb 2020 17:21:34.000,153.736,23.769,880.008155
3 Feb 2020 17:21:35.000,153.247,23.859,877.693927
3 Feb 2020 17:21:36.000,152.754,23.947,875.431993
3 Feb 2020 17:21:37.000,152.259,24.034,873.222762
3 Feb 2020 17:21:38.000,151.761,24.119,871.066640
3 Feb 2020 17:21:39.000,151.259,24.202,868.964025
3 Feb 2020 17:21:40.000,150.754,24.284,866.915308
3 Feb 2020 17:21:41.000,150.246,24.364,864.920875
3 Feb 2020 17:21:42.000,149.736,24.442,862.981106
3 Feb 2020 17:21:43.000,149.222,24.518,861.096374
3 Feb 2020 17:21:44.000,148.706,24.593,859.267040
3 Feb 2020 17:21:45.000,148.186,24.665,857.493466
3 Feb 2020 17:21:46.000,147.664,24.736,855.775998
3 Feb 2020 17:21:47.000,147.140,24.804,854.114979
3 Feb 2020 17:21:48.000,146.612,24.870,852.510739
3 Feb 2020 17:21:49.000,146.083,24.935,850.963604
3 Feb 2020 17:21:50.000,145.550,24.997,849.473886
3 Feb 2020 17:21:51.000,145.016,25.057,848.041893
3 Feb 2020 17:21:52.000,144.479,25.114,846.667915
3 Feb 2020 17:21:53.000,143.940,25.170,845.352243
3 Feb 2020 17:21:54.000,143.399,25.223,844.095146
3 Feb 2020 17:21:55.000,142.855,25.274,842.896893
3 Feb 2020 17:21:56.000,142.310,25.323,841.757732
3 Feb 2020 17:21:57.000,141.763,25.369,840.677908
3 Feb 2020 17:21:58.000,141.214,25.413,839.657654
3 Feb 2020 17:21:59.000,140.663,25.454,838.697183
3 Feb 2020 17:22:00.000,140.111,25.493,837.796707
3 Feb 2020 17:22:01.000,139.557,25.529,836.956421
3 Feb 2020 17:22:02.000,139.002,25.563,836.176505
3 Feb 2020 17:22:03.000,138.446,25.595,835.457130
3 Feb 2020 17:22:04.000,137.888,25.624,834.798458
3 Feb 2020 17:22:05.000,137.330,25.650,834.200629
3 Feb 2020 17:22:06.000,136.770,25.674,833.663776
3 Feb 2020 17:22:07.000,136.209,25.695,833.188019
3 Feb 2020 17:22:08.000,135.648,25.713,832.773464
3 Feb 2020 17:22:09.000,135.086,25.729,832.420202
3 Feb 2020 17:22:10.000,134.523,25.742,832.128313
3 Feb 2020 17:22:11.000,133.960,25.753,831.897865
3 Feb 2020 17:22:12.000,133.396,25.761,831.728904
3 Feb 2020 17:22:13.000,132.833,25.766,831.621472
3 Feb 2020 17:22:14.000,132.269,25.769,831.575591
3 Feb 2020 17:22:15.000,131.705,25.769,831.591274
3 Feb 2020 17:22:16.000,131.141,25.766,831.668517
3 Feb 2020 17:22:17.000,130.577,25.761,831.807303
3 Feb 2020 17:22:18.000,130.014,25.753,832.007602
3 Feb 2020 17:22:19.000,129.451,25.742,832.269369
3 Feb 2020 17:22:20.000,128.889,25.729,832.592544
3 Feb 2020 17:22:21.000,128.327,25.713,832.977060
3 Feb 2020 17:22:22.000,127.766,25.694,833.422831
3 Feb 2020 17:22:23.000,127.205,25.673,833.929758
3 Feb 2020 17:22:24.000,126.646,25.649,834.497728
3 Feb 2020 17:22:25.000,126.088,25.623,835.126618
3 Feb 2020 17:22:26.000,125.531,25.594,835.816287
3 Feb 2020 17:22:27.000,124.975,25.563,836.566590
3 Feb 2020 17:22:28.000,124.420,25.529,837.377359
3 Feb 2020 17:22:29.000,123.867,25.492,838.248420
3 Feb 2020 17:22:30.000,123.315,25.453,839.179581
3 Feb 2020 17:22:31.000,122.765,25.412,840.170648
3 Feb 2020 17:22:32.000,122.217,25.368,841.221404
3 Feb 2020 17:22:33.000,121.671,25.322,842.331623
3 Feb 2020 17:22:34.000,121.126,25.273,843.501074
3 Feb 2020 17:22:35.000,120.584,25.222,844.729509
3 Feb 2020 17:22:36.000,120.043,25.169,846.016666
3 Feb 2020 17:22:37.000,119.505,25.114,847.362281
3 Feb 2020 17:22:38.000,118.969,25.056,848.766071
3 Feb 2020 17:22:39.000,118.436,24.996,850.227751
3 Feb 2020 17:22:40.000,117.904,24.934,851.747017
3 Feb 2020 17:22:41.000,117.376,24.870,853.323564
3 Feb 2020 17:22:42.000,116.849,24.803,854.957070
3 Feb 2020 17:22:43.000,116.326,24.735,856.647211
3 Feb 2020 17:22:44.000,115.805,24.665,858.393647
3 Feb 2020 17:22:45.000,115.287,24.592,860.196036
3 Feb 2020 17:22:46.000,114.771,24.518,862.054027
3 Feb 2020 17:22:47.000,114.259,24.442,863.967255
3 Feb 2020 17:22:48.000,113.749,24.364,865.935358
3 Feb 2020 17:22:49.000,113.243,24.284,867.957953
3 Feb 2020 17:22:50.000,112.739,24.203,870.034662
3 Feb 2020 17:22:51.000,112.239,24.120,872.165100
3 Feb 2020 17:22:52.000,111.742,24.035,874.348865
3 Feb 2020 17:22:53.000,111.248,23.948,876.585560
3 Feb 2020 17:22:54.000,110.757,23.860,878.874778
3 Feb 2020 17:22:55.000,110.269,23.770,881.216111
3 Feb 2020 17:22:56.000,109.785,23.679,883.609136
3 Feb 2020 17:22:57.000,109.304,23.586,886.053435
3 Feb 2020 17:22:58.000,108.826,23.492,888.548581
3 Feb 2020 17:22:59.000,108.352,23.397,891.094145
3 Feb 2020 17:23:00.000,107.881,23.300,893.689694
3 Feb 2020 17:23:01.000,107.414,23.202,896.334794
3 Feb 2020 17:23:02.000,106.950,23.103,899.028999
3 Feb 2020 17:23:03.000,106.490,23.002,901.771868
3 Feb 2020 17:23:04.000,106.033,22.901,904.562956
3 Feb 2020 17:23:05.000,105.580,22.798,907.401815
3 Feb 2020 17:23:06.000,105.130,22.694,910.287996
3 Feb 2020 17:23:07.000,104.684,22.589,913.221045
3 Feb 2020 17:23:08.000,104.241,22.483,916.200511
3 Feb 2020 17:23:09.000,103.802,22.376,919.225938
3 Feb 2020 17:23:10.000,103.367,22.269,922.296872
3 Feb 2020 17:23:11.000,102.935,22.160,925.412855
3 Feb 2020 17:23:12.000,102.507,22.051,928.573430
3 Feb 2020 17:23:13.000,102.083,21.940,931.778142
3 Feb 2020 17:23:14.000,101.662,21.829,935.026531
3 Feb 2020 17:23:15.000,101.244,21.718,938.318142
3 Feb 2020 17:23:16.000,100.830,21.605,941.652517
3 Feb 2020 17:23:17.000,100.420,21.492,945.029197
3 Feb 2020 17:23:18.000,100.014,21.378,948.447732
3 Feb 2020 17:23:19.000,99.611,21.264,951.907666
3 Feb 2020 17:23:20.000,99.211,21.149,955.408543
3 Feb 2020 17:23:21.000,98.815,21.034,958.949913
3 Feb 2020 17:23:22.000,98.423,20.918,962.531323
3 Feb 2020 17:23:23.000,98.034,20.802,966.152323
3 Feb 2020 17:23:24.000,97.649,20.685,969.812470
3 Feb 2020 17:23:25.000,97.268,20.568,973.511316
3 Feb 2020 17:23:26.000,96.889,20.451,977.248417
3 Feb 2020 17:23:27.000,96.515,20.333,981.023330
3 Feb 2020 17:23:28.000,96.144,20.215,984.835620
3 Feb 2020 17:23:29.000,95.776,20.096,988.684850
3 Feb 2020 17:23:30.000,95.412,19.978,992.570583
3 Feb 2020 17:23:31.000,95.051,19.859,996.492387
3 Feb 2020 17:23:32.000,94.693,19.740,1000.449838
3 Feb 2020 17:23:33.000,94.339,19.621,1004.442509
3 Feb 2020 17:23:34.000,93.988,19.501,1008.469972
3 Feb 2020 17:23:35.000,93.641,19.382,1012.531815
3 Feb 2020 17:23:36.000,93.297,19.262,1016.627617
3 Feb 2020 17:23:37.000,92.956,19.142,1020.756963
3 Feb 2020 17:23:38.000,92.619,19.023,1024.919449
3 Feb 2020 17:23:39.000,92.284,18.903,1029.114661
3 Feb 2020 17:23:40.000,91.953,18.783,1033.342202
3 Feb 2020 17:23:41.000,91.626,18.663,1037.601670
3 Feb 2020 17:23:42.000,91.301,18.543,1041.892665
3 Feb 2020 17:23:43.000,90.979,18.424,1046.214801
3 Feb 2020 17:23:44.000,90.661,18.304,1050.567681
3 Feb 2020 17:23:45.000,90.346,18.184,1054.950927
3 Feb 2020 17:23:46.000,90.034,18.065,1059.364151
3 Feb 2020 17:23:47.000,89.724,17.945,1063.806981
3 Feb 2020 17:23:48.000,89.418,17.826,1068.279036
3 Feb 2020 17:23:49.000,89.115,17.707,1072.779952
3 Feb 2020 17:23:50.000,88.815,17.588,1077.309356
3 Feb 2020 17:23:51.000,88.518,17.469,1081.866892
3 Feb 2020 17:23:52.000,88.223,17.350,1086.452193
3 Feb 2020 17:23:53.000,87.932,17.231,1091.064912
3 Feb 2020 17:23:54.000,87.643,17.113,1095.704689
3 Feb 2020 17:23:55.000,87.357,16.995,1100.371184
3 Feb 2020 17:23:56.000,87.074,16.877,1105.064047
3 Feb 2020 17:23:57.000,86.794,16.759,1109.782944
3 Feb 2020 17:23:58.000,86.517,16.642,1114.527533
3 Feb 2020 17:23:59.000,86.242,16.525,1119.297489
3 Feb 2020 17:24:00.000,85.970,16.408,1124.092476
3 Feb 2020 17:24:01.000,85.701,16.291,1128.912173
3 Feb 2020 17:24:02.000,85.434,16.175,1133.756264
3 Feb 2020 17:24:03.000,85.170,16.059,1138.624423
3 Feb 2020 17:24:04.000,84.908,15.943,1143.516343
3 Feb 2020 17:24:05.000,84.649,15.828,1148.431717
3 Feb 2020 17:24:06.000,84.393,15.713,1153.370233
3 Feb 2020 17:24:07.000,84.139,15.598,1158.331596
3 Feb 2020 17:24:08.000,83.887,15.483,1163.315501
3 Feb 2020 17:24:09.000,83.638,15.369,1168.321658
3 Feb 2020 17:24:10.000,83.392,15.255,1173.349779
3 Feb 2020 17:24:11.000,83.147,15.142,1178.399571
3 Feb 2020 17:24:12.000,82.906,15.029,1183.470754
3 Feb 2020 17:24:13.000,82.666,14.916,1188.563048
3 Feb 2020 17:24:14.000,82.429,14.804,1193.676181
3 Feb 2020 17:24:15.000,82.194,14.692,1198.809874
3 Feb 2020 17:24:16.000,81.961,14.580,1203.963861
3 Feb 2020 17:24:17.000,81.731,14.469,1209.137879
3 Feb 2020 17:24:18.000,81.503,14.358,1214.331661
3 Feb 2020 17:24:19.000,81.277,14.247,1219.544952
3 Feb 2020 17:24:20.000,81.053,14.137,1224.777495
3 Feb 2020 17:24:21.000,80.832,14.027,1230.029043
3 Feb 2020 17:24:22.000,80.612,13.918,1235.299341
3 Feb 2020 17:24:23.000,80.395,13.809,1240.588147
3 Feb 2020 17:24:24.000,80.179,13.700,1245.895220
3 Feb 2020 17:24:25.000,79.966,13.592,1251.220323
3 Feb 2020 17:24:26.000,79.755,13.484,1256.563216
3 Feb 2020 17:24:27.000,79.546,13.377,1261.923669
3 Feb 2020 17:24:28.000,79.338,13.270,1267.301453
3 Feb 2020 17:24:29.000,79.133,13.163,1272.696343
3 Feb 2020 17:24:30.000,78.930,13.057,1278.108119
3 Feb 2020 17:24:31.000,78.728,12.951,1283.536555
3 Feb 2020 17:24:32.000,78.529,12.846,1288.981437
3 Feb 2020 17:24:33.000,78.331,12.741,1294.442551
3 Feb 2020 17:24:34.000,78.135,12.636,1299.919687
3 Feb 2020 17:24:35.000,77.941,12.532,1305.412640
3 Feb 2020 17:24:36.000,77.749,12.429,1310.921198
3 Feb 2020 17:24:37.000,77.559,12.325,1316.445162
3 Feb 2020 17:24:38.000,77.370,12.222,1321.984333
3 Feb 2020 17:24:39.000,77.183,12.120,1327.538514
3 Feb 2020 17:24:40.000,76.998,12.018,1333.107511
3 Feb 2020 17:24:41.000,76.815,11.916,1338.691132
3 Feb 2020 17:24:42.000,76.633,11.815,1344.289193
3 Feb 2020 17:24:43.000,76.453,11.714,1349.901501
3 Feb 2020 17:24:44.000,76.274,11.613,1355.527875
3 Feb 2020 17:24:45.000,76.097,11.513,1361.168135
3 Feb 2020 17:24:46.000,75.922,11.414,1366.822102
3 Feb 2020 17:24:47.000,75.748,11.314,1372.489600
3 Feb 2020 17:24:48.000,75.576,11.216,1378.170457
3 Feb 2020 17:24:49.000,75.406,11.117,1383.864499
3 Feb 2020 17:24:50.000,75.237,11.019,1389.571564
3 Feb 2020 17:24:51.000,75.070,10.921,1395.291477
3 Feb 2020 17:24:52.000,74.904,10.824,1401.024077
3 Feb 2020 17:24:53.000,74.739,10.727,1406.769204
3 Feb 2020 17:24:54.000,74.576,10.631,1412.526697
3 Feb 2020 17:24:55.000,74.415,10.535,1418.296399
3 Feb 2020 17:24:56.000,74.254,10.439,1424.078156
3 Feb 2020 17:24:57.000,74.096,10.344,1429.871813
3 Feb 2020 17:24:58.000,73.939,10.249,1435.677222
3 Feb 2020 17:24:59.000,73.783,10.154,1441.494232
3 Feb 2020 17:25:00.000,73.628,10.060,1447.322697
3 Feb 2020 17:25:01.000,73.475,9.967,1453.162474
3 Feb 2020 17:25:02.000,73.323,9.873,1459.013418
3 Feb 2020 17:25:03.000,73.173,9.780,1464.875390
3 Feb 2020 17:25:04.000,73.023,9.688,1470.748250
3 Feb 2020 17:25:05.000,72.875,9.596,1476.631866
3 Feb 2020 17:25:06.000,72.729,9.504,1482.526096
3 Feb 2020 17:25:07.000,72.583,9.412,1488.430811
3 Feb 2020 17:25:08.000,72.439,9.321,1494.345878
3 Feb 2020 17:25:09.000,72.296,9.231,1500.271170
3 Feb 2020 17:25:10.000,72.155,9.140,1506.206558
3 Feb 2020 17:25:11.000,72.014,9.050,1512.151916
3 Feb 2020 17:25:12.000,71.875,8.961,1518.107122
3 Feb 2020 17:25:13.000,71.737,8.872,1524.072051
3 Feb 2020 17:25:14.000,71.600,8.783,1530.046584
3 Feb 2020 17:25:15.000,71.464,8.694,1536.030602
3 Feb 2020 17:25:16.000,71.330,8.606,1542.023987
3 Feb 2020 17:25:17.000,71.196,8.518,1548.026623
3 Feb 2020 17:25:18.000,71.064,8.431,1554.038397
3 Feb 2020 17:25:19.000,70.932,8.344,1560.059195
3 Feb 2020 17:25:20.000,70.802,8.257,1566.088907
3 Feb 2020 17:25:21.000,70.673,8.171,1572.127424
3 Feb 2020 17:25:22.000,70.545,8.085,1578.174636
3 Feb 2020 17:25:23.000,70.418,7.999,1584.230438
3 Feb 2020 17:25:24.000,70.292,7.914,1590.294724
3 Feb 2020 17:25:25.000,70.167,7.829,1596.367390
3 Feb 2020 17:25:26.000,70.043,7.744,1602.448335
3 Feb 2020 17:25:27.000,69.920,7.660,1608.537457
3 Feb 2020 17:25:28.000,69.799,7.576,1614.634656
3 Feb 2020 17:25:29.000,69.678,7.492,1620.739832
3 Feb 2020 17:25:30.000,69.558,7.409,1626.852893
3 Feb 2020 17:25:31.000,69.439,7.326,1632.973742
3 Feb 2020 17:25:32.000,69.321,7.243,1639.102282
3 Feb 2020 17:25:33.000,69.204,7.161,1645.238423
3 Feb 2020 17:25:34.000,69.088,7.079,1651.382070
3 Feb 2020 17:25:35.000,68.972,6.997,1657.533135
3 Feb 2020 17:25:36.000,68.858,6.916,1663.691527
3 Feb 2020 17:25:37.000,68.745,6.835,1669.857159
3 Feb 2020 17:25:38.000,68.632,6.754,1676.029942
3 Feb 2020 17:25:39.000,68.521,6.673,1682.209792
3 Feb 2020 17:25:40.000,68.410,6.593,1688.396623
3 Feb 2020 17:25:41.000,68.300,6.513,1694.590353
3 Feb 2020 17:25:42.000,68.191,6.434,1700.790897
3 Feb 2020 17:25:43.000,68.083,6.354,1706.998175
3 Feb 2020 17:25:44.000,67.976,6.276,1713.212107
3 Feb 2020 17:25:45.000,67.869,6.197,1719.432612
3 Feb 2020 17:25:46.000,67.763,6.119,1725.659610
3 Feb 2020 17:25:47.000,67.659,6.040,1731.893029
3 Feb 2020 17:25:48.000,67.555,5.963,1738.132791
3 Feb 2020 17:25:49.000,67.451,5.885,1744.378819
3 Feb 2020 17:25:50.000,67.349,5.808,1750.631039
3 Feb 2020 17:25:51.000,67.247,5.731,1756.889378
3 Feb 2020 17:25:52.000,67.146,5.654,1763.153764
3 Feb 2020 17:25:53.000,67.046,5.578,1769.424125
3 Feb 2020 17:25:54.000,66.947,5.502,1775.700390
3 Feb 2020 17:25:55.000,66.848,5.426,1781.982489
3 Feb 2020 17:25:56.000,66.750,5.351,1788.270355
3 Feb 2020 17:25:57.000,66.653,5.275,1794.563918
3 Feb 2020 17:25:58.000,66.556,5.200,1800.863108
3 Feb 2020 17:25:59.000,66.461,5.126,1807.167867
3 Feb 2020 17:26:00.000,66.366,5.051,1813.478125
3 Feb 2020 17:26:01.000,66.271,4.977,1819.793817
3 Feb 2020 17:26:02.000,66.178,4.903,1826.114880
3 Feb 2020 17:26:03.000,66.085,4.829,1832.441251
3 Feb 2020 17:26:04.000,65.993,4.756,1838.772867
3 Feb 2020 17:26:05.000,65.901,4.683,1845.109668
3 Feb 2020 17:26:06.000,65.810,4.610,1851.451593
3 Feb 2020 17:26:07.000,65.720,4.537,1857.798578
3 Feb 2020 17:26:08.000,65.630,4.465,1864.150570
3 Feb 2020 17:26:09.000,65.541,4.392,1870.507510
3 Feb 2020 17:26:10.000,65.453,4.321,1876.869337
3 Feb 2020 17:26:11.000,65.365,4.249,1883.235997
3 Feb 2020 17:26:12.000,65.278,4.177,1889.607431
3 Feb 2020 17:26:13.000,65.192,4.106,1895.983586
3 Feb 2020 17:26:14.000,65.106,4.035,1902.364405
3 Feb 2020 17:26:15.000,65.021,3.965,1908.749831
3 Feb 2020 17:26:16.000,64.936,3.894,1915.139818
3 Feb 2020 17:26:17.000,64.852,3.824,1921.534308
3 Feb 2020 17:26:18.000,64.769,3.754,1927.933251
3 Feb 2020 17:26:19.000,64.686,3.684,1934.336593
3 Feb 2020 17:26:20.000,64.603,3.615,1940.744285
3 Feb 2020 17:26:21.000,64.522,3.545,1947.156275
3 Feb 2020 17:26:22.000,64.441,3.476,1953.572514
3 Feb 2020 17:26:23.000,64.360,3.407,1959.992950
3 Feb 2020 17:26:24.000,64.280,3.339,1966.417539
3 Feb 2020 17:26:25.000,64.201,3.270,1972.846232
3 Feb 2020 17:26:26.000,64.122,3.202,1979.278979
3 Feb 2020 17:26:27.000,64.043,3.134,1985.715736
3 Feb 2020 17:26:28.000,63.966,3.066,1992.156454
3 Feb 2020 17:26:29.000,63.888,2.999,1998.601085
3 Feb 2020 17:26:30.000,63.812,2.931,2005.049590
3 Feb 2020 17:26:31.000,63.735,2.864,2011.501922
3 Feb 2020 17:26:32.000,63.660,2.797,2017.958035
3 Feb 2020 17:26:33.000,63.584,2.730,2024.417886
3 Feb 2020 17:26:34.000,63.510,2.664,2030.881432
3 Feb 2020 17:26:35.000,63.435,2.597,2037.348631
3 Feb 2020 17:26:36.000,63.362,2.531,2043.819436
3 Feb 2020 17:26:37.000,63.289,2.465,2050.293812
3 Feb 2020 17:26:38.000,63.216,2.400,2056.771715
3 Feb 2020 17:26:39.000,63.144,2.334,2063.253105
3 Feb 2020 17:26:40.000,63.072,2.269,2069.737940
3 Feb 2020 17:26:41.000,63.001,2.204,2076.226181
3 Feb 2020 17:26:42.000,62.930,2.139,2082.717785
3 Feb 2020 17:26:43.000,62.859,2.074,2089.212719
3 Feb 2020 17:26:44.000,62.789,2.009,2095.710943
3 Feb 2020 17:26:45.000,62.720,1.945,2102.212417
3 Feb 2020 17:26:46.000,62.651,1.881,2108.717105
3 Feb 2020 17:26:47.000,62.582,1.817,2115.224968
3 Feb 2020 17:26:48.000,62.514,1.753,2121.735967
3 Feb 2020 17:26:49.000,62.447,1.689,2128.250071
3 Feb 2020 17:26:50.000,62.380,1.626,2134.767243
3 Feb 2020 17:26:51.000,62.313,1.563,2141.287444
3 Feb 2020 17:26:52.000,62.246,1.500,2147.810642
3 Feb 2020 17:26:53.000,62.180,1.437,2154.336800
3 Feb 2020 17:26:54.000,62.115,1.374,2160.865882
3 Feb 2020 17:26:55.000,62.050,1.311,2167.397858
3 Feb 2020 17:26:56.000,61.985,1.249,2173.932693
3 Feb 2020 17:26:57.000,61.921,1.187,2180.470353
3 Feb 2020 17:26:58.000,61.857,1.125,2187.010806
3 Feb 2020 17:26:59.000,61.794,1.063,2193.554014
3 Feb 2020 17:27:00.000,61.730,1.001,2200.099953
3 Feb 2020 17:27:01.000,61.668,0.939,2206.648587
3 Feb 2020 17:27:02.000,61.606,0.878,2213.199884
3 Feb 2020 17:27:03.000,61.544,0.817,2219.753814
3 Feb 2020 17:27:04.000,61.482,0.756,2226.310345
3 Feb 2020 17:27:05.000,61.421,0.695,2232.869443
3 Feb 2020 17:27:06.000,61.360,0.634,2239.431085
3 Feb 2020 17:27:07.000,61.300,0.574,2245.995238
3 Feb 2020 17:27:08.000,61.240,0.513,2252.561871
3 Feb 2020 17:27:09.000,61.180,0.453,2259.130956
3 Feb 2020 17:27:10.000,61.121,0.393,2265.702461
3 Feb 2020 17:27:11.000,61.062,0.333,2272.276362
3 Feb 2020 17:27:12.000,61.004,0.273,2278.852628
3 Feb 2020 17:27:13.000,60.945,0.214,2285.431232
3 Feb 2020 17:27:14.000,60.888,0.154,2292.012145
3 Feb 2020 17:27:15.000,60.830,0.095,2298.595336
3 Feb 2020 17:27:16.000,60.773,0.036,2305.180785
3 Feb 2020 17:27:17.000,60.716,-0.023,2311.768462
3 Feb 2020 17:27:17.542,60.685,-0.055,2315.339005
3 Feb 2020 18:53:25.538,253.007,-0.056,2308.435693
3 Feb 2020 18:53:26.000,253.033,-0.028,2305.388415
3 Feb 2020 18:53:27.000,253.090,0.031,2298.796255
3 Feb 2020 18:53:28.000,253.147,0.091,2292.205960
3 Feb 2020 18:53:29.000,253.204,0.150,2285.617550
3 Feb 2020 18:53:30.000,253.262,0.210,2279.031055
3 Feb 2020 18:53:31.000,253.320,0.270,2272.446497
3 Feb 2020 18:53:32.000,253.378,0.331,2265.863900
3 Feb 2020 18:53:33.000,253.437,0.391,2259.283288
3 Feb 2020 18:53:34.000,253.496,0.451,2252.704684
3 Feb 2020 18:53:35.000,253.555,0.512,2246.128119
3 Feb 2020 18:53:36.000,253.615,0.573,2239.553615
3 Feb 2020 18:53:37.000,253.675,0.634,2232.981198
3 Feb 2020 18:53:38.000,253.735,0.695,2226.410895
3 Feb 2020 18:53:39.000,253.796,0.756,2219.842727
3 Feb 2020 18:53:40.000,253.857,0.818,2213.276729
3 Feb 2020 18:53:41.000,253.918,0.879,2206.712924
3 Feb 2020 18:53:42.000,253.980,0.941,2200.151339
3 Feb 2020 18:53:43.000,254.042,1.003,2193.592001
3 Feb 2020 18:53:44.000,254.104,1.065,2187.034939
3 Feb 2020 18:53:45.000,254.167,1.128,2180.480176
3 Feb 2020 18:53:46.000,254.230,1.190,2173.927749
3 Feb 2020 18:53:47.000,254.293,1.253,2167.377682
3 Feb 2020 18:53:48.000,254.357,1.316,2160.830005
3 Feb 2020 18:53:49.000,254.422,1.379,2154.284746
3 Feb 2020 18:53:50.000,254.486,1.442,2147.741932
3 Feb 2020 18:53:51.000,254.551,1.506,2141.201600
3 Feb 2020 18:53:52.000,254.617,1.569,2134.663776
3 Feb 2020 18:53:53.000,254.682,1.633,2128.128492
3 Feb 2020 18:53:54.000,254.749,1.697,2121.595778
3 Feb 2020 18:53:55.000,254.815,1.761,2115.065665
3 Feb 2020 18:53:56.000,254.882,1.826,2108.538181
3 Feb 2020 18:53:57.000,254.950,1.890,2102.013366
3 Feb 2020 18:53:58.000,255.017,1.955,2095.491249
3 Feb 2020 18:53:59.000,255.086,2.020,2088.971862
3 Feb 2020 18:54:00.000,255.154,2.085,2082.455238
3 Feb 2020 18:54:01.000,255.223,2.150,2075.941408
3 Feb 2020 18:54:02.000,255.293,2.216,2069.430411
3 Feb 2020 18:54:03.000,255.363,2.282,2062.922280
3 Feb 2020 18:54:04.000,255.433,2.348,2056.417048
3 Feb 2020 18:54:05.000,255.504,2.414,2049.914752
3 Feb 2020 18:54:06.000,255.575,2.480,2043.415425
3 Feb 2020 18:54:07.000,255.647,2.547,2036.919100
3 Feb 2020 18:54:08.000,255.719,2.614,2030.425822
3 Feb 2020 18:54:09.000,255.792,2.681,2023.935622
3 Feb 2020 18:54:10.000,255.865,2.748,2017.448539
3 Feb 2020 18:54:11.000,255.938,2.815,2010.964610
3 Feb 2020 18:54:12.000,256.012,2.883,2004.483872
3 Feb 2020 18:54:13.000,256.087,2.951,1998.006361
3 Feb 2020 18:54:14.000,256.162,3.019,1991.532123
3 Feb 2020 18:54:15.000,256.237,3.087,1985.061193
3 Feb 2020 18:54:16.000,256.313,3.156,1978.593612
3 Feb 2020 18:54:17.000,256.390,3.225,1972.129419
3 Feb 2020 18:54:18.000,256.466,3.294,1965.668657
3 Feb 2020 18:54:19.000,256.544,3.363,1959.211365
3 Feb 2020 18:54:20.000,256.622,3.433,1952.757582
3 Feb 2020 18:54:21.000,256.700,3.502,1946.307358
3 Feb 2020 18:54:22.000,256.779,3.572,1939.860732
3 Feb 2020 18:54:23.000,256.859,3.642,1933.417747
3 Feb 2020 18:54:24.000,256.939,3.713,1926.978448
3 Feb 2020 18:54:25.000,257.019,3.784,1920.542878
3 Feb 2020 18:54:26.000,257.100,3.854,1914.111079
3 Feb 2020 18:54:27.000,257.182,3.926,1907.683103
3 Feb 2020 18:54:28.000,257.264,3.997,1901.258994
3 Feb 2020 18:54:29.000,257.347,4.069,1894.838798
3 Feb 2020 18:54:30.000,257.430,4.141,1888.422561
3 Feb 2020 18:54:31.000,257.514,4.213,1882.010333
3 Feb 2020 18:54:32.000,257.598,4.285,1875.602161
3 Feb 2020 18:54:33.000,257.683,4.358,1869.198091
3 Feb 2020 18:54:34.000,257.769,4.431,1862.798179
3 Feb 2020 18:54:35.000,257.855,4.504,1856.402473
3 Feb 2020 18:54:36.000,257.942,4.578,1850.011023
3 Feb 2020 18:54:37.000,258.029,4.651,1843.623880
3 Feb 2020 18:54:38.000,258.117,4.725,1837.241098
3 Feb 2020 18:54:39.000,258.206,4.800,1830.862728
3 Feb 2020 18:54:40.000,258.295,4.874,1824.488825
3 Feb 2020 18:54:41.000,258.385,4.949,1818.119439
3 Feb 2020 18:54:42.000,258.475,5.024,1811.754632
3 Feb 2020 18:54:43.000,258.567,5.099,1805.394457
3 Feb 2020 18:54:44.000,258.658,5.175,1799.038968
3 Feb 2020 18:54:45.000,258.751,5.251,1792.688225
3 Feb 2020 18:54:46.000,258.844,5.327,1786.342284
3 Feb 2020 18:54:47.000,258.938,5.404,1780.001204
3 Feb 2020 18:54:48.000,259.032,5.481,1773.665045
3 Feb 2020 18:54:49.000,259.127,5.558,1767.333866
3 Feb 2020 18:54:50.000,259.223,5.635,1761.007726
3 Feb 2020 18:54:51.000,259.319,5.713,1754.686692
3 Feb 2020 18:54:52.000,259.417,5.791,1748.370824
3 Feb 2020 18:54:53.000,259.515,5.869,1742.060185
3 Feb 2020 18:54:54.000,259.613,5.948,1735.754839
3 Feb 2020 18:54:55.000,259.713,6.027,1729.454852
3 Feb 2020 18:54:56.000,259.813,6.106,1723.160290
3 Feb 2020 18:54:57.000,259.914,6.186,1716.871218
3 Feb 2020 18:54:58.000,260.015,6.266,1710.587706
3 Feb 2020 18:54:59.000,260.118,6.346,1704.309817
3 Feb 2020 18:55:00.000,260.221,6.426,1698.037629
3 Feb 2020 18:55:01.000,260.325,6.507,1691.771209
3 Feb 2020 18:55:02.000,260.430,6.589,1685.510628
3 Feb 2020 18:55:03.000,260.535,6.670,1679.255958
3 Feb 2020 18:55:04.000,260.641,6.752,1673.007273
3 Feb 2020 18:55:05.000,260.748,6.834,1666.764647
3 Feb 2020 18:55:06.000,260.856,6.917,1660.528156
3 Feb 2020 18:55:07.000,260.965,6.999,1654.297877
3 Feb 2020 18:55:08.000,261.075,7.083,1648.073885
3 Feb 2020 18:55:09.000,261.185,7.166,1641.856262
3 Feb 2020 18:55:10.000,261.297,7.250,1635.645084
3 Feb 2020 18:55:11.000,261.409,7.334,1629.440431
3 Feb 2020 18:55:12.000,261.522,7.419,1623.242392
3 Feb 2020 18:55:13.000,261.636,7.504,1617.051044
3 Feb 2020 18:55:14.000,261.751,7.589,1610.866474
3 Feb 2020 18:55:15.000,261.867,7.675,1604.688765
3 Feb 2020 18:55:16.000,261.983,7.761,1598.518006
3 Feb 2020 18:55:17.000,262.101,7.848,1592.354282
3 Feb 2020 18:55:18.000,262.220,7.934,1586.197684
3 Feb 2020 18:55:19.000,262.339,8.022,1580.048302
3 Feb 2020 18:55:20.000,262.460,8.109,1573.906227
3 Feb 2020 18:55:21.000,262.581,8.197,1567.771552
3 Feb 2020 18:55:22.000,262.704,8.285,1561.644371
3 Feb 2020 18:55:23.000,262.827,8.374,1555.524780
3 Feb 2020 18:55:24.000,262.952,8.463,1549.412876
3 Feb 2020 18:55:25.000,263.077,8.553,1543.308756
3 Feb 2020 18:55:26.000,263.204,8.643,1537.212521
3 Feb 2020 18:55:27.000,263.332,8.733,1531.124271
3 Feb 2020 18:55:28.000,263.460,8.824,1525.044109
3 Feb 2020 18:55:29.000,263.590,8.915,1518.972139
3 Feb 2020 18:55:30.000,263.721,9.006,1512.908467
3 Feb 2020 18:55:31.000,263.853,9.098,1506.853199
3 Feb 2020 18:55:32.000,263.986,9.190,1500.806444
3 Feb 2020 18:55:33.000,264.120,9.283,1494.768312
3 Feb 2020 18:55:34.000,264.255,9.376,1488.738915
3 Feb 2020 18:55:35.000,264.392,9.470,1482.718366
3 Feb 2020 18:55:36.000,264.529,9.564,1476.706781
3 Feb 2020 18:55:37.000,264.668,9.658,1470.704275
3 Feb 2020 18:55:38.000,264.808,9.753,1464.710968
3 Feb 2020 18:55:39.000,264.949,9.848,1458.726979
3 Feb 2020 18:55:40.000,265.092,9.944,1452.752431
3 Feb 2020 18:55:41.000,265.235,10.040,1446.787447
3 Feb 2020 18:55:42.000,265.380,10.137,1440.832152
3 Feb 2020 18:55:43.000,265.526,10.234,1434.886674
3 Feb 2020 18:55:44.000,265.674,10.332,1428.951142
3 Feb 2020 18:55:45.000,265.823,10.429,1423.025687
3 Feb 2020 18:55:46.000,265.973,10.528,1417.110442
3 Feb 2020 18:55:47.000,266.124,10.627,1411.205543
3 Feb 2020 18:55:48.000,266.277,10.726,1405.311126
3 Feb 2020 18:55:49.000,266.431,10.826,1399.427331
3 Feb 2020 18:55:50.000,266.586,10.926,1393.554298
3 Feb 2020 18:55:51.000,266.743,11.027,1387.692171
3 Feb 2020 18:55:52.000,266.902,11.128,1381.841095
3 Feb 2020 18:55:53.000,267.061,11.230,1376.001217
3 Feb 2020 18:55:54.000,267.223,11.332,1370.172688
3 Feb 2020 18:55:55.000,267.385,11.434,1364.355660
3 Feb 2020 18:55:56.000,267.549,11.538,1358.550286
3 Feb 2020 18:55:57.000,267.715,11.641,1352.756723
3 Feb 2020 18:55:58.000,267.882,11.745,1346.975131
3 Feb 2020 18:55:59.000,268.051,11.850,1341.205669
3 Feb 2020 18:56:00.000,268.221,11.955,1335.448503
3 Feb 2020 18:56:01.000,268.393,12.060,1329.703798
3 Feb 2020 18:56:02.000,268.567,12.166,1323.971726
3 Feb 2020 18:56:03.000,268.742,12.273,1318.252452
3 Feb 2020 18:56:04.000,268.919,12.380,1312.546152
3 Feb 2020 18:56:05.000,269.097,12.487,1306.853003
3 Feb 2020 18:56:06.000,269.277,12.596,1301.173184
3 Feb 2020 18:56:07.000,269.459,12.704,1295.506877
3 Feb 2020 18:56:08.000,269.642,12.813,1289.854266
3 Feb 2020 18:56:09.000,269.828,12.923,1284.215538
3 Feb 2020 18:56:10.000,270.015,13.033,1278.590883
3 Feb 2020 18:56:11.000,270.204,13.143,1272.980494
3 Feb 2020 18:56:12.000,270.394,13.254,1267.384570
3 Feb 2020 18:56:13.000,270.587,13.366,1261.803303
3 Feb 2020 18:56:14.000,270.781,13.478,1256.236898
3 Feb 2020 18:56:15.000,270.977,13.591,1250.685559
3 Feb 2020 18:56:16.000,271.176,13.704,1245.149494
3 Feb 2020 18:56:17.000,271.376,13.818,1239.628915
3 Feb 2020 18:56:18.000,271.578,13.932,1234.124037
3 Feb 2020 18:56:19.000,271.782,14.046,1228.635073
3 Feb 2020 18:56:20.000,271.988,14.162,1223.162244
3 Feb 2020 18:56:21.000,272.196,14.277,1217.705776
3 Feb 2020 18:56:22.000,272.406,14.394,1212.265894
3 Feb 2020 18:56:23.000,272.618,14.510,1206.842830
3 Feb 2020 18:56:24.000,272.833,14.628,1201.436820
3 Feb 2020 18:56:25.000,273.049,14.746,1196.048095
3 Feb 2020 18:56:26.000,273.268,14.864,1190.676899
3 Feb 2020 18:56:27.000,273.489,14.983,1185.323476
3 Feb 2020 18:56:28.000,273.712,15.102,1179.988073
3 Feb 2020 18:56:29.000,273.937,15.222,1174.670947
3 Feb 2020 18:56:30.000,274.165,15.342,1169.372344
3 Feb 2020 18:56:31.000,274.395,15.463,1164.092528
3 Feb 2020 18:56:32.000,274.627,15.585,1158.831761
3 Feb 2020 18:56:33.000,274.862,15.707,1153.590313
3 Feb 2020 18:56:34.000,275.099,15.829,1148.368446
3 Feb 2020 18:56:35.000,275.338,15.952,1143.166439
3 Feb 2020 18:56:36.000,275.580,16.075,1137.984570
3 Feb 2020 18:56:37.000,275.824,16.199,1132.823124
3 Feb 2020 18:56:38.000,276.071,16.324,1127.682381
3 Feb 2020 18:56:39.000,276.321,16.449,1122.562633
3 Feb 2020 18:56:40.000,276.573,16.574,1117.464179
3 Feb 2020 18:56:41.000,276.827,16.700,1112.387310
3 Feb 2020 18:56:42.000,277.085,16.826,1107.332332
3 Feb 2020 18:56:43.000,277.344,16.953,1102.299552
3 Feb 2020 18:56:44.000,277.607,17.080,1097.289283
3 Feb 2020 18:56:45.000,277.873,17.208,1092.301835
3 Feb 2020 18:56:46.000,278.141,17.336,1087.337530
3 Feb 2020 18:56:47.000,278.412,17.465,1082.396696
3 Feb 2020 18:56:48.000,278.686,17.594,1077.479654
3 Feb 2020 18:56:49.000,278.962,17.723,1072.586743
3 Feb 2020 18:56:50.000,279.242,17.853,1067.718293
3 Feb 2020 18:56:51.000,279.524,17.983,1062.874650
3 Feb 2020 18:56:52.000,279.810,18.114,1058.056163
3 Feb 2020 18:56:53.000,280.098,18.245,1053.263175
3 Feb 2020 18:56:54.000,280.390,18.376,1048.496045
3 Feb 2020 18:56:55.000,280.685,18.508,1043.755135
3 Feb 2020 18:56:56.000,280.982,18.640,1039.040803
3 Feb 2020 18:56:57.000,281.283,18.773,1034.353425
3 Feb 2020 18:56:58.000,281.587,18.905,1029.693366
3 Feb 2020 18:56:59.000,281.894,19.039,1025.061010
3 Feb 2020 18:57:00.000,282.205,19.172,1020.456734
3 Feb 2020 18:57:01.000,282.519,19.306,1015.880932
3 Feb 2020 18:57:02.000,282.836,19.440,1011.333986
3 Feb 2020 18:57:03.000,283.157,19.574,1006.816301
3 Feb 2020 18:57:04.000,283.480,19.708,1002.328269
3 Feb 2020 18:57:05.000,283.808,19.843,997.870304
3 Feb 2020 18:57:06.000,284.138,19.978,993.442806
3 Feb 2020 18:57:07.000,284.473,20.113,989.046198
3 Feb 2020 18:57:08.000,284.811,20.248,984.680890
3 Feb 2020 18:57:09.000,285.152,20.384,980.347312
3 Feb 2020 18:57:10.000,285.497,20.519,976.045886
3 Feb 2020 18:57:11.000,285.846,20.655,971.777048
3 Feb 2020 18:57:12.000,286.198,20.791,967.541228
3 Feb 2020 18:57:13.000,286.554,20.926,963.338874
3 Feb 2020 18:57:14.000,286.913,21.062,959.170425
3 Feb 2020 18:57:15.000,287.277,21.198,955.036327
3 Feb 2020 18:57:16.000,287.644,21.334,950.937039
3 Feb 2020 18:57:17.000,288.015,21.469,946.873011
3 Feb 2020 18:57:18.000,288.390,21.605,942.844710
3 Feb 2020 18:57:19.000,288.769,21.740,938.852596
3 Feb 2020 18:57:20.000,289.152,21.876,934.897133
3 Feb 2020 18:57:21.000,289.538,22.011,930.978801
3 Feb 2020 18:57:22.000,289.929,22.146,927.098070
3 Feb 2020 18:57:23.000,290.324,22.281,923.255418
3 Feb 2020 18:57:24.000,290.722,22.416,919.451324
3 Feb 2020 18:57:25.000,291.125,22.550,915.686279
3 Feb 2020 18:57:26.000,291.532,22.684,911.960767
3 Feb 2020 18:57:27.000,291.942,22.817,908.275279
3 Feb 2020 18:57:28.000,292.357,22.950,904.630304
3 Feb 2020 18:57:29.000,292.777,23.083,901.026343
3 Feb 2020 18:57:30.000,293.200,23.215,897.463892
3 Feb 2020 18:57:31.000,293.627,23.347,893.943451
3 Feb 2020 18:57:32.000,294.059,23.478,890.465521
3 Feb 2020 18:57:33.000,294.495,23.609,887.030604
3 Feb 2020 18:57:34.000,294.935,23.738,883.639209
3 Feb 2020 18:57:35.000,295.379,23.867,880.291841
3 Feb 2020 18:57:36.000,295.827,23.996,876.989007
3 Feb 2020 18:57:37.000,296.280,24.124,873.731216
3 Feb 2020 18:57:38.000,296.737,24.250,870.518976
3 Feb 2020 18:57:39.000,297.198,24.376,867.352797
3 Feb 2020 18:57:40.000,297.664,24.501,864.233188
3 Feb 2020 18:57:41.000,298.134,24.625,861.160659
3 Feb 2020 18:57:42.000,298.608,24.748,858.135718
3 Feb 2020 18:57:43.000,299.086,24.870,855.158873
3 Feb 2020 18:57:44.000,299.568,24.991,852.230631
3 Feb 2020 18:57:45.000,300.055,25.110,849.351498
3 Feb 2020 18:57:46.000,300.546,25.228,846.521978
3 Feb 2020 18:57:47.000,301.041,25.345,843.742572
3 Feb 2020 18:57:48.000,301.540,25.461,841.013781
3 Feb 2020 18:57:49.000,302.044,25.575,838.336100
3 Feb 2020 18:57:50.000,302.551,25.688,835.710024
3 Feb 2020 18:57:51.000,303.063,25.799,833.136044
3 Feb 2020 18:57:52.000,303.578,25.909,830.614646
3 Feb 2020 18:57:53.000,304.098,26.017,828.146316
3 Feb 2020 18:57:54.000,304.622,26.124,825.731526
3 Feb 2020 18:57:55.000,305.150,26.228,823.370752
3 Feb 2020 18:57:56.000,305.682,26.331,821.064463
3 Feb 2020 18:57:57.000,306.217,26.432,818.813121
3 Feb 2020 18:57:58.000,306.756,26.531,816.617185
3 Feb 2020 18:57:59.000,307.300,26.628,814.477100
3 Feb 2020 18:58:00.000,307.847,26.723,812.393312
3 Feb 2020 18:58:01.000,308.397,26.816,810.366260
3 Feb 2020 18:58:02.000,308.951,26.907,808.396367
3 Feb 2020 18:58:03.000,309.509,26.996,806.484057
3 Feb 2020 18:58:04.000,310.070,27.082,804.629744
3 Feb 2020 18:58:05.000,310.635,27.166,802.833826
3 Feb 2020 18:58:06.000,311.203,27.248,801.096700
3 Feb 2020 18:58:07.000,311.774,27.327,799.418754
3 Feb 2020 18:58:08.000,312.348,27.404,797.800358
3 Feb 2020 18:58:09.000,312.925,27.479,796.241880
3 Feb 2020 18:58:10.000,313.506,27.550,794.743669
3 Feb 2020 18:58:11.000,314.089,27.620,793.306074
3 Feb 2020 18:58:12.000,314.675,27.686,791.929419
3 Feb 2020 18:58:13.000,315.264,27.750,790.614031
3 Feb 2020 18:58:14.000,315.855,27.811,789.360210
3 Feb 2020 18:58:15.000,316.449,27.869,788.168257
3 Feb 2020 18:58:16.000,317.045,27.924,787.038451
3 Feb 2020 18:58:17.000,317.643,27.977,785.971058
3 Feb 2020 18:58:18.000,318.243,28.027,784.966338
3 Feb 2020 18:58:19.000,318.846,28.073,784.024531
3 Feb 2020 18:58:20.000,319.450,28.117,783.145861
3 Feb 2020 18:58:21.000,320.057,28.157,782.330547
3 Feb 2020 18:58:22.000,320.664,28.195,781.578784
3 Feb 2020 18:58:23.000,321.274,28.229,780.890757
3 Feb 2020 18:58:24.000,321.884,28.261,780.266633
3 Feb 2020 18:58:25.000,322.496,28.289,779.706568
3 Feb 2020 18:58:26.000,323.110,28.314,779.210699
3 Feb 2020 18:58:27.000,323.724,28.336,778.779149
3 Feb 2020 18:58:28.000,324.339,28.355,778.412025
3 Feb 2020 18:58:29.000,324.954,28.370,778.109418
3 Feb 2020 18:58:30.000,325.571,28.383,777.871400
3 Feb 2020 18:58:31.000,326.187,28.392,777.698034
3 Feb 2020 18:58:32.000,326.805,28.398,777.589363
3 Feb 2020 18:58:33.000,327.422,28.400,777.545411
3 Feb 2020 18:58:34.000,328.039,28.399,777.566190
3 Feb 2020 18:58:35.000,328.656,28.396,777.651694
3 Feb 2020 18:58:36.000,329.273,28.388,777.801900
3 Feb 2020 18:58:37.000,329.890,28.378,778.016771
3 Feb 2020 18:58:38.000,330.506,28.365,778.296252
3 Feb 2020 18:58:39.000,331.121,28.348,778.640273
3 Feb 2020 18:58:40.000,331.735,28.328,779.048747
3 Feb 2020 18:58:41.000,332.349,28.305,779.521571
3 Feb 2020 18:58:42.000,332.961,28.278,780.058627
3 Feb 2020 18:58:43.000,333.573,28.249,780.659782
3 Feb 2020 18:58:44.000,334.183,28.216,781.324887
3 Feb 2020 18:58:45.000,334.791,28.180,782.053778
3 Feb 2020 18:58:46.000,335.398,28.142,782.846272
3 Feb 2020 18:58:47.000,336.003,28.100,783.702177
3 Feb 2020 18:58:48.000,336.607,28.055,784.621284
3 Feb 2020 18:58:49.000,337.208,28.007,785.603371
3 Feb 2020 18:58:50.000,337.807,27.957,786.648196
3 Feb 2020 18:58:51.000,338.404,27.903,787.755512
3 Feb 2020 18:58:52.000,338.999,27.847,788.925051
3 Feb 2020 18:58:53.000,339.591,27.787,790.156535
3 Feb 2020 18:58:54.000,340.181,27.725,791.449675
3 Feb 2020 18:58:55.000,340.768,27.660,792.804165
3 Feb 2020 18:58:56.000,341.353,27.593,794.219690
3 Feb 2020 18:58:57.000,341.934,27.523,795.695921
3 Feb 2020 18:58:58.000,342.513,27.450,797.232520
3 Feb 2020 18:58:59.000,343.088,27.375,798.829135
3 Feb 2020 18:59:00.000,343.661,27.297,800.485405
3 Feb 2020 18:59:01.000,344.230,27.217,802.200958
3 Feb 2020 18:59:02.000,344.796,27.134,803.975411
3 Feb 2020 18:59:03.000,345.359,27.050,805.808373
3 Feb 2020 18:59:04.000,345.918,26.962,807.699444
3 Feb 2020 18:59:05.000,346.473,26.873,809.648212
3 Feb 2020 18:59:06.000,347.026,26.782,811.654260
3 Feb 2020 18:59:07.000,347.574,26.688,813.717160
3 Feb 2020 18:59:08.000,348.119,26.592,815.836480
3 Feb 2020 18:59:09.000,348.660,26.494,818.011775
3 Feb 2020 18:59:10.000,349.197,26.395,820.242600
3 Feb 2020 18:59:11.000,349.730,26.293,822.528499
3 Feb 2020 18:59:12.000,350.260,26.190,824.869010
3 Feb 2020 18:59:13.000,350.785,26.085,827.263666
3 Feb 2020 18:59:14.000,351.307,25.978,829.711996
3 Feb 2020 18:59:15.000,351.824,25.870,832.213522
3 Feb 2020 18:59:16.000,352.338,25.759,834.767763
3 Feb 2020 18:59:17.000,352.847,25.648,837.374232
3 Feb 2020 18:59:18.000,353.352,25.535,840.032440
3 Feb 2020 18:59:19.000,353.853,25.420,842.741894
3 Feb 2020 18:59:20.000,354.350,25.304,845.502097
3 Feb 2020 18:59:21.000,354.843,25.187,848.312550
3 Feb 2020 18:59:22.000,355.331,25.069,851.172751
3 Feb 2020 18:59:23.000,355.816,24.949,854.082198
3 Feb 2020 18:59:24.000,356.296,24.828,857.040383
3 Feb 2020 18:59:25.000,356.772,24.706,860.046801
3 Feb 2020 18:59:26.000,357.243,24.583,863.100943
3 Feb 2020 18:59:27.000,357.711,24.459,866.202300
3 Feb 2020 18:59:28.000,358.174,24.334,869.350363
3 Feb 2020 18:59:29.000,358.632,24.208,872.544622
3 Feb 2020 18:59:30.000,359.087,24.081,875.784568
3 Feb 2020 18:59:31.000,359.537,23.954,879.069690
3 Feb 2020 18:59:32.000,359.983,23.825,882.399480
3 Feb 2020 18:59:33.000,0.425,23.696,885.773430
3 Feb 2020 18:59:34.000,0.863,23.566,889.191032
3 Feb 2020 18:59:35.000,1.296,23.436,892.651781
3 Feb 2020 18:59:36.000,1.726,23.305,896.155172
3 Feb 2020 18:59:37.000,2.151,23.174,899.700703
3 Feb 2020 18:59:38.000,2.572,23.042,903.287872
3 Feb 2020 18:59:39.000,2.989,22.909,906.916181
3 Feb 2020 18:59:40.000,3.401,22.776,910.585133
3 Feb 2020 18:59:41.000,3.810,22.643,914.294234
3 Feb 2020 18:59:42.000,4.214,22.509,918.042992
3 Feb 2020 18:59:43.000,4.615,22.375,921.830920
3 Feb 2020 18:59:44.000,5.011,22.241,925.657531
3 Feb 2020 18:59:45.000,5.404,22.107,929.522342
3 Feb 2020 18:59:46.000,5.792,21.972,933.424874
3 Feb 2020 18:59:47.000,6.177,21.837,937.364651
3 Feb 2020 18:59:48.000,6.557,21.702,941.341199
3 Feb 2020 18:59:49.000,6.934,21.567,945.354050
3 Feb 2020 18:59:50.000,7.307,21.431,949.402739
3 Feb 2020 18:59:51.000,7.676,21.296,953.486803
3 Feb 2020 18:59:52.000,8.041,21.161,957.605784
3 Feb 2020 18:59:53.000,8.402,21.025,961.759229
3 Feb 2020 18:59:54.000,8.760,20.890,965.946688
3 Feb 2020 18:59:55.000,9.114,20.755,970.167715
3 Feb 2020 18:59:56.000,9.464,20.619,974.421868
3 Feb 2020 18:59:57.000,9.811,20.484,978.708710
3 Feb 2020 18:59:58.000,10.154,20.349,983.027807
3 Feb 2020 18:59:59.000,10.493,20.214,987.378731
3 Feb 2020 19:00:00.000,10.829,20.080,991.761058
3 Feb 2020 19:00:01.000,11.162,19.945,996.174368
3 Feb 2020 19:00:02.000,11.490,19.811,1000.618244
3 Feb 2020 19:00:03.000,11.816,19.676,1005.092276
3 Feb 2020 19:00:04.000,12.138,19.542,1009.596056
3 Feb 2020 19:00:05.000,12.457,19.409,1014.129185
3 Feb 2020 19:00:06.000,12.772,19.275,1018.691262
3 Feb 2020 19:00:07.000,13.084,19.142,1023.281896
3 Feb 2020 19:00:08.000,13.393,19.009,1027.900698
3 Feb 2020 19:00:09.000,13.699,18.877,1032.547283
3 Feb 2020 19:00:10.000,14.001,18.744,1037.221275
3 Feb 2020 19:00:11.000,14.300,18.612,1041.922296
3 Feb 2020 19:00:12.000,14.597,18.481,1046.649978
3 Feb 2020 19:00:13.000,14.890,18.350,1051.403953
3 Feb 2020 19:00:14.000,15.180,18.219,1056.183863
3 Feb 2020 19:00:15.000,15.467,18.088,1060.989348
3 Feb 2020 19:00:16.000,15.751,17.958,1065.820059
3 Feb 2020 19:00:17.000,16.032,17.829,1070.675648
3 Feb 2020 19:00:18.000,16.310,17.699,1075.555770
3 Feb 2020 19:00:19.000,16.585,17.570,1080.460087
3 Feb 2020 19:00:20.000,16.857,17.442,1085.388268
3 Feb 2020 19:00:21.000,17.127,17.314,1090.339979
3 Feb 2020 19:00:22.000,17.394,17.186,1095.314897
3 Feb 2020 19:00:23.000,17.658,17.059,1100.312700
3 Feb 2020 19:00:24.000,17.919,16.933,1105.333072
3 Feb 2020 19:00:25.000,18.178,16.806,1110.375701
3 Feb 2020 19:00:26.000,18.434,16.681,1115.440277
3 Feb 2020 19:00:27.000,18.687,16.555,1120.526497
3 Feb 2020 19:00:28.000,18.938,16.431,1125.634062
3 Feb 2020 19:00:29.000,19.186,16.306,1130.762677
3 Feb 2020 19:00:30.000,19.432,16.183,1135.912048
3 Feb 2020 19:00:31.000,19.675,16.059,1141.081889
3 Feb 2020 19:00:32.000,19.916,15.936,1146.271918
3 Feb 2020 19:00:33.000,20.154,15.814,1151.481852
3 Feb 2020 19:00:34.000,20.390,15.692,1156.711418
3 Feb 2020 19:00:35.000,20.623,15.571,1161.960344
3 Feb 2020 19:00:36.000,20.855,15.450,1167.228363
3 Feb 2020 19:00:37.000,21.084,15.330,1172.515210
3 Feb 2020 19:00:38.000,21.310,15.210,1177.820625
3 Feb 2020 19:00:39.000,21.534,15.091,1183.144352
3 Feb 2020 19:00:40.000,21.757,14.972,1188.486139
3 Feb 2020 19:00:41.000,21.976,14.854,1193.845735
3 Feb 2020 19:00:42.000,22.194,14.736,1199.222896
3 Feb 2020 19:00:43.000,22.410,14.619,1204.617379
3 Feb 2020 19:00:44.000,22.623,14.502,1210.028947
3 Feb 2020 19:00:45.000,22.834,14.386,1215.457366
3 Feb 2020 19:00:46.000,23.044,14.270,1220.902402
3 Feb 2020 19:00:47.000,23.251,14.155,1226.363828
3 Feb 2020 19:00:48.000,23.456,14.040,1231.841418
3 Feb 2020 19:00:49.000,23.659,13.926,1237.334953
3 Feb 2020 19:00:50.000,23.861,13.812,1242.844213
3 Feb 2020 19:00:51.000,24.060,13.699,1248.368985
3 Feb 2020 19:00:52.000,24.257,13.587,1253.909055
3 Feb 2020 19:00:53.000,24.453,13.474,1259.464214
3 Feb 2020 19:00:54.000,24.646,13.363,1265.034257
3 Feb 2020 19:00:55.000,24.838,13.252,1270.618983
3 Feb 2020 19:00:56.000,25.028,13.141,1276.218190
3 Feb 2020 19:00:57.000,25.216,13.031,1281.831683
3 Feb 2020 19:00:58.000,25.403,12.922,1287.459269
3 Feb 2020 19:00:59.000,25.587,12.813,1293.100754
3 Feb 2020 19:01:00.000,25.770,12.704,1298.755952
3 Feb 2020 19:01:01.000,25.951,12.596,1304.424676
3 Feb 2020 19:01:02.000,26.131,12.489,1310.106746
3 Feb 2020 19:01:03.000,26.309,12.382,1315.801981
3 Feb 2020 19:01:04.000,26.485,12.275,1321.510203
3 Feb 2020 19:01:05.000,26.659,12.169,1327.231238
3 Feb 2020 19:01:06.000,26.832,12.063,1332.964914
3 Feb 2020 19:01:07.000,27.004,11.958,1338.711062
3 Feb 2020 19:01:08.000,27.173,11.854,1344.469516
3 Feb 2020 19:01:09.000,27.342,11.750,1350.240108
3 Feb 2020 19:01:10.000,27.508,11.646,1356.022679
3 Feb 2020 19:01:11.000,27.674,11.543,1361.817068
3 Feb 2020 19:01:12.000,27.837,11.441,1367.623118
3 Feb 2020 19:01:13.000,27.999,11.338,1373.440674
3 Feb 2020 19:01:14.000,28.160,11.237,1379.269583
3 Feb 2020 19:01:15.000,28.320,11.136,1385.109695
3 Feb 2020 19:01:16.000,28.477,11.035,1390.960862
3 Feb 2020 19:01:17.000,28.634,10.935,1396.822937
3 Feb 2020 19:01:18.000,28.789,10.835,1402.695777
3 Feb 2020 19:01:19.000,28.943,10.735,1408.579239
3 Feb 2020 19:01:20.000,29.095,10.637,1414.473184
3 Feb 2020 19:01:21.000,29.246,10.538,1420.377475
3 Feb 2020 19:01:22.000,29.396,10.440,1426.291975
3 Feb 2020 19:01:23.000,29.544,10.343,1432.216551
3 Feb 2020 19:01:24.000,29.692,10.246,1438.151071
3 Feb 2020 19:01:25.000,29.837,10.149,1444.095405
3 Feb 2020 19:01:26.000,29.982,10.053,1450.049426
3 Feb 2020 19:01:27.000,30.125,9.957,1456.013007
3 Feb 2020 19:01:28.000,30.268,9.862,1461.986023
3 Feb 2020 19:01:29.000,30.409,9.767,1467.968353
3 Feb 2020 19:01:30.000,30.548,9.673,1473.959876
3 Feb 2020 19:01:31.000,30.687,9.579,1479.960473
3 Feb 2020 19:01:32.000,30.824,9.485,1485.970026
3 Feb 2020 19:01:33.000,30.960,9.392,1491.988420
3 Feb 2020 19:01:34.000,31.096,9.299,1498.015541
3 Feb 2020 19:01:35.000,31.230,9.207,1504.051277
3 Feb 2020 19:01:36.000,31.362,9.115,1510.095517
3 Feb 2020 19:01:37.000,31.494,9.023,1516.148153
3 Feb 2020 19:01:38.000,31.625,8.932,1522.209075
3 Feb 2020 19:01:39.000,31.754,8.842,1528.278180
3 Feb 2020 19:01:40.000,31.883,8.751,1534.355361
3 Feb 2020 19:01:41.000,32.010,8.661,1540.440517
3 Feb 2020 19:01:42.000,32.137,8.572,1546.533546
3 Feb 2020 19:01:43.000,32.262,8.483,1552.634346
3 Feb 2020 19:01:44.000,32.387,8.394,1558.742821
3 Feb 2020 19:01:45.000,32.510,8.306,1564.858872
3 Feb 2020 19:01:46.000,32.633,8.218,1570.982404
3 Feb 2020 19:01:47.000,32.754,8.130,1577.113322
3 Feb 2020 19:01:48.000,32.874,8.043,1583.251533
3 Feb 2020 19:01:49.000,32.994,7.956,1589.396944
3 Feb 2020 19:01:50.000,33.113,7.870,1595.549466
3 Feb 2020 19:01:51.000,33.230,7.784,1601.709009
3 Feb 2020 19:01:52.000,33.347,7.698,1607.875484
3 Feb 2020 19:01:53.000,33.463,7.613,1614.048804
3 Feb 2020 19:01:54.000,33.578,7.528,1620.228885
3 Feb 2020 19:01:55.000,33.692,7.443,1626.415641
3 Feb 2020 19:01:56.000,33.805,7.359,1632.608989
3 Feb 2020 19:01:57.000,33.917,7.275,1638.808845
3 Feb 2020 19:01:58.000,34.028,7.191,1645.015131
3 Feb 2020 19:01:59.000,34.139,7.108,1651.227766
3 Feb 2020 19:02:00.000,34.249,7.025,1657.446671
3 Feb 2020 19:02:01.000,34.357,6.943,1663.671767
3 Feb 2020 19:02:02.000,34.465,6.861,1669.902978
3 Feb 2020 19:02:03.000,34.573,6.779,1676.140229
3 Feb 2020 19:02:04.000,34.679,6.697,1682.383444
3 Feb 2020 19:02:05.000,34.785,6.616,1688.632550
3 Feb 2020 19:02:06.000,34.889,6.535,1694.887475
3 Feb 2020 19:02:07.000,34.994,6.455,1701.148145
3 Feb 2020 19:02:08.000,35.097,6.374,1707.414491
3 Feb 2020 19:02:09.000,35.199,6.295,1713.686441
3 Feb 2020 19:02:10.000,35.301,6.215,1719.963930
3 Feb 2020 19:02:11.000,35.402,6.136,1726.246887
3 Feb 2020 19:02:12.000,35.502,6.057,1732.535247
3 Feb 2020 19:02:13.000,35.602,5.978,1738.828942
3 Feb 2020 19:02:14.000,35.701,5.900,1745.127907
3 Feb 2020 19:02:15.000,35.799,5.822,1751.432077
3 Feb 2020 19:02:16.000,35.896,5.744,1757.741390
3 Feb 2020 19:02:17.000,35.993,5.667,1764.055782
3 Feb 2020 19:02:18.000,36.089,5.590,1770.375191
3 Feb 2020 19:02:19.000,36.184,5.513,1776.699555
3 Feb 2020 19:02:20.000,36.279,5.436,1783.028816
3 Feb 2020 19:02:21.000,36.373,5.360,1789.362913
3 Feb 2020 19:02:22.000,36.466,5.284,1795.701788
3 Feb 2020 19:02:23.000,36.559,5.208,1802.045382
3 Feb 2020 19:02:24.000,36.651,5.133,1808.393638
3 Feb 2020 19:02:25.000,36.742,5.058,1814.746499
3 Feb 2020 19:02:26.000,36.833,4.983,1821.103910
3 Feb 2020 19:02:27.000,36.923,4.909,1827.465815
3 Feb 2020 19:02:28.000,37.013,4.834,1833.832158
3 Feb 2020 19:02:29.000,37.101,4.760,1840.202889
3 Feb 2020 19:02:30.000,37.190,4.687,1846.577953
3 Feb 2020 19:02:31.000,37.277,4.613,1852.957298
3 Feb 2020 19:02:32.000,37.364,4.540,1859.340871
3 Feb 2020 19:02:33.000,37.451,4.467,1865.728623
3 Feb 2020 19:02:34.000,37.537,4.394,1872.120502
3 Feb 2020 19:02:35.000,37.622,4.322,1878.516458
3 Feb 2020 19:02:36.000,37.707,4.250,1884.916440
3 Feb 2020 19:02:37.000,37.791,4.178,1891.320404
3 Feb 2020 19:02:38.000,37.875,4.106,1897.728300
3 Feb 2020 19:02:39.000,37.958,4.035,1904.140080
3 Feb 2020 19:02:40.000,38.040,3.964,1910.555698
3 Feb 2020 19:02:41.000,38.122,3.893,1916.975106
3 Feb 2020 19:02:42.000,38.203,3.822,1923.398260
3 Feb 2020 19:02:43.000,38.284,3.752,1929.825113
3 Feb 2020 19:02:44.000,38.365,3.681,1936.255623
3 Feb 2020 19:02:45.000,38.445,3.612,1942.689745
3 Feb 2020 19:02:46.000,38.524,3.542,1949.127435
3 Feb 2020 19:02:47.000,38.603,3.472,1955.568650
3 Feb 2020 19:02:48.000,38.681,3.403,1962.013348
3 Feb 2020 19:02:49.000,38.759,3.334,1968.461487
3 Feb 2020 19:02:50.000,38.836,3.265,1974.913023
3 Feb 2020 19:02:51.000,38.913,3.197,1981.367920
3 Feb 2020 19:02:52.000,38.989,3.129,1987.826134
3 Feb 2020 19:02:53.000,39.065,3.061,1994.287627
3 Feb 2020 19:02:54.000,39.140,2.993,2000.752358
3 Feb 2020 19:02:55.000,39.215,2.925,2007.220288
3 Feb 2020 19:02:56.000,39.290,2.858,2013.691376
3 Feb 2020 19:02:57.000,39.364,2.790,2020.165589
3 Feb 2020 19:02:58.000,39.437,2.723,2026.642887
3 Feb 2020 19:02:59.000,39.510,2.657,2033.123233
3 Feb 2020 19:03:00.000,39.583,2.590,2039.606589
3 Feb 2020 19:03:01.000,39.655,2.524,2046.092920
3 Feb 2020 19:03:02.000,39.727,2.458,2052.582187
3 Feb 2020 19:03:03.000,39.798,2.392,2059.074359
3 Feb 2020 19:03:04.000,39.869,2.326,2065.569398
3 Feb 2020 19:03:05.000,39.939,2.260,2072.067271
3 Feb 2020 19:03:06.000,40.009,2.195,2078.567941
3 Feb 2020 19:03:07.000,40.079,2.130,2085.071377
3 Feb 2020 19:03:08.000,40.148,2.065,2091.577540
3 Feb 2020 19:03:09.000,40.217,2.000,2098.086404
3 Feb 2020 19:03:10.000,40.285,1.936,2104.597933
3 Feb 2020 19:03:11.000,40.353,1.871,2111.112094
3 Feb 2020 19:03:12.000,40.421,1.807,2117.628855
3 Feb 2020 19:03:13.000,40.488,1.743,2124.148185
3 Feb 2020 19:03:14.000,40.554,1.679,2130.670049
3 Feb 2020 19:03:15.000,40.621,1.616,2137.194422
3 Feb 2020 19:03:16.000,40.687,1.552,2143.721271
3 Feb 2020 19:03:17.000,40.752,1.489,2150.250564
3 Feb 2020 19:03:18.000,40.817,1.426,2156.782272
