vcc_sched/network/input/aer_wff_wff_vcc-b_44431.csv

"Time (UTCG)","Azimuth (deg)","Elevation (deg)","Range (km)"
7 Jan 2020 03:06:57.685,167.682,-0.079,2310.822976
7 Jan 2020 03:06:58.000,167.639,-0.066,2309.368420
7 Jan 2020 03:06:59.000,167.502,-0.024,2304.759257
7 Jan 2020 03:07:00.000,167.365,0.018,2300.161993
7 Jan 2020 03:07:01.000,167.227,0.059,2295.576704
7 Jan 2020 03:07:02.000,167.088,0.101,2291.003471
7 Jan 2020 03:07:03.000,166.950,0.142,2286.442369
7 Jan 2020 03:07:04.000,166.810,0.183,2281.893480
7 Jan 2020 03:07:05.000,166.670,0.225,2277.356881
7 Jan 2020 03:07:06.000,166.529,0.266,2272.832653
7 Jan 2020 03:07:07.000,166.388,0.308,2268.320874
7 Jan 2020 03:07:08.000,166.246,0.349,2263.821628
7 Jan 2020 03:07:09.000,166.104,0.390,2259.334992
7 Jan 2020 03:07:10.000,165.961,0.432,2254.861050
7 Jan 2020 03:07:11.000,165.817,0.473,2250.399881
7 Jan 2020 03:07:12.000,165.673,0.514,2245.951571
7 Jan 2020 03:07:13.000,165.529,0.555,2241.516198
7 Jan 2020 03:07:14.000,165.383,0.596,2237.093849
7 Jan 2020 03:07:15.000,165.238,0.637,2232.684604
7 Jan 2020 03:07:16.000,165.091,0.678,2228.288549
7 Jan 2020 03:07:17.000,164.944,0.719,2223.905766
7 Jan 2020 03:07:18.000,164.797,0.760,2219.536342
7 Jan 2020 03:07:19.000,164.648,0.801,2215.180359
7 Jan 2020 03:07:20.000,164.500,0.842,2210.837905
7 Jan 2020 03:07:21.000,164.350,0.883,2206.509063
7 Jan 2020 03:07:22.000,164.200,0.924,2202.193921
7 Jan 2020 03:07:23.000,164.050,0.965,2197.892566
7 Jan 2020 03:07:24.000,163.899,1.005,2193.605083
7 Jan 2020 03:07:25.000,163.747,1.046,2189.331561
7 Jan 2020 03:07:26.000,163.595,1.086,2185.072086
7 Jan 2020 03:07:27.000,163.442,1.127,2180.826747
7 Jan 2020 03:07:28.000,163.288,1.168,2176.595631
7 Jan 2020 03:07:29.000,163.134,1.208,2172.378829
7 Jan 2020 03:07:30.000,162.979,1.248,2168.176430
7 Jan 2020 03:07:31.000,162.824,1.289,2163.988521
7 Jan 2020 03:07:32.000,162.668,1.329,2159.815195
7 Jan 2020 03:07:33.000,162.511,1.369,2155.656540
7 Jan 2020 03:07:34.000,162.354,1.409,2151.512648
7 Jan 2020 03:07:35.000,162.196,1.450,2147.383610
7 Jan 2020 03:07:36.000,162.038,1.490,2143.269517
7 Jan 2020 03:07:37.000,161.878,1.530,2139.170461
7 Jan 2020 03:07:38.000,161.719,1.570,2135.086533
7 Jan 2020 03:07:39.000,161.558,1.609,2131.017827
7 Jan 2020 03:07:40.000,161.397,1.649,2126.964436
7 Jan 2020 03:07:41.000,161.236,1.689,2122.926452
7 Jan 2020 03:07:42.000,161.074,1.729,2118.903968
7 Jan 2020 03:07:43.000,160.911,1.768,2114.897081
7 Jan 2020 03:07:44.000,160.747,1.808,2110.905882
7 Jan 2020 03:07:45.000,160.583,1.847,2106.930467
7 Jan 2020 03:07:46.000,160.418,1.887,2102.970932
7 Jan 2020 03:07:47.000,160.253,1.926,2099.027369
7 Jan 2020 03:07:48.000,160.087,1.965,2095.099876
7 Jan 2020 03:07:49.000,159.920,2.004,2091.188549
7 Jan 2020 03:07:50.000,159.753,2.043,2087.293483
7 Jan 2020 03:07:51.000,159.585,2.082,2083.414774
7 Jan 2020 03:07:52.000,159.417,2.121,2079.552521
7 Jan 2020 03:07:53.000,159.248,2.160,2075.706821
7 Jan 2020 03:07:54.000,159.078,2.199,2071.877769
7 Jan 2020 03:07:55.000,158.907,2.237,2068.065464
7 Jan 2020 03:07:56.000,158.736,2.276,2064.270005
7 Jan 2020 03:07:57.000,158.564,2.314,2060.491488
7 Jan 2020 03:07:58.000,158.392,2.353,2056.730013
7 Jan 2020 03:07:59.000,158.219,2.391,2052.985679
7 Jan 2020 03:08:00.000,158.045,2.429,2049.258586
7 Jan 2020 03:08:01.000,157.871,2.467,2045.548831
7 Jan 2020 03:08:02.000,157.696,2.505,2041.856514
7 Jan 2020 03:08:03.000,157.520,2.543,2038.181736
7 Jan 2020 03:08:04.000,157.344,2.581,2034.524596
7 Jan 2020 03:08:05.000,157.167,2.618,2030.885197
7 Jan 2020 03:08:06.000,156.989,2.656,2027.263636
7 Jan 2020 03:08:07.000,156.811,2.693,2023.660015
7 Jan 2020 03:08:08.000,156.632,2.731,2020.074435
7 Jan 2020 03:08:09.000,156.453,2.768,2016.506999
7 Jan 2020 03:08:10.000,156.272,2.805,2012.957805
7 Jan 2020 03:08:11.000,156.092,2.842,2009.426957
7 Jan 2020 03:08:12.000,155.910,2.879,2005.914555
7 Jan 2020 03:08:13.000,155.728,2.916,2002.420703
7 Jan 2020 03:08:14.000,155.545,2.952,1998.945501
7 Jan 2020 03:08:15.000,155.362,2.989,1995.489054
7 Jan 2020 03:08:16.000,155.178,3.025,1992.051462
7 Jan 2020 03:08:17.000,154.993,3.062,1988.632828
7 Jan 2020 03:08:18.000,154.807,3.098,1985.233254
7 Jan 2020 03:08:19.000,154.621,3.134,1981.852845
7 Jan 2020 03:08:20.000,154.435,3.170,1978.491702
7 Jan 2020 03:08:21.000,154.247,3.205,1975.149928
7 Jan 2020 03:08:22.000,154.059,3.241,1971.827628
7 Jan 2020 03:08:23.000,153.870,3.276,1968.524905
7 Jan 2020 03:08:24.000,153.681,3.312,1965.241860
7 Jan 2020 03:08:25.000,153.491,3.347,1961.978598
7 Jan 2020 03:08:26.000,153.300,3.382,1958.735222
7 Jan 2020 03:08:27.000,153.109,3.417,1955.511835
7 Jan 2020 03:08:28.000,152.917,3.452,1952.308542
7 Jan 2020 03:08:29.000,152.725,3.486,1949.125445
7 Jan 2020 03:08:30.000,152.531,3.521,1945.962649
7 Jan 2020 03:08:31.000,152.337,3.555,1942.820257
7 Jan 2020 03:08:32.000,152.143,3.589,1939.698372
7 Jan 2020 03:08:33.000,151.948,3.623,1936.597098
7 Jan 2020 03:08:34.000,151.752,3.657,1933.516539
7 Jan 2020 03:08:35.000,151.556,3.691,1930.456798
7 Jan 2020 03:08:36.000,151.358,3.724,1927.417978
7 Jan 2020 03:08:37.000,151.161,3.757,1924.400183
7 Jan 2020 03:08:38.000,150.962,3.791,1921.403517
7 Jan 2020 03:08:39.000,150.763,3.824,1918.428083
7 Jan 2020 03:08:40.000,150.564,3.856,1915.473983
7 Jan 2020 03:08:41.000,150.363,3.889,1912.541321
7 Jan 2020 03:08:42.000,150.162,3.922,1909.630199
7 Jan 2020 03:08:43.000,149.961,3.954,1906.740722
7 Jan 2020 03:08:44.000,149.759,3.986,1903.872990
7 Jan 2020 03:08:45.000,149.556,4.018,1901.027107
7 Jan 2020 03:08:46.000,149.352,4.050,1898.203176
7 Jan 2020 03:08:47.000,149.148,4.081,1895.401297
7 Jan 2020 03:08:48.000,148.944,4.112,1892.621574
7 Jan 2020 03:08:49.000,148.738,4.144,1889.864108
7 Jan 2020 03:08:50.000,148.532,4.175,1887.129000
7 Jan 2020 03:08:51.000,148.326,4.205,1884.416352
7 Jan 2020 03:08:52.000,148.119,4.236,1881.726265
7 Jan 2020 03:08:53.000,147.911,4.266,1879.058839
7 Jan 2020 03:08:54.000,147.702,4.296,1876.414173
7 Jan 2020 03:08:55.000,147.493,4.326,1873.792372
7 Jan 2020 03:08:56.000,147.284,4.356,1871.193533
7 Jan 2020 03:08:57.000,147.074,4.386,1868.617756
7 Jan 2020 03:08:58.000,146.863,4.415,1866.065140
7 Jan 2020 03:08:59.000,146.651,4.444,1863.535784
7 Jan 2020 03:09:00.000,146.439,4.473,1861.029786
7 Jan 2020 03:09:01.000,146.227,4.502,1858.547243
7 Jan 2020 03:09:02.000,146.014,4.530,1856.088257
7 Jan 2020 03:09:03.000,145.800,4.558,1853.652922
7 Jan 2020 03:09:04.000,145.586,4.586,1851.241336
7 Jan 2020 03:09:05.000,145.371,4.614,1848.853595
7 Jan 2020 03:09:06.000,145.155,4.642,1846.489793
7 Jan 2020 03:09:07.000,144.939,4.669,1844.150030
7 Jan 2020 03:09:08.000,144.722,4.696,1841.834399
7 Jan 2020 03:09:09.000,144.505,4.723,1839.542995
7 Jan 2020 03:09:10.000,144.287,4.750,1837.275910
7 Jan 2020 03:09:11.000,144.069,4.776,1835.033238
7 Jan 2020 03:09:12.000,143.850,4.802,1832.815075
7 Jan 2020 03:09:13.000,143.631,4.828,1830.621511
7 Jan 2020 03:09:14.000,143.411,4.853,1828.452636
7 Jan 2020 03:09:15.000,143.190,4.879,1826.308546
7 Jan 2020 03:09:16.000,142.969,4.904,1824.189329
7 Jan 2020 03:09:17.000,142.748,4.929,1822.095075
7 Jan 2020 03:09:18.000,142.526,4.953,1820.025872
7 Jan 2020 03:09:19.000,142.303,4.978,1817.981811
7 Jan 2020 03:09:20.000,142.080,5.002,1815.962980
7 Jan 2020 03:09:21.000,141.856,5.026,1813.969463
7 Jan 2020 03:09:22.000,141.632,5.049,1812.001352
7 Jan 2020 03:09:23.000,141.407,5.072,1810.058729
7 Jan 2020 03:09:24.000,141.182,5.095,1808.141678
7 Jan 2020 03:09:25.000,140.957,5.118,1806.250288
7 Jan 2020 03:09:26.000,140.730,5.141,1804.384641
7 Jan 2020 03:09:27.000,140.504,5.163,1802.544815
7 Jan 2020 03:09:28.000,140.277,5.185,1800.730900
7 Jan 2020 03:09:29.000,140.049,5.206,1798.942970
7 Jan 2020 03:09:30.000,139.821,5.228,1797.181111
7 Jan 2020 03:09:31.000,139.593,5.249,1795.445400
7 Jan 2020 03:09:32.000,139.364,5.269,1793.735914
7 Jan 2020 03:09:33.000,139.134,5.290,1792.052734
7 Jan 2020 03:09:34.000,138.904,5.310,1790.395934
7 Jan 2020 03:09:35.000,138.674,5.330,1788.765594
7 Jan 2020 03:09:36.000,138.443,5.349,1787.161783
7 Jan 2020 03:09:37.000,138.212,5.369,1785.584582
7 Jan 2020 03:09:38.000,137.980,5.388,1784.034057
7 Jan 2020 03:09:39.000,137.748,5.406,1782.510287
7 Jan 2020 03:09:40.000,137.516,5.425,1781.013338
7 Jan 2020 03:09:41.000,137.283,5.443,1779.543284
7 Jan 2020 03:09:42.000,137.050,5.461,1778.100189
7 Jan 2020 03:09:43.000,136.816,5.478,1776.684128
7 Jan 2020 03:09:44.000,136.582,5.495,1775.295162
7 Jan 2020 03:09:45.000,136.348,5.512,1773.933361
7 Jan 2020 03:09:46.000,136.113,5.529,1772.598787
7 Jan 2020 03:09:47.000,135.878,5.545,1771.291507
7 Jan 2020 03:09:48.000,135.642,5.561,1770.011579
7 Jan 2020 03:09:49.000,135.406,5.576,1768.759070
7 Jan 2020 03:09:50.000,135.170,5.592,1767.534036
7 Jan 2020 03:09:51.000,134.934,5.607,1766.336537
7 Jan 2020 03:09:52.000,134.697,5.621,1765.166636
7 Jan 2020 03:09:53.000,134.460,5.635,1764.024383
7 Jan 2020 03:09:54.000,134.222,5.649,1762.909840
7 Jan 2020 03:09:55.000,133.984,5.663,1761.823057
7 Jan 2020 03:09:56.000,133.746,5.676,1760.764088
7 Jan 2020 03:09:57.000,133.508,5.689,1759.732989
7 Jan 2020 03:09:58.000,133.269,5.702,1758.729805
7 Jan 2020 03:09:59.000,133.030,5.714,1757.754590
7 Jan 2020 03:10:00.000,132.791,5.726,1756.807393
7 Jan 2020 03:10:01.000,132.551,5.738,1755.888257
7 Jan 2020 03:10:02.000,132.312,5.749,1754.997230
7 Jan 2020 03:10:03.000,132.071,5.760,1754.134357
7 Jan 2020 03:10:04.000,131.831,5.771,1753.299684
7 Jan 2020 03:10:05.000,131.591,5.781,1752.493247
7 Jan 2020 03:10:06.000,131.350,5.791,1751.715089
7 Jan 2020 03:10:07.000,131.109,5.800,1750.965254
7 Jan 2020 03:10:08.000,130.868,5.810,1750.243772
7 Jan 2020 03:10:09.000,130.626,5.818,1749.550684
7 Jan 2020 03:10:10.000,130.385,5.827,1748.886025
7 Jan 2020 03:10:11.000,130.143,5.835,1748.249829
7 Jan 2020 03:10:12.000,129.901,5.843,1747.642130
7 Jan 2020 03:10:13.000,129.659,5.851,1747.062955
7 Jan 2020 03:10:14.000,129.417,5.858,1746.512336
7 Jan 2020 03:10:15.000,129.174,5.864,1745.990302
7 Jan 2020 03:10:16.000,128.932,5.871,1745.496879
7 Jan 2020 03:10:17.000,128.689,5.877,1745.032095
7 Jan 2020 03:10:18.000,128.446,5.883,1744.595970
7 Jan 2020 03:10:19.000,128.203,5.888,1744.188528
7 Jan 2020 03:10:20.000,127.960,5.893,1743.809791
7 Jan 2020 03:10:21.000,127.717,5.898,1743.459779
7 Jan 2020 03:10:22.000,127.473,5.902,1743.138510
7 Jan 2020 03:10:23.000,127.230,5.906,1742.846002
7 Jan 2020 03:10:24.000,126.986,5.910,1742.582268
7 Jan 2020 03:10:25.000,126.743,5.913,1742.347327
7 Jan 2020 03:10:26.000,126.499,5.916,1742.141186
7 Jan 2020 03:10:27.000,126.256,5.918,1741.963858
7 Jan 2020 03:10:28.000,126.012,5.920,1741.815352
7 Jan 2020 03:10:29.000,125.768,5.922,1741.695678
7 Jan 2020 03:10:30.000,125.524,5.924,1741.604842
7 Jan 2020 03:10:31.000,125.281,5.925,1741.542850
7 Jan 2020 03:10:32.000,125.037,5.925,1741.509704
7 Jan 2020 03:10:33.000,124.793,5.926,1741.505407
7 Jan 2020 03:10:34.000,124.549,5.926,1741.529961
7 Jan 2020 03:10:35.000,124.305,5.926,1741.583365
7 Jan 2020 03:10:36.000,124.061,5.925,1741.665616
7 Jan 2020 03:10:37.000,123.818,5.924,1741.776711
7 Jan 2020 03:10:38.000,123.574,5.922,1741.916645
7 Jan 2020 03:10:39.000,123.330,5.921,1742.085412
7 Jan 2020 03:10:40.000,123.086,5.918,1742.283003
7 Jan 2020 03:10:41.000,122.843,5.916,1742.509410
7 Jan 2020 03:10:42.000,122.599,5.913,1742.764618
7 Jan 2020 03:10:43.000,122.356,5.910,1743.048621
7 Jan 2020 03:10:44.000,122.113,5.906,1743.361403
7 Jan 2020 03:10:45.000,121.869,5.902,1743.702947
7 Jan 2020 03:10:46.000,121.626,5.898,1744.073239
7 Jan 2020 03:10:47.000,121.383,5.893,1744.472258
7 Jan 2020 03:10:48.000,121.140,5.888,1744.899987
7 Jan 2020 03:10:49.000,120.897,5.883,1745.356403
7 Jan 2020 03:10:50.000,120.655,5.877,1745.841482
7 Jan 2020 03:10:51.000,120.412,5.871,1746.355205
7 Jan 2020 03:10:52.000,120.170,5.865,1746.897545
7 Jan 2020 03:10:53.000,119.928,5.858,1747.468475
7 Jan 2020 03:10:54.000,119.686,5.851,1748.067966
7 Jan 2020 03:10:55.000,119.444,5.843,1748.695990
7 Jan 2020 03:10:56.000,119.202,5.836,1749.352511
7 Jan 2020 03:10:57.000,118.961,5.828,1750.037506
7 Jan 2020 03:10:58.000,118.720,5.819,1750.750935
7 Jan 2020 03:10:59.000,118.478,5.810,1751.492766
7 Jan 2020 03:11:00.000,118.238,5.801,1752.262957
7 Jan 2020 03:11:01.000,117.997,5.791,1753.061478
7 Jan 2020 03:11:02.000,117.757,5.782,1753.888287
7 Jan 2020 03:11:03.000,117.517,5.771,1754.743343
7 Jan 2020 03:11:04.000,117.277,5.761,1755.626602
7 Jan 2020 03:11:05.000,117.037,5.750,1756.538026
7 Jan 2020 03:11:06.000,116.798,5.739,1757.477569
7 Jan 2020 03:11:07.000,116.559,5.727,1758.445181
7 Jan 2020 03:11:08.000,116.320,5.715,1759.440823
7 Jan 2020 03:11:09.000,116.081,5.703,1760.464442
7 Jan 2020 03:11:10.000,115.843,5.690,1761.515987
7 Jan 2020 03:11:11.000,115.605,5.677,1762.595413
7 Jan 2020 03:11:12.000,115.367,5.664,1763.702664
7 Jan 2020 03:11:13.000,115.130,5.650,1764.837685
7 Jan 2020 03:11:14.000,114.893,5.636,1766.000429
7 Jan 2020 03:11:15.000,114.656,5.622,1767.190832
7 Jan 2020 03:11:16.000,114.420,5.608,1768.408845
7 Jan 2020 03:11:17.000,114.184,5.593,1769.654406
7 Jan 2020 03:11:18.000,113.949,5.578,1770.927454
7 Jan 2020 03:11:19.000,113.713,5.562,1772.227935
7 Jan 2020 03:11:20.000,113.478,5.546,1773.555780
7 Jan 2020 03:11:21.000,113.244,5.530,1774.910935
7 Jan 2020 03:11:22.000,113.010,5.513,1776.293328
7 Jan 2020 03:11:23.000,112.776,5.497,1777.702903
7 Jan 2020 03:11:24.000,112.543,5.480,1779.139590
7 Jan 2020 03:11:25.000,112.310,5.462,1780.603319
7 Jan 2020 03:11:26.000,112.077,5.444,1782.094028
7 Jan 2020 03:11:27.000,111.845,5.426,1783.611643
7 Jan 2020 03:11:28.000,111.613,5.408,1785.156101
7 Jan 2020 03:11:29.000,111.382,5.389,1786.727323
7 Jan 2020 03:11:30.000,111.151,5.370,1788.325241
7 Jan 2020 03:11:31.000,110.920,5.351,1789.949786
7 Jan 2020 03:11:32.000,110.690,5.332,1791.600877
7 Jan 2020 03:11:33.000,110.461,5.312,1793.278447
7 Jan 2020 03:11:34.000,110.232,5.292,1794.982412
7 Jan 2020 03:11:35.000,110.003,5.271,1796.712704
7 Jan 2020 03:11:36.000,109.775,5.251,1798.469237
7 Jan 2020 03:11:37.000,109.547,5.230,1800.251941
7 Jan 2020 03:11:38.000,109.320,5.208,1802.060730
7 Jan 2020 03:11:39.000,109.093,5.187,1803.895526
7 Jan 2020 03:11:40.000,108.867,5.165,1805.756252
7 Jan 2020 03:11:41.000,108.641,5.143,1807.642820
7 Jan 2020 03:11:42.000,108.415,5.121,1809.555151
7 Jan 2020 03:11:43.000,108.191,5.098,1811.493165
7 Jan 2020 03:11:44.000,107.966,5.075,1813.456770
7 Jan 2020 03:11:45.000,107.743,5.052,1815.445890
7 Jan 2020 03:11:46.000,107.519,5.028,1817.460431
7 Jan 2020 03:11:47.000,107.296,5.004,1819.500311
7 Jan 2020 03:11:48.000,107.074,4.980,1821.565442
7 Jan 2020 03:11:49.000,106.853,4.956,1823.655741
7 Jan 2020 03:11:50.000,106.631,4.932,1825.771112
7 Jan 2020 03:11:51.000,106.411,4.907,1827.911470
7 Jan 2020 03:11:52.000,106.191,4.882,1830.076729
7 Jan 2020 03:11:53.000,105.971,4.857,1832.266790
7 Jan 2020 03:11:54.000,105.752,4.831,1834.481568
7 Jan 2020 03:11:55.000,105.534,4.805,1836.720970
7 Jan 2020 03:11:56.000,105.316,4.779,1838.984908
7 Jan 2020 03:11:57.000,105.098,4.753,1841.273282
7 Jan 2020 03:11:58.000,104.882,4.726,1843.586002
7 Jan 2020 03:11:59.000,104.665,4.700,1845.922976
7 Jan 2020 03:12:00.000,104.450,4.673,1848.284111
7 Jan 2020 03:12:01.000,104.235,4.645,1850.669307
7 Jan 2020 03:12:02.000,104.020,4.618,1853.078471
7 Jan 2020 03:12:03.000,103.806,4.590,1855.511509
7 Jan 2020 03:12:04.000,103.593,4.562,1857.968323
7 Jan 2020 03:12:05.000,103.380,4.534,1860.448821
7 Jan 2020 03:12:06.000,103.168,4.506,1862.952899
7 Jan 2020 03:12:07.000,102.957,4.477,1865.480463
7 Jan 2020 03:12:08.000,102.746,4.448,1868.031415
7 Jan 2020 03:12:09.000,102.535,4.419,1870.605657
7 Jan 2020 03:12:10.000,102.326,4.390,1873.203090
7 Jan 2020 03:12:11.000,102.116,4.361,1875.823616
7 Jan 2020 03:12:12.000,101.908,4.331,1878.467139
7 Jan 2020 03:12:13.000,101.700,4.301,1881.133551
7 Jan 2020 03:12:14.000,101.493,4.271,1883.822758
7 Jan 2020 03:12:15.000,101.286,4.241,1886.534658
7 Jan 2020 03:12:16.000,101.080,4.210,1889.269152
7 Jan 2020 03:12:17.000,100.875,4.180,1892.026138
7 Jan 2020 03:12:18.000,100.670,4.149,1894.805516
7 Jan 2020 03:12:19.000,100.466,4.118,1897.607185
7 Jan 2020 03:12:20.000,100.262,4.086,1900.431042
7 Jan 2020 03:12:21.000,100.059,4.055,1903.276988
7 Jan 2020 03:12:22.000,99.857,4.023,1906.144918
7 Jan 2020 03:12:23.000,99.655,3.992,1909.034733
7 Jan 2020 03:12:24.000,99.454,3.960,1911.946329
7 Jan 2020 03:12:25.000,99.254,3.927,1914.879605
7 Jan 2020 03:12:26.000,99.054,3.895,1917.834461
7 Jan 2020 03:12:27.000,98.855,3.862,1920.810788
7 Jan 2020 03:12:28.000,98.656,3.830,1923.808486
7 Jan 2020 03:12:29.000,98.458,3.797,1926.827454
7 Jan 2020 03:12:30.000,98.261,3.764,1929.867587
7 Jan 2020 03:12:31.000,98.065,3.731,1932.928779
7 Jan 2020 03:12:32.000,97.869,3.697,1936.010935
7 Jan 2020 03:12:33.000,97.674,3.664,1939.113948
7 Jan 2020 03:12:34.000,97.479,3.630,1942.237714
7 Jan 2020 03:12:35.000,97.285,3.596,1945.382131
7 Jan 2020 03:12:36.000,97.092,3.562,1948.547095
7 Jan 2020 03:12:37.000,96.899,3.528,1951.732503
7 Jan 2020 03:12:38.000,96.707,3.493,1954.938251
7 Jan 2020 03:12:39.000,96.516,3.459,1958.164238
7 Jan 2020 03:12:40.000,96.325,3.424,1961.410358
7 Jan 2020 03:12:41.000,96.135,3.389,1964.676510
7 Jan 2020 03:12:42.000,95.946,3.354,1967.962590
7 Jan 2020 03:12:43.000,95.757,3.319,1971.268495
7 Jan 2020 03:12:44.000,95.569,3.284,1974.594122
7 Jan 2020 03:12:45.000,95.381,3.249,1977.939368
7 Jan 2020 03:12:46.000,95.195,3.213,1981.304127
7 Jan 2020 03:12:47.000,95.009,3.178,1984.688302
7 Jan 2020 03:12:48.000,94.823,3.142,1988.091788
7 Jan 2020 03:12:49.000,94.638,3.106,1991.514483
7 Jan 2020 03:12:50.000,94.454,3.070,1994.956283
7 Jan 2020 03:12:51.000,94.271,3.034,1998.417086
7 Jan 2020 03:12:52.000,94.088,2.997,2001.896791
7 Jan 2020 03:12:53.000,93.906,2.961,2005.395291
7 Jan 2020 03:12:54.000,93.724,2.924,2008.912491
7 Jan 2020 03:12:55.000,93.543,2.888,2012.448288
7 Jan 2020 03:12:56.000,93.363,2.851,2016.002578
7 Jan 2020 03:12:57.000,93.184,2.814,2019.575261
7 Jan 2020 03:12:58.000,93.005,2.777,2023.166231
7 Jan 2020 03:12:59.000,92.827,2.740,2026.775395
7 Jan 2020 03:13:00.000,92.649,2.703,2030.402649
7 Jan 2020 03:13:01.000,92.472,2.665,2034.047891
7 Jan 2020 03:13:02.000,92.296,2.628,2037.711022
7 Jan 2020 03:13:03.000,92.120,2.590,2041.391938
7 Jan 2020 03:13:04.000,91.945,2.553,2045.090545
7 Jan 2020 03:13:05.000,91.771,2.515,2048.806740
7 Jan 2020 03:13:06.000,91.597,2.477,2052.540425
7 Jan 2020 03:13:07.000,91.424,2.439,2056.291496
7 Jan 2020 03:13:08.000,91.252,2.401,2060.059861
7 Jan 2020 03:13:09.000,91.080,2.363,2063.845418
7 Jan 2020 03:13:10.000,90.909,2.325,2067.648069
7 Jan 2020 03:13:11.000,90.739,2.286,2071.467711
7 Jan 2020 03:13:12.000,90.569,2.248,2075.304255
7 Jan 2020 03:13:13.000,90.400,2.209,2079.157598
7 Jan 2020 03:13:14.000,90.232,2.171,2083.027643
7 Jan 2020 03:13:15.000,90.064,2.132,2086.914290
7 Jan 2020 03:13:16.000,89.897,2.093,2090.817450
7 Jan 2020 03:13:17.000,89.730,2.054,2094.737021
7 Jan 2020 03:13:18.000,89.564,2.015,2098.672904
7 Jan 2020 03:13:19.000,89.399,1.976,2102.625011
7 Jan 2020 03:13:20.000,89.234,1.937,2106.593243
7 Jan 2020 03:13:21.000,89.071,1.898,2110.577500
7 Jan 2020 03:13:22.000,88.907,1.859,2114.577695
7 Jan 2020 03:13:23.000,88.744,1.820,2118.593729
7 Jan 2020 03:13:24.000,88.582,1.780,2122.625506
7 Jan 2020 03:13:25.000,88.421,1.741,2126.672937
7 Jan 2020 03:13:26.000,88.260,1.701,2130.735927
7 Jan 2020 03:13:27.000,88.100,1.661,2134.814377
7 Jan 2020 03:13:28.000,87.940,1.622,2138.908203
7 Jan 2020 03:13:29.000,87.782,1.582,2143.017309
7 Jan 2020 03:13:30.000,87.623,1.542,2147.141597
7 Jan 2020 03:13:31.000,87.466,1.502,2151.280985
7 Jan 2020 03:13:32.000,87.309,1.462,2155.435373
7 Jan 2020 03:13:33.000,87.152,1.422,2159.604677
7 Jan 2020 03:13:34.000,86.996,1.382,2163.788803
7 Jan 2020 03:13:35.000,86.841,1.342,2167.987657
7 Jan 2020 03:13:36.000,86.687,1.302,2172.201156
7 Jan 2020 03:13:37.000,86.533,1.262,2176.429204
7 Jan 2020 03:13:38.000,86.379,1.221,2180.671717
7 Jan 2020 03:13:39.000,86.227,1.181,2184.928605
7 Jan 2020 03:13:40.000,86.075,1.141,2189.199774
7 Jan 2020 03:13:41.000,85.923,1.100,2193.485144
7 Jan 2020 03:13:42.000,85.772,1.060,2197.784620
7 Jan 2020 03:13:43.000,85.622,1.019,2202.098121
7 Jan 2020 03:13:44.000,85.472,0.978,2206.425554
7 Jan 2020 03:13:45.000,85.323,0.938,2210.766839
7 Jan 2020 03:13:46.000,85.175,0.897,2215.121887
7 Jan 2020 03:13:47.000,85.027,0.856,2219.490607
7 Jan 2020 03:13:48.000,84.879,0.816,2223.872922
7 Jan 2020 03:13:49.000,84.733,0.775,2228.268740
7 Jan 2020 03:13:50.000,84.587,0.734,2232.677983
7 Jan 2020 03:13:51.000,84.441,0.693,2237.100559
7 Jan 2020 03:13:52.000,84.296,0.652,2241.536393
7 Jan 2020 03:13:53.000,84.152,0.611,2245.985393
7 Jan 2020 03:13:54.000,84.008,0.570,2250.447484
7 Jan 2020 03:13:55.000,83.865,0.529,2254.922576
7 Jan 2020 03:13:56.000,83.722,0.488,2259.410593
7 Jan 2020 03:13:57.000,83.580,0.447,2263.911448
7 Jan 2020 03:13:58.000,83.439,0.406,2268.425065
7 Jan 2020 03:13:59.000,83.298,0.364,2272.951357
7 Jan 2020 03:14:00.000,83.158,0.323,2277.490249
7 Jan 2020 03:14:01.000,83.018,0.282,2282.041656
7 Jan 2020 03:14:02.000,82.879,0.241,2286.605503
7 Jan 2020 03:14:03.000,82.740,0.199,2291.181705
7 Jan 2020 03:14:04.000,82.602,0.158,2295.770190
7 Jan 2020 03:14:05.000,82.465,0.116,2300.370872
7 Jan 2020 03:14:06.000,82.328,0.075,2304.983680
7 Jan 2020 03:14:07.000,82.191,0.034,2309.608530
7 Jan 2020 03:14:08.000,82.056,-0.008,2314.245350
7 Jan 2020 03:14:09.000,81.920,-0.049,2318.894057
7 Jan 2020 03:14:09.701,81.826,-0.078,2322.161320
7 Jan 2020 04:41:05.841,225.430,-0.078,2313.800192
7 Jan 2020 04:41:06.000,225.429,-0.069,2312.700509
7 Jan 2020 04:41:07.000,225.423,-0.006,2305.773647
7 Jan 2020 04:41:08.000,225.416,0.056,2298.846835
7 Jan 2020 04:41:09.000,225.410,0.119,2291.920081
7 Jan 2020 04:41:10.000,225.403,0.182,2284.993393
7 Jan 2020 04:41:11.000,225.397,0.245,2278.066783
7 Jan 2020 04:41:12.000,225.390,0.308,2271.140259
7 Jan 2020 04:41:13.000,225.383,0.372,2264.213827
7 Jan 2020 04:41:14.000,225.376,0.435,2257.287501
7 Jan 2020 04:41:15.000,225.370,0.499,2250.361288
7 Jan 2020 04:41:16.000,225.363,0.563,2243.435194
7 Jan 2020 04:41:17.000,225.356,0.627,2236.509234
7 Jan 2020 04:41:18.000,225.349,0.692,2229.583415
7 Jan 2020 04:41:19.000,225.342,0.757,2222.657744
7 Jan 2020 04:41:20.000,225.335,0.821,2215.732236
7 Jan 2020 04:41:21.000,225.328,0.887,2208.806898
7 Jan 2020 04:41:22.000,225.321,0.952,2201.881740
7 Jan 2020 04:41:23.000,225.313,1.017,2194.956769
7 Jan 2020 04:41:24.000,225.306,1.083,2188.032000
7 Jan 2020 04:41:25.000,225.299,1.149,2181.107441
7 Jan 2020 04:41:26.000,225.291,1.215,2174.183100
7 Jan 2020 04:41:27.000,225.284,1.282,2167.258992
7 Jan 2020 04:41:28.000,225.276,1.348,2160.335125
7 Jan 2020 04:41:29.000,225.269,1.415,2153.411508
7 Jan 2020 04:41:30.000,225.261,1.482,2146.488155
7 Jan 2020 04:41:31.000,225.253,1.550,2139.565075
7 Jan 2020 04:41:32.000,225.245,1.617,2132.642277
7 Jan 2020 04:41:33.000,225.238,1.685,2125.719776
7 Jan 2020 04:41:34.000,225.230,1.753,2118.797582
7 Jan 2020 04:41:35.000,225.222,1.821,2111.875703
7 Jan 2020 04:41:36.000,225.214,1.890,2104.954155
7 Jan 2020 04:41:37.000,225.206,1.959,2098.032947
7 Jan 2020 04:41:38.000,225.197,2.028,2091.112092
7 Jan 2020 04:41:39.000,225.189,2.097,2084.191598
7 Jan 2020 04:41:40.000,225.181,2.166,2077.271481
7 Jan 2020 04:41:41.000,225.172,2.236,2070.351753
7 Jan 2020 04:41:42.000,225.164,2.306,2063.432422
7 Jan 2020 04:41:43.000,225.155,2.376,2056.513505
7 Jan 2020 04:41:44.000,225.147,2.447,2049.595013
7 Jan 2020 04:41:45.000,225.138,2.518,2042.676955
7 Jan 2020 04:41:46.000,225.129,2.589,2035.759350
7 Jan 2020 04:41:47.000,225.121,2.660,2028.842208
7 Jan 2020 04:41:48.000,225.112,2.732,2021.925538
7 Jan 2020 04:41:49.000,225.103,2.804,2015.009360
7 Jan 2020 04:41:50.000,225.094,2.876,2008.093684
7 Jan 2020 04:41:51.000,225.085,2.948,2001.178523
7 Jan 2020 04:41:52.000,225.076,3.021,1994.263888
7 Jan 2020 04:41:53.000,225.066,3.094,1987.349800
7 Jan 2020 04:41:54.000,225.057,3.168,1980.436268
7 Jan 2020 04:41:55.000,225.048,3.241,1973.523304
7 Jan 2020 04:41:56.000,225.038,3.315,1966.610928
7 Jan 2020 04:41:57.000,225.028,3.389,1959.699151
7 Jan 2020 04:41:58.000,225.019,3.464,1952.787986
7 Jan 2020 04:41:59.000,225.009,3.539,1945.877452
7 Jan 2020 04:42:00.000,224.999,3.614,1938.967563
7 Jan 2020 04:42:01.000,224.989,3.689,1932.058329
7 Jan 2020 04:42:02.000,224.979,3.765,1925.149773
7 Jan 2020 04:42:03.000,224.969,3.841,1918.241906
7 Jan 2020 04:42:04.000,224.959,3.918,1911.334745
7 Jan 2020 04:42:05.000,224.949,3.995,1904.428303
7 Jan 2020 04:42:06.000,224.938,4.072,1897.522602
7 Jan 2020 04:42:07.000,224.928,4.149,1890.617653
7 Jan 2020 04:42:08.000,224.917,4.227,1883.713473
7 Jan 2020 04:42:09.000,224.907,4.305,1876.810083
7 Jan 2020 04:42:10.000,224.896,4.383,1869.907496
7 Jan 2020 04:42:11.000,224.885,4.462,1863.005728
7 Jan 2020 04:42:12.000,224.874,4.541,1856.104802
7 Jan 2020 04:42:13.000,224.863,4.621,1849.204731
7 Jan 2020 04:42:14.000,224.852,4.701,1842.305535
7 Jan 2020 04:42:15.000,224.841,4.781,1835.407228
7 Jan 2020 04:42:16.000,224.830,4.862,1828.509834
7 Jan 2020 04:42:17.000,224.818,4.943,1821.613369
7 Jan 2020 04:42:18.000,224.807,5.024,1814.717850
7 Jan 2020 04:42:19.000,224.795,5.106,1807.823299
7 Jan 2020 04:42:20.000,224.783,5.188,1800.929735
7 Jan 2020 04:42:21.000,224.771,5.270,1794.037174
7 Jan 2020 04:42:22.000,224.759,5.353,1787.145641
7 Jan 2020 04:42:23.000,224.747,5.437,1780.255154
7 Jan 2020 04:42:24.000,224.735,5.520,1773.365733
7 Jan 2020 04:42:25.000,224.723,5.605,1766.477397
7 Jan 2020 04:42:26.000,224.711,5.689,1759.590170
7 Jan 2020 04:42:27.000,224.698,5.774,1752.704073
7 Jan 2020 04:42:28.000,224.685,5.860,1745.819123
7 Jan 2020 04:42:29.000,224.673,5.945,1738.935349
7 Jan 2020 04:42:30.000,224.660,6.032,1732.052769
7 Jan 2020 04:42:31.000,224.647,6.118,1725.171403
7 Jan 2020 04:42:32.000,224.633,6.205,1718.291280
7 Jan 2020 04:42:33.000,224.620,6.293,1711.412420
7 Jan 2020 04:42:34.000,224.607,6.381,1704.534847
7 Jan 2020 04:42:35.000,224.593,6.470,1697.658581
7 Jan 2020 04:42:36.000,224.580,6.559,1690.783653
7 Jan 2020 04:42:37.000,224.566,6.648,1683.910083
7 Jan 2020 04:42:38.000,224.552,6.738,1677.037895
7 Jan 2020 04:42:39.000,224.538,6.828,1670.167118
7 Jan 2020 04:42:40.000,224.524,6.919,1663.297777
7 Jan 2020 04:42:41.000,224.509,7.011,1656.429896
7 Jan 2020 04:42:42.000,224.495,7.102,1649.563500
7 Jan 2020 04:42:43.000,224.480,7.195,1642.698621
7 Jan 2020 04:42:44.000,224.465,7.288,1635.835283
7 Jan 2020 04:42:45.000,224.451,7.381,1628.973511
7 Jan 2020 04:42:46.000,224.435,7.475,1622.113339
7 Jan 2020 04:42:47.000,224.420,7.570,1615.254793
7 Jan 2020 04:42:48.000,224.405,7.665,1608.397901
7 Jan 2020 04:42:49.000,224.389,7.760,1601.542691
7 Jan 2020 04:42:50.000,224.374,7.856,1594.689197
7 Jan 2020 04:42:51.000,224.358,7.953,1587.837447
7 Jan 2020 04:42:52.000,224.342,8.050,1580.987469
7 Jan 2020 04:42:53.000,224.326,8.148,1574.139301
7 Jan 2020 04:42:54.000,224.309,8.246,1567.292970
7 Jan 2020 04:42:55.000,224.293,8.345,1560.448510
7 Jan 2020 04:42:56.000,224.276,8.445,1553.605951
7 Jan 2020 04:42:57.000,224.259,8.545,1546.765331
7 Jan 2020 04:42:58.000,224.242,8.646,1539.926682
7 Jan 2020 04:42:59.000,224.225,8.747,1533.090036
7 Jan 2020 04:43:00.000,224.207,8.849,1526.255432
7 Jan 2020 04:43:01.000,224.190,8.952,1519.422904
7 Jan 2020 04:43:02.000,224.172,9.055,1512.592489
7 Jan 2020 04:43:03.000,224.154,9.159,1505.764219
7 Jan 2020 04:43:04.000,224.136,9.264,1498.938140
7 Jan 2020 04:43:05.000,224.118,9.369,1492.114284
7 Jan 2020 04:43:06.000,224.099,9.475,1485.292690
7 Jan 2020 04:43:07.000,224.080,9.582,1478.473401
7 Jan 2020 04:43:08.000,224.061,9.689,1471.656455
7 Jan 2020 04:43:09.000,224.042,9.797,1464.841893
7 Jan 2020 04:43:10.000,224.023,9.906,1458.029754
7 Jan 2020 04:43:11.000,224.003,10.016,1451.220085
7 Jan 2020 04:43:12.000,223.983,10.126,1444.412927
7 Jan 2020 04:43:13.000,223.963,10.237,1437.608323
7 Jan 2020 04:43:14.000,223.943,10.349,1430.806315
7 Jan 2020 04:43:15.000,223.922,10.461,1424.006954
7 Jan 2020 04:43:16.000,223.902,10.574,1417.210284
7 Jan 2020 04:43:17.000,223.881,10.689,1410.416349
7 Jan 2020 04:43:18.000,223.860,10.803,1403.625201
7 Jan 2020 04:43:19.000,223.838,10.919,1396.836887
7 Jan 2020 04:43:20.000,223.816,11.036,1390.051456
7 Jan 2020 04:43:21.000,223.794,11.153,1383.268957
7 Jan 2020 04:43:22.000,223.772,11.271,1376.489446
7 Jan 2020 04:43:23.000,223.750,11.390,1369.712973
7 Jan 2020 04:43:24.000,223.727,11.510,1362.939591
7 Jan 2020 04:43:25.000,223.704,11.631,1356.169352
7 Jan 2020 04:43:26.000,223.681,11.753,1349.402316
7 Jan 2020 04:43:27.000,223.657,11.875,1342.638538
7 Jan 2020 04:43:28.000,223.633,11.999,1335.878074
7 Jan 2020 04:43:29.000,223.609,12.123,1329.120982
7 Jan 2020 04:43:30.000,223.585,12.249,1322.367325
7 Jan 2020 04:43:31.000,223.560,12.375,1315.617163
7 Jan 2020 04:43:32.000,223.535,12.503,1308.870556
7 Jan 2020 04:43:33.000,223.510,12.631,1302.127567
7 Jan 2020 04:43:34.000,223.484,12.760,1295.388264
7 Jan 2020 04:43:35.000,223.458,12.891,1288.652711
7 Jan 2020 04:43:36.000,223.432,13.022,1281.920975
7 Jan 2020 04:43:37.000,223.405,13.155,1275.193122
7 Jan 2020 04:43:38.000,223.378,13.288,1268.469227
7 Jan 2020 04:43:39.000,223.351,13.423,1261.749358
7 Jan 2020 04:43:40.000,223.323,13.559,1255.033588
7 Jan 2020 04:43:41.000,223.295,13.695,1248.321989
7 Jan 2020 04:43:42.000,223.267,13.833,1241.614641
7 Jan 2020 04:43:43.000,223.238,13.973,1234.911619
7 Jan 2020 04:43:44.000,223.209,14.113,1228.213002
7 Jan 2020 04:43:45.000,223.179,14.255,1221.518868
7 Jan 2020 04:43:46.000,223.150,14.397,1214.829304
7 Jan 2020 04:43:47.000,223.119,14.541,1208.144391
7 Jan 2020 04:43:48.000,223.089,14.686,1201.464215
7 Jan 2020 04:43:49.000,223.058,14.833,1194.788862
7 Jan 2020 04:43:50.000,223.026,14.981,1188.118421
7 Jan 2020 04:43:51.000,222.994,15.130,1181.452987
7 Jan 2020 04:43:52.000,222.962,15.280,1174.792650
7 Jan 2020 04:43:53.000,222.929,15.432,1168.137506
7 Jan 2020 04:43:54.000,222.896,15.585,1161.487650
7 Jan 2020 04:43:55.000,222.862,15.740,1154.843185
7 Jan 2020 04:43:56.000,222.828,15.896,1148.204210
7 Jan 2020 04:43:57.000,222.793,16.053,1141.570830
7 Jan 2020 04:43:58.000,222.758,16.212,1134.943150
7 Jan 2020 04:43:59.000,222.722,16.372,1128.321276
7 Jan 2020 04:44:00.000,222.686,16.534,1121.705324
7 Jan 2020 04:44:01.000,222.649,16.697,1115.095404
7 Jan 2020 04:44:02.000,222.612,16.862,1108.491632
7 Jan 2020 04:44:03.000,222.574,17.029,1101.894127
7 Jan 2020 04:44:04.000,222.536,17.197,1095.303008
7 Jan 2020 04:44:05.000,222.497,17.367,1088.718402
7 Jan 2020 04:44:06.000,222.458,17.539,1082.140434
7 Jan 2020 04:44:07.000,222.418,17.712,1075.569234
7 Jan 2020 04:44:08.000,222.377,17.887,1069.004934
7 Jan 2020 04:44:09.000,222.336,18.063,1062.447668
7 Jan 2020 04:44:10.000,222.294,18.242,1055.897580
7 Jan 2020 04:44:11.000,222.251,18.422,1049.354808
7 Jan 2020 04:44:12.000,222.208,18.605,1042.819498
7 Jan 2020 04:44:13.000,222.164,18.789,1036.291800
7 Jan 2020 04:44:14.000,222.120,18.975,1029.771864
7 Jan 2020 04:44:15.000,222.074,19.163,1023.259850
7 Jan 2020 04:44:16.000,222.028,19.353,1016.755916
7 Jan 2020 04:44:17.000,221.982,19.545,1010.260225
7 Jan 2020 04:44:18.000,221.934,19.739,1003.772946
7 Jan 2020 04:44:19.000,221.886,19.935,997.294250
7 Jan 2020 04:44:20.000,221.837,20.133,990.824311
7 Jan 2020 04:44:21.000,221.787,20.334,984.363315
7 Jan 2020 04:44:22.000,221.736,20.536,977.911442
7 Jan 2020 04:44:23.000,221.685,20.741,971.468884
7 Jan 2020 04:44:24.000,221.633,20.948,965.035833
7 Jan 2020 04:44:25.000,221.579,21.158,958.612490
7 Jan 2020 04:44:26.000,221.525,21.370,952.199058
7 Jan 2020 04:44:27.000,221.470,21.584,945.795744
7 Jan 2020 04:44:28.000,221.414,21.801,939.402767
7 Jan 2020 04:44:29.000,221.357,22.021,933.020345
7 Jan 2020 04:44:30.000,221.299,22.243,926.648704
7 Jan 2020 04:44:31.000,221.240,22.467,920.288075
7 Jan 2020 04:44:32.000,221.180,22.694,913.938696
7 Jan 2020 04:44:33.000,221.119,22.924,907.600809
7 Jan 2020 04:44:34.000,221.056,23.157,901.274666
7 Jan 2020 04:44:35.000,220.993,23.393,894.960519
7 Jan 2020 04:44:36.000,220.928,23.631,888.658638
7 Jan 2020 04:44:37.000,220.862,23.872,882.369290
7 Jan 2020 04:44:38.000,220.795,24.117,876.092753
7 Jan 2020 04:44:39.000,220.727,24.364,869.829310
7 Jan 2020 04:44:40.000,220.657,24.614,863.579255
7 Jan 2020 04:44:41.000,220.586,24.868,857.342887
7 Jan 2020 04:44:42.000,220.514,25.125,851.120515
7 Jan 2020 04:44:43.000,220.440,25.385,844.912456
7 Jan 2020 04:44:44.000,220.365,25.648,838.719034
7 Jan 2020 04:44:45.000,220.288,25.915,832.540584
7 Jan 2020 04:44:46.000,220.210,26.185,826.377448
7 Jan 2020 04:44:47.000,220.130,26.459,820.229978
7 Jan 2020 04:44:48.000,220.049,26.737,814.098539
7 Jan 2020 04:44:49.000,219.966,27.018,807.983501
7 Jan 2020 04:44:50.000,219.881,27.303,801.885247
7 Jan 2020 04:44:51.000,219.794,27.591,795.804170
7 Jan 2020 04:44:52.000,219.705,27.884,789.740674
7 Jan 2020 04:44:53.000,219.615,28.180,783.695175
7 Jan 2020 04:44:54.000,219.522,28.481,777.668098
7 Jan 2020 04:44:55.000,219.428,28.786,771.659883
7 Jan 2020 04:44:56.000,219.331,29.095,765.670981
7 Jan 2020 04:44:57.000,219.232,29.408,759.701856
7 Jan 2020 04:44:58.000,219.131,29.725,753.752984
7 Jan 2020 04:44:59.000,219.028,30.047,747.824856
7 Jan 2020 04:45:00.000,218.923,30.374,741.917976
7 Jan 2020 04:45:01.000,218.814,30.705,736.032863
7 Jan 2020 04:45:02.000,218.704,31.041,730.170050
7 Jan 2020 04:45:03.000,218.590,31.382,724.330085
7 Jan 2020 04:45:04.000,218.474,31.728,718.513534
7 Jan 2020 04:45:05.000,218.355,32.078,712.720974
7 Jan 2020 04:45:06.000,218.233,32.434,706.953002
7 Jan 2020 04:45:07.000,218.108,32.795,701.210234
7 Jan 2020 04:45:08.000,217.980,33.161,695.493298
7 Jan 2020 04:45:09.000,217.849,33.533,689.802845
7 Jan 2020 04:45:10.000,217.714,33.910,684.139543
7 Jan 2020 04:45:11.000,217.576,34.293,678.504077
7 Jan 2020 04:45:12.000,217.434,34.681,672.897153
7 Jan 2020 04:45:13.000,217.288,35.076,667.319498
7 Jan 2020 04:45:14.000,217.138,35.476,661.771860
7 Jan 2020 04:45:15.000,216.985,35.882,656.255004
7 Jan 2020 04:45:16.000,216.826,36.294,650.769719
7 Jan 2020 04:45:17.000,216.664,36.713,645.316819
7 Jan 2020 04:45:18.000,216.496,37.138,639.897136
7 Jan 2020 04:45:19.000,216.324,37.569,634.511529
7 Jan 2020 04:45:20.000,216.147,38.007,629.160881
7 Jan 2020 04:45:21.000,215.965,38.451,623.846094
7 Jan 2020 04:45:22.000,215.777,38.903,618.568100
7 Jan 2020 04:45:23.000,215.583,39.361,613.327856
7 Jan 2020 04:45:24.000,215.383,39.826,608.126344
7 Jan 2020 04:45:25.000,215.177,40.298,602.964571
7 Jan 2020 04:45:26.000,214.964,40.777,597.843574
7 Jan 2020 04:45:27.000,214.745,41.264,592.764414
7 Jan 2020 04:45:28.000,214.518,41.758,587.728184
7 Jan 2020 04:45:29.000,214.284,42.260,582.736001
7 Jan 2020 04:45:30.000,214.041,42.769,577.789012
7 Jan 2020 04:45:31.000,213.790,43.285,572.888397
7 Jan 2020 04:45:32.000,213.531,43.810,568.035357
7 Jan 2020 04:45:33.000,213.262,44.342,563.231132
7 Jan 2020 04:45:34.000,212.984,44.882,558.476984
7 Jan 2020 04:45:35.000,212.695,45.430,553.774210
7 Jan 2020 04:45:36.000,212.395,45.987,549.124136
7 Jan 2020 04:45:37.000,212.084,46.551,544.528116
7 Jan 2020 04:45:38.000,211.761,47.123,539.987537
7 Jan 2020 04:45:39.000,211.426,47.703,535.503812
7 Jan 2020 04:45:40.000,211.076,48.292,531.078389
7 Jan 2020 04:45:41.000,210.713,48.889,526.712740
7 Jan 2020 04:45:42.000,210.334,49.494,522.408372
7 Jan 2020 04:45:43.000,209.940,50.107,518.166814
7 Jan 2020 04:45:44.000,209.528,50.728,513.989629
7 Jan 2020 04:45:45.000,209.098,51.357,509.878401
7 Jan 2020 04:45:46.000,208.649,51.994,505.834744
7 Jan 2020 04:45:47.000,208.179,52.639,501.860297
7 Jan 2020 04:45:48.000,207.688,53.291,497.956720
7 Jan 2020 04:45:49.000,207.173,53.951,494.125698
7 Jan 2020 04:45:50.000,206.633,54.619,490.368936
7 Jan 2020 04:45:51.000,206.066,55.293,486.688159
7 Jan 2020 04:45:52.000,205.471,55.975,483.085106
7 Jan 2020 04:45:53.000,204.845,56.662,479.561533
7 Jan 2020 04:45:54.000,204.185,57.357,476.119211
7 Jan 2020 04:45:55.000,203.491,58.057,472.759918
7 Jan 2020 04:45:56.000,202.758,58.762,469.485439
7 Jan 2020 04:45:57.000,201.984,59.472,466.297564
7 Jan 2020 04:45:58.000,201.165,60.187,463.198087
7 Jan 2020 04:45:59.000,200.299,60.905,460.188797
7 Jan 2020 04:46:00.000,199.380,61.626,457.271476
7 Jan 2020 04:46:01.000,198.405,62.349,454.447901
7 Jan 2020 04:46:02.000,197.370,63.073,451.719832
7 Jan 2020 04:46:03.000,196.268,63.797,449.089012
7 Jan 2020 04:46:04.000,195.095,64.520,446.557164
7 Jan 2020 04:46:05.000,193.844,65.241,444.125983
7 Jan 2020 04:46:06.000,192.509,65.957,441.797134
7 Jan 2020 04:46:07.000,191.082,66.669,439.572245
7 Jan 2020 04:46:08.000,189.556,67.373,437.452906
7 Jan 2020 04:46:09.000,187.922,68.068,435.440659
7 Jan 2020 04:46:10.000,186.172,68.751,433.536999
7 Jan 2020 04:46:11.000,184.296,69.421,431.743364
7 Jan 2020 04:46:12.000,182.285,70.073,430.061132
7 Jan 2020 04:46:13.000,180.129,70.706,428.491617
7 Jan 2020 04:46:14.000,177.818,71.316,427.036064
7 Jan 2020 04:46:15.000,175.345,71.898,425.695644
7 Jan 2020 04:46:16.000,172.701,72.451,424.471448
7 Jan 2020 04:46:17.000,169.881,72.968,423.364487
7 Jan 2020 04:46:18.000,166.881,73.446,422.375682
7 Jan 2020 04:46:19.000,163.702,73.880,421.505867
7 Jan 2020 04:46:20.000,160.349,74.266,420.755781
7 Jan 2020 04:46:21.000,156.832,74.598,420.126064
7 Jan 2020 04:46:22.000,153.166,74.874,419.617261
7 Jan 2020 04:46:23.000,149.375,75.088,419.229811
7 Jan 2020 04:46:24.000,145.486,75.238,418.964052
7 Jan 2020 04:46:25.000,141.532,75.322,418.820216
7 Jan 2020 04:46:26.000,137.550,75.338,418.798427
7 Jan 2020 04:46:27.000,133.579,75.286,418.898705
7 Jan 2020 04:46:28.000,129.655,75.167,419.120963
7 Jan 2020 04:46:29.000,125.815,74.982,419.465005
7 Jan 2020 04:46:30.000,122.088,74.735,419.930532
7 Jan 2020 04:46:31.000,118.500,74.429,420.517140
7 Jan 2020 04:46:32.000,115.070,74.067,421.224322
7 Jan 2020 04:46:33.000,111.809,73.656,422.051470
7 Jan 2020 04:46:34.000,108.727,73.198,422.997881
7 Jan 2020 04:46:35.000,105.824,72.699,424.062754
7 Jan 2020 04:46:36.000,103.099,72.163,425.245197
7 Jan 2020 04:46:37.000,100.548,71.594,426.544232
7 Jan 2020 04:46:38.000,98.163,70.997,427.958796
7 Jan 2020 04:46:39.000,95.937,70.376,429.487743
7 Jan 2020 04:46:40.000,93.860,69.733,431.129857
7 Jan 2020 04:46:41.000,91.923,69.072,432.883846
7 Jan 2020 04:46:42.000,90.116,68.395,434.748354
7 Jan 2020 04:46:43.000,88.430,67.706,436.721966
7 Jan 2020 04:46:44.000,86.855,67.007,438.803203
7 Jan 2020 04:46:45.000,85.383,66.300,440.990540
7 Jan 2020 04:46:46.000,84.007,65.586,443.282406
7 Jan 2020 04:46:47.000,82.718,64.868,445.677182
7 Jan 2020 04:46:48.000,81.510,64.147,448.173217
7 Jan 2020 04:46:49.000,80.376,63.424,450.768826
7 Jan 2020 04:46:50.000,79.311,62.701,453.462296
7 Jan 2020 04:46:51.000,78.309,61.979,456.251889
7 Jan 2020 04:46:52.000,77.365,61.258,459.135852
7 Jan 2020 04:46:53.000,76.475,60.539,462.112412
7 Jan 2020 04:46:54.000,75.635,59.824,465.179789
7 Jan 2020 04:46:55.000,74.841,59.113,468.336195
7 Jan 2020 04:46:56.000,74.089,58.407,471.579838
7 Jan 2020 04:46:57.000,73.377,57.705,474.908927
7 Jan 2020 04:46:58.000,72.702,57.010,478.321673
7 Jan 2020 04:46:59.000,72.061,56.320,481.816294
7 Jan 2020 04:47:00.000,71.452,55.637,485.391018
7 Jan 2020 04:47:01.000,70.872,54.960,489.044084
7 Jan 2020 04:47:02.000,70.320,54.290,492.773743
7 Jan 2020 04:47:03.000,69.794,53.628,496.578269
7 Jan 2020 04:47:04.000,69.292,52.973,500.455947
7 Jan 2020 04:47:05.000,68.813,52.326,504.405086
7 Jan 2020 04:47:06.000,68.354,51.686,508.424013
7 Jan 2020 04:47:07.000,67.916,51.055,512.511086
7 Jan 2020 04:47:08.000,67.496,50.431,516.664679
7 Jan 2020 04:47:09.000,67.094,49.816,520.883199
7 Jan 2020 04:47:10.000,66.708,49.208,525.165074
7 Jan 2020 04:47:11.000,66.338,48.609,529.508761
7 Jan 2020 04:47:12.000,65.982,48.017,533.912749
7 Jan 2020 04:47:13.000,65.641,47.434,538.375549
7 Jan 2020 04:47:14.000,65.312,46.859,542.895709
7 Jan 2020 04:47:15.000,64.996,46.293,547.471799
7 Jan 2020 04:47:16.000,64.691,45.734,552.102428
7 Jan 2020 04:47:17.000,64.397,45.183,556.786223
7 Jan 2020 04:47:18.000,64.114,44.640,561.521853
7 Jan 2020 04:47:19.000,63.841,44.105,566.308008
7 Jan 2020 04:47:20.000,63.578,43.578,571.143415
7 Jan 2020 04:47:21.000,63.323,43.059,576.026828
7 Jan 2020 04:47:22.000,63.077,42.547,580.957027
7 Jan 2020 04:47:23.000,62.840,42.043,585.932830
7 Jan 2020 04:47:24.000,62.609,41.546,590.953074
7 Jan 2020 04:47:25.000,62.387,41.057,596.016632
7 Jan 2020 04:47:26.000,62.171,40.575,601.122403
7 Jan 2020 04:47:27.000,61.962,40.101,606.269317
7 Jan 2020 04:47:28.000,61.760,39.633,611.456325
7 Jan 2020 04:47:29.000,61.564,39.173,616.682410
7 Jan 2020 04:47:30.000,61.373,38.719,621.946583
7 Jan 2020 04:47:31.000,61.188,38.272,627.247875
7 Jan 2020 04:47:32.000,61.009,37.832,632.585348
7 Jan 2020 04:47:33.000,60.835,37.399,637.958088
7 Jan 2020 04:47:34.000,60.665,36.972,643.365204
7 Jan 2020 04:47:35.000,60.501,36.551,648.805833
7 Jan 2020 04:47:36.000,60.341,36.137,654.279127
7 Jan 2020 04:47:37.000,60.185,35.728,659.784270
7 Jan 2020 04:47:38.000,60.034,35.326,665.320464
7 Jan 2020 04:47:39.000,59.887,34.930,670.886933
7 Jan 2020 04:47:40.000,59.743,34.539,676.482924
7 Jan 2020 04:47:41.000,59.603,34.155,682.107706
7 Jan 2020 04:47:42.000,59.467,33.776,687.760560
7 Jan 2020 04:47:43.000,59.335,33.402,693.440796
7 Jan 2020 04:47:44.000,59.205,33.034,699.147740
7 Jan 2020 04:47:45.000,59.079,32.671,704.880735
7 Jan 2020 04:47:46.000,58.956,32.314,710.639145
7 Jan 2020 04:47:47.000,58.836,31.961,716.422349
7 Jan 2020 04:47:48.000,58.719,31.614,722.229745
7 Jan 2020 04:47:49.000,58.605,31.271,728.060748
7 Jan 2020 04:47:50.000,58.493,30.934,733.914787
7 Jan 2020 04:47:51.000,58.384,30.601,739.791308
7 Jan 2020 04:47:52.000,58.277,30.273,745.689774
7 Jan 2020 04:47:53.000,58.173,29.949,751.609659
7 Jan 2020 04:47:54.000,58.072,29.630,757.550456
7 Jan 2020 04:47:55.000,57.972,29.315,763.511668
7 Jan 2020 04:47:56.000,57.875,29.005,769.492814
7 Jan 2020 04:47:57.000,57.780,28.699,775.493425
7 Jan 2020 04:47:58.000,57.687,28.397,781.513047
7 Jan 2020 04:47:59.000,57.595,28.099,787.551235
7 Jan 2020 04:48:00.000,57.506,27.805,793.607559
7 Jan 2020 04:48:01.000,57.419,27.515,799.681599
7 Jan 2020 04:48:02.000,57.334,27.228,805.772948
7 Jan 2020 04:48:03.000,57.250,26.946,811.881208
7 Jan 2020 04:48:04.000,57.168,26.667,818.005993
7 Jan 2020 04:48:05.000,57.088,26.392,824.146928
7 Jan 2020 04:48:06.000,57.009,26.121,830.303647
7 Jan 2020 04:48:07.000,56.932,25.853,836.475794
7 Jan 2020 04:48:08.000,56.856,25.588,842.663022
7 Jan 2020 04:48:09.000,56.782,25.327,848.864994
7 Jan 2020 04:48:10.000,56.710,25.069,855.081383
7 Jan 2020 04:48:11.000,56.638,24.814,861.311868
7 Jan 2020 04:48:12.000,56.568,24.563,867.556138
7 Jan 2020 04:48:13.000,56.500,24.315,873.813890
7 Jan 2020 04:48:14.000,56.432,24.069,880.084829
7 Jan 2020 04:48:15.000,56.366,23.827,886.368668
7 Jan 2020 04:48:16.000,56.302,23.587,892.665123
7 Jan 2020 04:48:17.000,56.238,23.351,898.973929
7 Jan 2020 04:48:18.000,56.176,23.117,905.294816
7 Jan 2020 04:48:19.000,56.114,22.886,911.627525
7 Jan 2020 04:48:20.000,56.054,22.658,917.971804
7 Jan 2020 04:48:21.000,55.995,22.433,924.327407
7 Jan 2020 04:48:22.000,55.937,22.210,930.694095
7 Jan 2020 04:48:23.000,55.880,21.990,937.071634
7 Jan 2020 04:48:24.000,55.824,21.772,943.459794
7 Jan 2020 04:48:25.000,55.768,21.557,949.858358
7 Jan 2020 04:48:26.000,55.714,21.344,956.267106
7 Jan 2020 04:48:27.000,55.661,21.133,962.685829
7 Jan 2020 04:48:28.000,55.609,20.925,969.114319
7 Jan 2020 04:48:29.000,55.557,20.720,975.552377
7 Jan 2020 04:48:30.000,55.506,20.516,981.999806
7 Jan 2020 04:48:31.000,55.457,20.315,988.456412
7 Jan 2020 04:48:32.000,55.408,20.116,994.922014
7 Jan 2020 04:48:33.000,55.360,19.919,1001.396428
7 Jan 2020 04:48:34.000,55.312,19.724,1007.879477
7 Jan 2020 04:48:35.000,55.265,19.532,1014.370986
7 Jan 2020 04:48:36.000,55.220,19.341,1020.870787
7 Jan 2020 04:48:37.000,55.174,19.152,1027.378714
7 Jan 2020 04:48:38.000,55.130,18.966,1033.894604
7 Jan 2020 04:48:39.000,55.086,18.781,1040.418305
7 Jan 2020 04:48:40.000,55.043,18.598,1046.949659
7 Jan 2020 04:48:41.000,55.001,18.417,1053.488517
7 Jan 2020 04:48:42.000,54.959,18.238,1060.034733
7 Jan 2020 04:48:43.000,54.918,18.061,1066.588159
7 Jan 2020 04:48:44.000,54.877,17.885,1073.148662
7 Jan 2020 04:48:45.000,54.838,17.711,1079.716102
7 Jan 2020 04:48:46.000,54.798,17.539,1086.290346
7 Jan 2020 04:48:47.000,54.760,17.369,1092.871262
7 Jan 2020 04:48:48.000,54.721,17.200,1099.458720
7 Jan 2020 04:48:49.000,54.684,17.033,1106.052602
7 Jan 2020 04:48:50.000,54.647,16.867,1112.652781
7 Jan 2020 04:48:51.000,54.610,16.703,1119.259139
7 Jan 2020 04:48:52.000,54.574,16.541,1125.871560
7 Jan 2020 04:48:53.000,54.539,16.380,1132.489926
7 Jan 2020 04:48:54.000,54.504,16.221,1139.114131
7 Jan 2020 04:48:55.000,54.470,16.063,1145.744063
7 Jan 2020 04:48:56.000,54.436,15.906,1152.379616
7 Jan 2020 04:48:57.000,54.402,15.751,1159.020685
7 Jan 2020 04:48:58.000,54.369,15.598,1165.667165
7 Jan 2020 04:48:59.000,54.337,15.446,1172.318962
7 Jan 2020 04:49:00.000,54.305,15.295,1178.975974
7 Jan 2020 04:49:01.000,54.273,15.145,1185.638107
7 Jan 2020 04:49:02.000,54.242,14.997,1192.305266
7 Jan 2020 04:49:03.000,54.211,14.850,1198.977356
7 Jan 2020 04:49:04.000,54.181,14.704,1205.654294
7 Jan 2020 04:49:05.000,54.151,14.560,1212.335989
7 Jan 2020 04:49:06.000,54.121,14.417,1219.022354
7 Jan 2020 04:49:07.000,54.092,14.275,1225.713302
7 Jan 2020 04:49:08.000,54.063,14.134,1232.408756
7 Jan 2020 04:49:09.000,54.035,13.995,1239.108632
7 Jan 2020 04:49:10.000,54.007,13.856,1245.812851
7 Jan 2020 04:49:11.000,53.979,13.719,1252.521332
7 Jan 2020 04:49:12.000,53.952,13.583,1259.234006
7 Jan 2020 04:49:13.000,53.925,13.448,1265.950793
7 Jan 2020 04:49:14.000,53.899,13.314,1272.671622
7 Jan 2020 04:49:15.000,53.872,13.181,1279.396417
7 Jan 2020 04:49:16.000,53.847,13.049,1286.125114
7 Jan 2020 04:49:17.000,53.821,12.919,1292.857641
7 Jan 2020 04:49:18.000,53.796,12.789,1299.593931
7 Jan 2020 04:49:19.000,53.771,12.660,1306.333918
7 Jan 2020 04:49:20.000,53.746,12.532,1313.077532
7 Jan 2020 04:49:21.000,53.722,12.406,1319.824718
7 Jan 2020 04:49:22.000,53.698,12.280,1326.575408
7 Jan 2020 04:49:23.000,53.674,12.155,1333.329543
7 Jan 2020 04:49:24.000,53.651,12.031,1340.087058
7 Jan 2020 04:49:25.000,53.628,11.908,1346.847901
7 Jan 2020 04:49:26.000,53.605,11.786,1353.612010
7 Jan 2020 04:49:27.000,53.582,11.665,1360.379327
7 Jan 2020 04:49:28.000,53.560,11.545,1367.149801
7 Jan 2020 04:49:29.000,53.538,11.426,1373.923374
7 Jan 2020 04:49:30.000,53.516,11.307,1380.699994
7 Jan 2020 04:49:31.000,53.495,11.190,1387.479603
7 Jan 2020 04:49:32.000,53.474,11.073,1394.262157
7 Jan 2020 04:49:33.000,53.453,10.957,1401.047602
7 Jan 2020 04:49:34.000,53.432,10.842,1407.835887
7 Jan 2020 04:49:35.000,53.412,10.727,1414.626960
7 Jan 2020 04:49:36.000,53.391,10.614,1421.420781
7 Jan 2020 04:49:37.000,53.371,10.501,1428.217297
7 Jan 2020 04:49:38.000,53.352,10.389,1435.016464
7 Jan 2020 04:49:39.000,53.332,10.278,1441.818231
7 Jan 2020 04:49:40.000,53.313,10.167,1448.622561
7 Jan 2020 04:49:41.000,53.294,10.057,1455.429407
7 Jan 2020 04:49:42.000,53.275,9.948,1462.238725
7 Jan 2020 04:49:43.000,53.256,9.840,1469.050469
7 Jan 2020 04:49:44.000,53.238,9.733,1475.864604
7 Jan 2020 04:49:45.000,53.220,9.626,1482.681086
7 Jan 2020 04:49:46.000,53.202,9.519,1489.499872
7 Jan 2020 04:49:47.000,53.184,9.414,1496.320927
7 Jan 2020 04:49:48.000,53.166,9.309,1503.144211
7 Jan 2020 04:49:49.000,53.149,9.205,1509.969683
7 Jan 2020 04:49:50.000,53.132,9.101,1516.797305
7 Jan 2020 04:49:51.000,53.115,8.998,1523.627044
7 Jan 2020 04:49:52.000,53.098,8.896,1530.458862
7 Jan 2020 04:49:53.000,53.081,8.795,1537.292718
7 Jan 2020 04:49:54.000,53.065,8.694,1544.128585
7 Jan 2020 04:49:55.000,53.049,8.593,1550.966425
7 Jan 2020 04:49:56.000,53.032,8.493,1557.806202
7 Jan 2020 04:49:57.000,53.017,8.394,1564.647882
7 Jan 2020 04:49:58.000,53.001,8.296,1571.491436
7 Jan 2020 04:49:59.000,52.985,8.198,1578.336829
7 Jan 2020 04:50:00.000,52.970,8.100,1585.184029
7 Jan 2020 04:50:01.000,52.955,8.003,1592.033002
7 Jan 2020 04:50:02.000,52.940,7.907,1598.883723
7 Jan 2020 04:50:03.000,52.925,7.811,1605.736158
7 Jan 2020 04:50:04.000,52.910,7.716,1612.590274
7 Jan 2020 04:50:05.000,52.895,7.622,1619.446048
7 Jan 2020 04:50:06.000,52.881,7.528,1626.303447
7 Jan 2020 04:50:07.000,52.867,7.434,1633.162443
7 Jan 2020 04:50:08.000,52.853,7.341,1640.023005
7 Jan 2020 04:50:09.000,52.839,7.248,1646.885110
7 Jan 2020 04:50:10.000,52.825,7.156,1653.748729
7 Jan 2020 04:50:11.000,52.811,7.065,1660.613832
7 Jan 2020 04:50:12.000,52.798,6.974,1667.480398
7 Jan 2020 04:50:13.000,52.784,6.883,1674.348397
7 Jan 2020 04:50:14.000,52.771,6.793,1681.217801
7 Jan 2020 04:50:15.000,52.758,6.704,1688.088592
7 Jan 2020 04:50:16.000,52.745,6.614,1694.960740
7 Jan 2020 04:50:17.000,52.732,6.526,1701.834220
7 Jan 2020 04:50:18.000,52.719,6.438,1708.709007
7 Jan 2020 04:50:19.000,52.707,6.350,1715.585082
7 Jan 2020 04:50:20.000,52.694,6.263,1722.462418
7 Jan 2020 04:50:21.000,52.682,6.176,1729.340988
7 Jan 2020 04:50:22.000,52.670,6.089,1736.220777
7 Jan 2020 04:50:23.000,52.658,6.003,1743.101759
7 Jan 2020 04:50:24.000,52.646,5.918,1749.983910
7 Jan 2020 04:50:25.000,52.634,5.833,1756.867207
7 Jan 2020 04:50:26.000,52.623,5.748,1763.751634
7 Jan 2020 04:50:27.000,52.611,5.664,1770.637166
7 Jan 2020 04:50:28.000,52.600,5.580,1777.523779
7 Jan 2020 04:50:29.000,52.588,5.497,1784.411459
7 Jan 2020 04:50:30.000,52.577,5.414,1791.300181
7 Jan 2020 04:50:31.000,52.566,5.331,1798.189924
7 Jan 2020 04:50:32.000,52.555,5.249,1805.080672
7 Jan 2020 04:50:33.000,52.544,5.167,1811.972403
7 Jan 2020 04:50:34.000,52.533,5.085,1818.865099
7 Jan 2020 04:50:35.000,52.523,5.004,1825.758736
7 Jan 2020 04:50:36.000,52.512,4.923,1832.653302
7 Jan 2020 04:50:37.000,52.502,4.843,1839.548775
7 Jan 2020 04:50:38.000,52.491,4.763,1846.445134
7 Jan 2020 04:50:39.000,52.481,4.684,1853.342366
7 Jan 2020 04:50:40.000,52.471,4.604,1860.240451
7 Jan 2020 04:50:41.000,52.461,4.525,1867.139369
7 Jan 2020 04:50:42.000,52.451,4.447,1874.039107
7 Jan 2020 04:50:43.000,52.441,4.369,1880.939646
7 Jan 2020 04:50:44.000,52.431,4.291,1887.840968
7 Jan 2020 04:50:45.000,52.422,4.213,1894.743054
7 Jan 2020 04:50:46.000,52.412,4.136,1901.645892
7 Jan 2020 04:50:47.000,52.403,4.059,1908.549465
7 Jan 2020 04:50:48.000,52.393,3.983,1915.453752
7 Jan 2020 04:50:49.000,52.384,3.906,1922.358744
7 Jan 2020 04:50:50.000,52.375,3.831,1929.264421
7 Jan 2020 04:50:51.000,52.366,3.755,1936.170766
7 Jan 2020 04:50:52.000,52.357,3.680,1943.077769
7 Jan 2020 04:50:53.000,52.348,3.605,1949.985412
7 Jan 2020 04:50:54.000,52.339,3.530,1956.893679
7 Jan 2020 04:50:55.000,52.331,3.456,1963.802553
7 Jan 2020 04:50:56.000,52.322,3.382,1970.712026
7 Jan 2020 04:50:57.000,52.313,3.308,1977.622079
7 Jan 2020 04:50:58.000,52.305,3.235,1984.532696
7 Jan 2020 04:50:59.000,52.296,3.162,1991.443868
7 Jan 2020 04:51:00.000,52.288,3.089,1998.355578
7 Jan 2020 04:51:01.000,52.280,3.016,2005.267811
7 Jan 2020 04:51:02.000,52.272,2.944,2012.180557
7 Jan 2020 04:51:03.000,52.264,2.872,2019.093800
7 Jan 2020 04:51:04.000,52.256,2.800,2026.007525
7 Jan 2020 04:51:05.000,52.248,2.729,2032.921724
7 Jan 2020 04:51:06.000,52.240,2.658,2039.836381
7 Jan 2020 04:51:07.000,52.232,2.587,2046.751483
7 Jan 2020 04:51:08.000,52.224,2.516,2053.667014
7 Jan 2020 04:51:09.000,52.217,2.446,2060.582968
7 Jan 2020 04:51:10.000,52.209,2.376,2067.499329
7 Jan 2020 04:51:11.000,52.202,2.306,2074.416083
7 Jan 2020 04:51:12.000,52.194,2.236,2081.333222
7 Jan 2020 04:51:13.000,52.187,2.167,2088.250732
7 Jan 2020 04:51:14.000,52.180,2.098,2095.168598
7 Jan 2020 04:51:15.000,52.173,2.029,2102.086814
7 Jan 2020 04:51:16.000,52.166,1.960,2109.005365
7 Jan 2020 04:51:17.000,52.159,1.892,2115.924241
7 Jan 2020 04:51:18.000,52.152,1.824,2122.843426
7 Jan 2020 04:51:19.000,52.145,1.756,2129.762915
7 Jan 2020 04:51:20.000,52.138,1.689,2136.682694
7 Jan 2020 04:51:21.000,52.131,1.621,2143.602750
7 Jan 2020 04:51:22.000,52.124,1.554,2150.523076
7 Jan 2020 04:51:23.000,52.118,1.487,2157.443660
7 Jan 2020 04:51:24.000,52.111,1.420,2164.364487
7 Jan 2020 04:51:25.000,52.105,1.354,2171.285553
7 Jan 2020 04:51:26.000,52.098,1.288,2178.206845
7 Jan 2020 04:51:27.000,52.092,1.222,2185.128349
7 Jan 2020 04:51:28.000,52.085,1.156,2192.050061
7 Jan 2020 04:51:29.000,52.079,1.090,2198.971967
7 Jan 2020 04:51:30.000,52.073,1.025,2205.894055
7 Jan 2020 04:51:31.000,52.067,0.960,2212.816321
7 Jan 2020 04:51:32.000,52.061,0.895,2219.738751
7 Jan 2020 04:51:33.000,52.055,0.830,2226.661337
7 Jan 2020 04:51:34.000,52.049,0.766,2233.584064
7 Jan 2020 04:51:35.000,52.043,0.701,2240.506931
7 Jan 2020 04:51:36.000,52.037,0.637,2247.429923
7 Jan 2020 04:51:37.000,52.031,0.573,2254.353030
7 Jan 2020 04:51:38.000,52.025,0.510,2261.276247
7 Jan 2020 04:51:39.000,52.020,0.446,2268.199562
7 Jan 2020 04:51:40.000,52.014,0.383,2275.122963
7 Jan 2020 04:51:41.000,52.009,0.320,2282.046448
7 Jan 2020 04:51:42.000,52.003,0.257,2288.970003
7 Jan 2020 04:51:43.000,51.997,0.194,2295.893618
7 Jan 2020 04:51:44.000,51.992,0.132,2302.817289
7 Jan 2020 04:51:45.000,51.987,0.069,2309.741005
7 Jan 2020 04:51:46.000,51.981,0.007,2316.664757
7 Jan 2020 04:51:47.000,51.976,-0.055,2323.588534
7 Jan 2020 04:51:47.383,51.974,-0.079,2326.242855
7 Jan 2020 06:18:24.812,271.418,-0.079,2321.109476
7 Jan 2020 06:18:25.000,271.434,-0.068,2319.967770
7 Jan 2020 06:18:26.000,271.522,-0.014,2313.895611
7 Jan 2020 06:18:27.000,271.610,0.041,2307.827995
7 Jan 2020 06:18:28.000,271.699,0.096,2301.764966
7 Jan 2020 06:18:29.000,271.788,0.151,2295.706565
7 Jan 2020 06:18:30.000,271.877,0.206,2289.652837
7 Jan 2020 06:18:31.000,271.967,0.261,2283.603827
7 Jan 2020 06:18:32.000,272.058,0.316,2277.559577
7 Jan 2020 06:18:33.000,272.149,0.371,2271.520133
7 Jan 2020 06:18:34.000,272.240,0.426,2265.485541
7 Jan 2020 06:18:35.000,272.332,0.482,2259.455846
7 Jan 2020 06:18:36.000,272.424,0.538,2253.431095
7 Jan 2020 06:18:37.000,272.517,0.593,2247.411333
7 Jan 2020 06:18:38.000,272.610,0.649,2241.396607
7 Jan 2020 06:18:39.000,272.704,0.705,2235.386966
7 Jan 2020 06:18:40.000,272.798,0.761,2229.382457
7 Jan 2020 06:18:41.000,272.893,0.817,2223.383129
7 Jan 2020 06:18:42.000,272.989,0.873,2217.389030
7 Jan 2020 06:18:43.000,273.084,0.930,2211.400209
7 Jan 2020 06:18:44.000,273.181,0.986,2205.416717
7 Jan 2020 06:18:45.000,273.278,1.043,2199.438604
7 Jan 2020 06:18:46.000,273.375,1.100,2193.465919
7 Jan 2020 06:18:47.000,273.473,1.156,2187.498716
7 Jan 2020 06:18:48.000,273.571,1.213,2181.537044
7 Jan 2020 06:18:49.000,273.670,1.270,2175.580957
7 Jan 2020 06:18:50.000,273.770,1.327,2169.630508
7 Jan 2020 06:18:51.000,273.870,1.385,2163.685748
7 Jan 2020 06:18:52.000,273.970,1.442,2157.746733
7 Jan 2020 06:18:53.000,274.071,1.500,2151.813516
7 Jan 2020 06:18:54.000,274.173,1.557,2145.886153
7 Jan 2020 06:18:55.000,274.275,1.615,2139.964698
7 Jan 2020 06:18:56.000,274.378,1.673,2134.049207
7 Jan 2020 06:18:57.000,274.481,1.731,2128.139737
7 Jan 2020 06:18:58.000,274.585,1.789,2122.236344
7 Jan 2020 06:18:59.000,274.689,1.847,2116.339087
7 Jan 2020 06:19:00.000,274.794,1.905,2110.448024
7 Jan 2020 06:19:01.000,274.900,1.964,2104.563212
7 Jan 2020 06:19:02.000,275.006,2.022,2098.684711
7 Jan 2020 06:19:03.000,275.113,2.081,2092.812581
7 Jan 2020 06:19:04.000,275.220,2.140,2086.946883
7 Jan 2020 06:19:05.000,275.328,2.199,2081.087677
7 Jan 2020 06:19:06.000,275.437,2.258,2075.235025
7 Jan 2020 06:19:07.000,275.546,2.317,2069.388989
7 Jan 2020 06:19:08.000,275.656,2.376,2063.549632
7 Jan 2020 06:19:09.000,275.766,2.435,2057.717017
7 Jan 2020 06:19:10.000,275.877,2.495,2051.891209
7 Jan 2020 06:19:11.000,275.989,2.555,2046.072272
7 Jan 2020 06:19:12.000,276.101,2.614,2040.260274
7 Jan 2020 06:19:13.000,276.214,2.674,2034.455276
7 Jan 2020 06:19:14.000,276.327,2.734,2028.657347
7 Jan 2020 06:19:15.000,276.442,2.794,2022.866554
7 Jan 2020 06:19:16.000,276.557,2.854,2017.082965
7 Jan 2020 06:19:17.000,276.672,2.915,2011.306649
7 Jan 2020 06:19:18.000,276.788,2.975,2005.537676
7 Jan 2020 06:19:19.000,276.905,3.036,1999.776115
7 Jan 2020 06:19:20.000,277.023,3.097,1994.022036
7 Jan 2020 06:19:21.000,277.141,3.158,1988.275513
7 Jan 2020 06:19:22.000,277.260,3.219,1982.536616
7 Jan 2020 06:19:23.000,277.379,3.280,1976.805418
7 Jan 2020 06:19:24.000,277.499,3.341,1971.081993
7 Jan 2020 06:19:25.000,277.620,3.402,1965.366420
7 Jan 2020 06:19:26.000,277.742,3.464,1959.658765
7 Jan 2020 06:19:27.000,277.864,3.525,1953.959108
7 Jan 2020 06:19:28.000,277.987,3.587,1948.267527
7 Jan 2020 06:19:29.000,278.111,3.649,1942.584097
7 Jan 2020 06:19:30.000,278.236,3.711,1936.908898
7 Jan 2020 06:19:31.000,278.361,3.773,1931.242008
7 Jan 2020 06:19:32.000,278.487,3.835,1925.583507
7 Jan 2020 06:19:33.000,278.614,3.898,1919.933476
7 Jan 2020 06:19:34.000,278.741,3.960,1914.291995
7 Jan 2020 06:19:35.000,278.869,4.023,1908.659151
7 Jan 2020 06:19:36.000,278.999,4.086,1903.035019
7 Jan 2020 06:19:37.000,279.128,4.149,1897.419687
7 Jan 2020 06:19:38.000,279.259,4.212,1891.813239
7 Jan 2020 06:19:39.000,279.390,4.275,1886.215761
7 Jan 2020 06:19:40.000,279.522,4.338,1880.627339
7 Jan 2020 06:19:41.000,279.655,4.401,1875.048060
7 Jan 2020 06:19:42.000,279.789,4.465,1869.478017
7 Jan 2020 06:19:43.000,279.923,4.529,1863.917290
7 Jan 2020 06:19:44.000,280.059,4.592,1858.365974
7 Jan 2020 06:19:45.000,280.195,4.656,1852.824158
7 Jan 2020 06:19:46.000,280.332,4.720,1847.291936
7 Jan 2020 06:19:47.000,280.470,4.785,1841.769399
7 Jan 2020 06:19:48.000,280.608,4.849,1836.256641
7 Jan 2020 06:19:49.000,280.748,4.913,1830.753760
7 Jan 2020 06:19:50.000,280.888,4.978,1825.260844
7 Jan 2020 06:19:51.000,281.029,5.043,1819.777994
7 Jan 2020 06:19:52.000,281.171,5.107,1814.305307
7 Jan 2020 06:19:53.000,281.314,5.172,1808.842880
7 Jan 2020 06:19:54.000,281.458,5.237,1803.390814
7 Jan 2020 06:19:55.000,281.603,5.303,1797.949212
7 Jan 2020 06:19:56.000,281.748,5.368,1792.518168
7 Jan 2020 06:19:57.000,281.895,5.433,1787.097789
7 Jan 2020 06:19:58.000,282.042,5.499,1781.688177
7 Jan 2020 06:19:59.000,282.190,5.565,1776.289438
7 Jan 2020 06:20:00.000,282.340,5.631,1770.901679
7 Jan 2020 06:20:01.000,282.490,5.697,1765.525002
7 Jan 2020 06:20:02.000,282.641,5.763,1760.159515
7 Jan 2020 06:20:03.000,282.793,5.829,1754.805329
7 Jan 2020 06:20:04.000,282.946,5.895,1749.462553
7 Jan 2020 06:20:05.000,283.100,5.962,1744.131301
7 Jan 2020 06:20:06.000,283.255,6.028,1738.811678
7 Jan 2020 06:20:07.000,283.410,6.095,1733.503801
7 Jan 2020 06:20:08.000,283.567,6.162,1728.207783
7 Jan 2020 06:20:09.000,283.725,6.229,1722.923744
7 Jan 2020 06:20:10.000,283.884,6.296,1717.651793
7 Jan 2020 06:20:11.000,284.044,6.363,1712.392050
7 Jan 2020 06:20:12.000,284.204,6.430,1707.144635
7 Jan 2020 06:20:13.000,284.366,6.498,1701.909671
7 Jan 2020 06:20:14.000,284.529,6.565,1696.687272
7 Jan 2020 06:20:15.000,284.693,6.633,1691.477563
7 Jan 2020 06:20:16.000,284.858,6.700,1686.280668
7 Jan 2020 06:20:17.000,285.024,6.768,1681.096716
7 Jan 2020 06:20:18.000,285.191,6.836,1675.925824
7 Jan 2020 06:20:19.000,285.359,6.904,1670.768124
7 Jan 2020 06:20:20.000,285.528,6.973,1665.623743
7 Jan 2020 06:20:21.000,285.698,7.041,1660.492815
7 Jan 2020 06:20:22.000,285.870,7.109,1655.375463
7 Jan 2020 06:20:23.000,286.042,7.178,1650.271823
7 Jan 2020 06:20:24.000,286.215,7.247,1645.182031
7 Jan 2020 06:20:25.000,286.390,7.315,1640.106216
7 Jan 2020 06:20:26.000,286.566,7.384,1635.044516
7 Jan 2020 06:20:27.000,286.743,7.453,1629.997072
7 Jan 2020 06:20:28.000,286.921,7.522,1624.964015
7 Jan 2020 06:20:29.000,287.100,7.591,1619.945489
