vcc_sched/network/input/aer_vtgs_wj2xms_vcc-a_44428.csv

"Time (UTCG)","Azimuth (deg)","Elevation (deg)","Range (km)"
1 Dec 2019 17:33:07.512,145.550,-0.056,2310.363220
1 Dec 2019 17:33:08.000,145.467,-0.044,2309.062362
1 Dec 2019 17:33:09.000,145.298,-0.020,2306.407648
1 Dec 2019 17:33:10.000,145.129,0.004,2303.771059
1 Dec 2019 17:33:11.000,144.959,0.028,2301.152661
1 Dec 2019 17:33:12.000,144.789,0.052,2298.552524
1 Dec 2019 17:33:13.000,144.618,0.076,2295.970710
1 Dec 2019 17:33:14.000,144.447,0.099,2293.407287
1 Dec 2019 17:33:15.000,144.276,0.122,2290.862319
1 Dec 2019 17:33:16.000,144.104,0.146,2288.335872
1 Dec 2019 17:33:17.000,143.932,0.169,2285.828010
1 Dec 2019 17:33:18.000,143.759,0.192,2283.338797
1 Dec 2019 17:33:19.000,143.587,0.214,2280.868302
1 Dec 2019 17:33:20.000,143.413,0.237,2278.416587
1 Dec 2019 17:33:21.000,143.240,0.259,2275.983716
1 Dec 2019 17:33:22.000,143.066,0.282,2273.569753
1 Dec 2019 17:33:23.000,142.891,0.304,2271.174761
1 Dec 2019 17:33:24.000,142.716,0.326,2268.798807
1 Dec 2019 17:33:25.000,142.541,0.348,2266.441952
1 Dec 2019 17:33:26.000,142.366,0.370,2264.104259
1 Dec 2019 17:33:27.000,142.190,0.391,2261.785793
1 Dec 2019 17:33:28.000,142.014,0.413,2259.486612
1 Dec 2019 17:33:29.000,141.837,0.434,2257.206783
1 Dec 2019 17:33:30.000,141.660,0.455,2254.946368
1 Dec 2019 17:33:31.000,141.483,0.476,2252.705426
1 Dec 2019 17:33:32.000,141.305,0.497,2250.484019
1 Dec 2019 17:33:33.000,141.127,0.517,2248.282211
1 Dec 2019 17:33:34.000,140.949,0.538,2246.100061
1 Dec 2019 17:33:35.000,140.770,0.558,2243.937630
1 Dec 2019 17:33:36.000,140.591,0.578,2241.794976
1 Dec 2019 17:33:37.000,140.411,0.598,2239.672164
1 Dec 2019 17:33:38.000,140.231,0.618,2237.569251
1 Dec 2019 17:33:39.000,140.051,0.638,2235.486293
1 Dec 2019 17:33:40.000,139.871,0.657,2233.423355
1 Dec 2019 17:33:41.000,139.690,0.676,2231.380494
1 Dec 2019 17:33:42.000,139.509,0.696,2229.357764
1 Dec 2019 17:33:43.000,139.328,0.715,2227.355229
1 Dec 2019 17:33:44.000,139.146,0.733,2225.372944
1 Dec 2019 17:33:45.000,138.964,0.752,2223.410964
1 Dec 2019 17:33:46.000,138.781,0.771,2221.469350
1 Dec 2019 17:33:47.000,138.598,0.789,2219.548157
1 Dec 2019 17:33:48.000,138.415,0.807,2217.647438
1 Dec 2019 17:33:49.000,138.232,0.825,2215.767253
1 Dec 2019 17:33:50.000,138.048,0.843,2213.907656
1 Dec 2019 17:33:51.000,137.864,0.860,2212.068699
1 Dec 2019 17:33:52.000,137.680,0.878,2210.250442
1 Dec 2019 17:33:53.000,137.495,0.895,2208.452932
1 Dec 2019 17:33:54.000,137.310,0.912,2206.676229
1 Dec 2019 17:33:55.000,137.125,0.929,2204.920384
1 Dec 2019 17:33:56.000,136.940,0.945,2203.185446
1 Dec 2019 17:33:57.000,136.754,0.962,2201.471473
1 Dec 2019 17:33:58.000,136.568,0.978,2199.778512
1 Dec 2019 17:33:59.000,136.381,0.994,2198.106619
1 Dec 2019 17:34:00.000,136.194,1.010,2196.455839
1 Dec 2019 17:34:01.000,136.007,1.026,2194.826228
1 Dec 2019 17:34:02.000,135.820,1.042,2193.217834
1 Dec 2019 17:34:03.000,135.633,1.057,2191.630702
1 Dec 2019 17:34:04.000,135.445,1.072,2190.064888
1 Dec 2019 17:34:05.000,135.257,1.087,2188.520433
1 Dec 2019 17:34:06.000,135.068,1.102,2186.997392
1 Dec 2019 17:34:07.000,134.880,1.117,2185.495806
1 Dec 2019 17:34:08.000,134.691,1.131,2184.015728
1 Dec 2019 17:34:09.000,134.502,1.145,2182.557197
1 Dec 2019 17:34:10.000,134.312,1.159,2181.120266
1 Dec 2019 17:34:11.000,134.123,1.173,2179.704974
1 Dec 2019 17:34:12.000,133.933,1.187,2178.311370
1 Dec 2019 17:34:13.000,133.743,1.200,2176.939495
1 Dec 2019 17:34:14.000,133.552,1.214,2175.589392
1 Dec 2019 17:34:15.000,133.362,1.227,2174.261109
1 Dec 2019 17:34:16.000,133.171,1.239,2172.954683
1 Dec 2019 17:34:17.000,132.980,1.252,2171.670159
1 Dec 2019 17:34:18.000,132.788,1.265,2170.407574
1 Dec 2019 17:34:19.000,132.597,1.277,2169.166975
1 Dec 2019 17:34:20.000,132.405,1.289,2167.948394
1 Dec 2019 17:34:21.000,132.213,1.301,2166.751875
1 Dec 2019 17:34:22.000,132.021,1.312,2165.577459
1 Dec 2019 17:34:23.000,131.828,1.324,2164.425179
1 Dec 2019 17:34:24.000,131.636,1.335,2163.295076
1 Dec 2019 17:34:25.000,131.443,1.346,2162.187184
1 Dec 2019 17:34:26.000,131.250,1.357,2161.101540
1 Dec 2019 17:34:27.000,131.057,1.367,2160.038183
1 Dec 2019 17:34:28.000,130.863,1.378,2158.997142
1 Dec 2019 17:34:29.000,130.670,1.388,2157.978454
1 Dec 2019 17:34:30.000,130.476,1.398,2156.982156
1 Dec 2019 17:34:31.000,130.282,1.408,2156.008276
1 Dec 2019 17:34:32.000,130.088,1.417,2155.056847
1 Dec 2019 17:34:33.000,129.893,1.426,2154.127905
1 Dec 2019 17:34:34.000,129.699,1.436,2153.221474
1 Dec 2019 17:34:35.000,129.504,1.444,2152.337588
1 Dec 2019 17:34:36.000,129.309,1.453,2151.476279
1 Dec 2019 17:34:37.000,129.115,1.462,2150.637571
1 Dec 2019 17:34:38.000,128.919,1.470,2149.821494
1 Dec 2019 17:34:39.000,128.724,1.478,2149.028075
1 Dec 2019 17:34:40.000,128.529,1.486,2148.257345
1 Dec 2019 17:34:41.000,128.333,1.493,2147.509324
1 Dec 2019 17:34:42.000,128.137,1.501,2146.784039
1 Dec 2019 17:34:43.000,127.942,1.508,2146.081516
1 Dec 2019 17:34:44.000,127.746,1.515,2145.401781
1 Dec 2019 17:34:45.000,127.550,1.522,2144.744852
1 Dec 2019 17:34:46.000,127.353,1.528,2144.110754
1 Dec 2019 17:34:47.000,127.157,1.534,2143.499508
1 Dec 2019 17:34:48.000,126.961,1.540,2142.911139
1 Dec 2019 17:34:49.000,126.764,1.546,2142.345661
1 Dec 2019 17:34:50.000,126.568,1.552,2141.803096
1 Dec 2019 17:34:51.000,126.371,1.557,2141.283463
1 Dec 2019 17:34:52.000,126.174,1.563,2140.786780
1 Dec 2019 17:34:53.000,125.977,1.568,2140.313065
1 Dec 2019 17:34:54.000,125.780,1.572,2139.862337
1 Dec 2019 17:34:55.000,125.583,1.577,2139.434605
1 Dec 2019 17:34:56.000,125.386,1.581,2139.029888
1 Dec 2019 17:34:57.000,125.189,1.585,2138.648199
1 Dec 2019 17:34:58.000,124.991,1.589,2138.289553
1 Dec 2019 17:34:59.000,124.794,1.593,2137.953962
1 Dec 2019 17:35:00.000,124.596,1.596,2137.641438
1 Dec 2019 17:35:01.000,124.399,1.599,2137.351992
1 Dec 2019 17:35:02.000,124.201,1.602,2137.085638
1 Dec 2019 17:35:03.000,124.004,1.605,2136.842379
1 Dec 2019 17:35:04.000,123.806,1.608,2136.622227
1 Dec 2019 17:35:05.000,123.608,1.610,2136.425190
1 Dec 2019 17:35:06.000,123.411,1.612,2136.251276
1 Dec 2019 17:35:07.000,123.213,1.614,2136.100490
1 Dec 2019 17:35:08.000,123.015,1.615,2135.972839
1 Dec 2019 17:35:09.000,122.817,1.617,2135.868328
1 Dec 2019 17:35:10.000,122.620,1.618,2135.786961
1 Dec 2019 17:35:11.000,122.422,1.619,2135.728741
1 Dec 2019 17:35:12.000,122.224,1.620,2135.693671
1 Dec 2019 17:35:13.000,122.026,1.620,2135.681753
1 Dec 2019 17:35:14.000,121.828,1.620,2135.692988
1 Dec 2019 17:35:15.000,121.630,1.620,2135.727376
1 Dec 2019 17:35:16.000,121.433,1.620,2135.784917
1 Dec 2019 17:35:17.000,121.235,1.620,2135.865609
1 Dec 2019 17:35:18.000,121.037,1.619,2135.969450
1 Dec 2019 17:35:19.000,120.839,1.618,2136.096438
1 Dec 2019 17:35:20.000,120.641,1.617,2136.246569
1 Dec 2019 17:35:21.000,120.444,1.616,2136.419839
1 Dec 2019 17:35:22.000,120.246,1.614,2136.616242
1 Dec 2019 17:35:23.000,120.048,1.612,2136.835772
1 Dec 2019 17:35:24.000,119.851,1.610,2137.078423
1 Dec 2019 17:35:25.000,119.653,1.608,2137.344188
1 Dec 2019 17:35:26.000,119.456,1.606,2137.633054
1 Dec 2019 17:35:27.000,119.258,1.603,2137.945019
1 Dec 2019 17:35:28.000,119.061,1.600,2138.280070
1 Dec 2019 17:35:29.000,118.863,1.597,2138.638197
1 Dec 2019 17:35:30.000,118.666,1.594,2139.019388
1 Dec 2019 17:35:31.000,118.469,1.590,2139.423631
1 Dec 2019 17:35:32.000,118.272,1.586,2139.850913
1 Dec 2019 17:35:33.000,118.075,1.582,2140.301221
1 Dec 2019 17:35:34.000,117.878,1.578,2140.774536
1 Dec 2019 17:35:35.000,117.681,1.574,2141.270851
1 Dec 2019 17:35:36.000,117.484,1.569,2141.790145
1 Dec 2019 17:35:37.000,117.288,1.564,2142.332403
1 Dec 2019 17:35:38.000,117.091,1.559,2142.897607
1 Dec 2019 17:35:39.000,116.895,1.554,2143.485739
1 Dec 2019 17:35:40.000,116.698,1.548,2144.096776
1 Dec 2019 17:35:41.000,116.502,1.542,2144.730705
1 Dec 2019 17:35:42.000,116.306,1.536,2145.387503
1 Dec 2019 17:35:43.000,116.110,1.530,2146.067149
1 Dec 2019 17:35:44.000,115.914,1.524,2146.769618
1 Dec 2019 17:35:45.000,115.719,1.517,2147.494893
1 Dec 2019 17:35:46.000,115.523,1.510,2148.242947
1 Dec 2019 17:35:47.000,115.328,1.503,2149.013758
1 Dec 2019 17:35:48.000,115.132,1.496,2149.807296
1 Dec 2019 17:35:49.000,114.937,1.488,2150.623544
1 Dec 2019 17:35:50.000,114.742,1.480,2151.462470
1 Dec 2019 17:35:51.000,114.547,1.472,2152.324050
1 Dec 2019 17:35:52.000,114.353,1.464,2153.208251
1 Dec 2019 17:35:53.000,114.158,1.456,2154.115052
1 Dec 2019 17:35:54.000,113.964,1.447,2155.044421
1 Dec 2019 17:35:55.000,113.770,1.438,2155.996324
1 Dec 2019 17:35:56.000,113.576,1.429,2156.970739
1 Dec 2019 17:35:57.000,113.382,1.420,2157.967631
1 Dec 2019 17:35:58.000,113.188,1.411,2158.986964
1 Dec 2019 17:35:59.000,112.995,1.401,2160.028713
1 Dec 2019 17:36:00.000,112.802,1.391,2161.092842
1 Dec 2019 17:36:01.000,112.609,1.381,2162.179314
1 Dec 2019 17:36:02.000,112.416,1.371,2163.288101
1 Dec 2019 17:36:03.000,112.223,1.360,2164.419164
1 Dec 2019 17:36:04.000,112.031,1.349,2165.572465
1 Dec 2019 17:36:05.000,111.839,1.338,2166.747975
1 Dec 2019 17:36:06.000,111.647,1.327,2167.945649
1 Dec 2019 17:36:07.000,111.455,1.316,2169.165457
1 Dec 2019 17:36:08.000,111.263,1.304,2170.407357
1 Dec 2019 17:36:09.000,111.072,1.293,2171.671307
1 Dec 2019 17:36:10.000,110.881,1.281,2172.957275
1 Dec 2019 17:36:11.000,110.690,1.269,2174.265213
1 Dec 2019 17:36:12.000,110.499,1.256,2175.595089
1 Dec 2019 17:36:13.000,110.309,1.244,2176.946854
1 Dec 2019 17:36:14.000,110.119,1.231,2178.320472
1 Dec 2019 17:36:15.000,109.929,1.218,2179.715900
1 Dec 2019 17:36:16.000,109.739,1.205,2181.133089
1 Dec 2019 17:36:17.000,109.550,1.191,2182.572004
1 Dec 2019 17:36:18.000,109.361,1.178,2184.032593
1 Dec 2019 17:36:19.000,109.172,1.164,2185.514819
1 Dec 2019 17:36:20.000,108.983,1.150,2187.018630
1 Dec 2019 17:36:21.000,108.795,1.136,2188.543987
1 Dec 2019 17:36:22.000,108.607,1.122,2190.090837
1 Dec 2019 17:36:23.000,108.419,1.107,2191.659140
1 Dec 2019 17:36:24.000,108.231,1.092,2193.248842
1 Dec 2019 17:36:25.000,108.044,1.077,2194.859901
1 Dec 2019 17:36:26.000,107.857,1.062,2196.492264
1 Dec 2019 17:36:27.000,107.670,1.047,2198.145884
1 Dec 2019 17:36:28.000,107.484,1.032,2199.820716
1 Dec 2019 17:36:29.000,107.298,1.016,2201.516702
1 Dec 2019 17:36:30.000,107.112,1.000,2203.233800
1 Dec 2019 17:36:31.000,106.926,0.984,2204.971952
1 Dec 2019 17:36:32.000,106.741,0.968,2206.731114
1 Dec 2019 17:36:33.000,106.556,0.951,2208.511226
1 Dec 2019 17:36:34.000,106.372,0.935,2210.312241
1 Dec 2019 17:36:35.000,106.187,0.918,2212.134109
1 Dec 2019 17:36:36.000,106.003,0.901,2213.976769
1 Dec 2019 17:36:37.000,105.820,0.884,2215.840177
1 Dec 2019 17:36:38.000,105.636,0.867,2217.724270
1 Dec 2019 17:36:39.000,105.453,0.849,2219.628998
1 Dec 2019 17:36:40.000,105.270,0.831,2221.554310
1 Dec 2019 17:36:41.000,105.088,0.813,2223.500143
1 Dec 2019 17:36:42.000,104.906,0.795,2225.466445
1 Dec 2019 17:36:43.000,104.724,0.777,2227.453164
1 Dec 2019 17:36:44.000,104.543,0.759,2229.460237
1 Dec 2019 17:36:45.000,104.362,0.740,2231.487610
1 Dec 2019 17:36:46.000,104.181,0.722,2233.535230
1 Dec 2019 17:36:47.000,104.000,0.703,2235.603032
1 Dec 2019 17:36:48.000,103.820,0.684,2237.690962
1 Dec 2019 17:36:49.000,103.641,0.664,2239.798966
1 Dec 2019 17:36:50.000,103.461,0.645,2241.926976
1 Dec 2019 17:36:51.000,103.282,0.625,2244.074939
1 Dec 2019 17:36:52.000,103.104,0.606,2246.242799
1 Dec 2019 17:36:53.000,102.925,0.586,2248.430489
1 Dec 2019 17:36:54.000,102.747,0.566,2250.637952
1 Dec 2019 17:36:55.000,102.570,0.546,2252.865128
1 Dec 2019 17:36:56.000,102.392,0.525,2255.111962
1 Dec 2019 17:36:57.000,102.215,0.505,2257.378383
1 Dec 2019 17:36:58.000,102.039,0.484,2259.664336
1 Dec 2019 17:36:59.000,101.863,0.463,2261.969759
1 Dec 2019 17:37:00.000,101.687,0.442,2264.294593
1 Dec 2019 17:37:01.000,101.511,0.421,2266.638770
1 Dec 2019 17:37:02.000,101.336,0.400,2269.002230
1 Dec 2019 17:37:03.000,101.162,0.378,2271.384912
1 Dec 2019 17:37:04.000,100.987,0.357,2273.786753
1 Dec 2019 17:37:05.000,100.813,0.335,2276.207694
1 Dec 2019 17:37:06.000,100.640,0.313,2278.647663
1 Dec 2019 17:37:07.000,100.466,0.291,2281.106602
1 Dec 2019 17:37:08.000,100.294,0.269,2283.584446
1 Dec 2019 17:37:09.000,100.121,0.246,2286.081132
1 Dec 2019 17:37:10.000,99.949,0.224,2288.596595
1 Dec 2019 17:37:11.000,99.777,0.201,2291.130776
1 Dec 2019 17:37:12.000,99.606,0.178,2293.683601
1 Dec 2019 17:37:13.000,99.435,0.155,2296.255011
1 Dec 2019 17:37:14.000,99.265,0.132,2298.844940
1 Dec 2019 17:37:15.000,99.095,0.109,2301.453324
1 Dec 2019 17:37:16.000,98.925,0.086,2304.080096
1 Dec 2019 17:37:17.000,98.755,0.062,2306.725192
1 Dec 2019 17:37:18.000,98.586,0.038,2309.388550
1 Dec 2019 17:37:19.000,98.418,0.015,2312.070096
1 Dec 2019 17:37:20.000,98.250,-0.009,2314.769768
1 Dec 2019 17:37:21.000,98.082,-0.033,2317.487501
1 Dec 2019 17:37:21.917,97.929,-0.056,2319.994799
1 Dec 2019 19:05:43.371,214.151,-0.055,2310.273940
1 Dec 2019 19:05:44.000,214.131,-0.017,2305.985575
1 Dec 2019 19:05:45.000,214.099,0.045,2299.164784
1 Dec 2019 19:05:46.000,214.066,0.107,2292.344736
1 Dec 2019 19:05:47.000,214.033,0.169,2285.525442
1 Dec 2019 19:05:48.000,214.000,0.231,2278.706921
1 Dec 2019 19:05:49.000,213.967,0.293,2271.889188
1 Dec 2019 19:05:50.000,213.933,0.356,2265.072258
1 Dec 2019 19:05:51.000,213.900,0.418,2258.256143
1 Dec 2019 19:05:52.000,213.866,0.481,2251.440864
1 Dec 2019 19:05:53.000,213.832,0.544,2244.626434
1 Dec 2019 19:05:54.000,213.797,0.608,2237.812867
1 Dec 2019 19:05:55.000,213.763,0.671,2231.000184
1 Dec 2019 19:05:56.000,213.728,0.735,2224.188399
1 Dec 2019 19:05:57.000,213.693,0.799,2217.377528
1 Dec 2019 19:05:58.000,213.658,0.863,2210.567586
1 Dec 2019 19:05:59.000,213.622,0.927,2203.758593
1 Dec 2019 19:06:00.000,213.586,0.991,2196.950566
1 Dec 2019 19:06:01.000,213.550,1.056,2190.143520
1 Dec 2019 19:06:02.000,213.514,1.121,2183.337472
1 Dec 2019 19:06:03.000,213.478,1.186,2176.532443
1 Dec 2019 19:06:04.000,213.441,1.251,2169.728448
1 Dec 2019 19:06:05.000,213.404,1.317,2162.925507
1 Dec 2019 19:06:06.000,213.367,1.382,2156.123634
1 Dec 2019 19:06:07.000,213.330,1.448,2149.322852
1 Dec 2019 19:06:08.000,213.292,1.514,2142.523179
1 Dec 2019 19:06:09.000,213.254,1.581,2135.724629
1 Dec 2019 19:06:10.000,213.216,1.647,2128.927228
1 Dec 2019 19:06:11.000,213.178,1.714,2122.130991
1 Dec 2019 19:06:12.000,213.139,1.781,2115.335939
1 Dec 2019 19:06:13.000,213.100,1.848,2108.542088
1 Dec 2019 19:06:14.000,213.061,1.916,2101.749464
1 Dec 2019 19:06:15.000,213.021,1.983,2094.958083
1 Dec 2019 19:06:16.000,212.982,2.051,2088.167966
1 Dec 2019 19:06:17.000,212.942,2.119,2081.379132
1 Dec 2019 19:06:18.000,212.901,2.188,2074.591606
1 Dec 2019 19:06:19.000,212.861,2.256,2067.805406
1 Dec 2019 19:06:20.000,212.820,2.325,2061.020554
1 Dec 2019 19:06:21.000,212.779,2.394,2054.237069
1 Dec 2019 19:06:22.000,212.738,2.464,2047.454978
1 Dec 2019 19:06:23.000,212.696,2.533,2040.674300
1 Dec 2019 19:06:24.000,212.654,2.603,2033.895056
1 Dec 2019 19:06:25.000,212.612,2.673,2027.117271
1 Dec 2019 19:06:26.000,212.569,2.744,2020.340968
1 Dec 2019 19:06:27.000,212.526,2.814,2013.566169
1 Dec 2019 19:06:28.000,212.483,2.885,2006.792895
1 Dec 2019 19:06:29.000,212.439,2.956,2000.021175
1 Dec 2019 19:06:30.000,212.396,3.028,1993.251029
1 Dec 2019 19:06:31.000,212.351,3.099,1986.482484
1 Dec 2019 19:06:32.000,212.307,3.171,1979.715560
1 Dec 2019 19:06:33.000,212.262,3.243,1972.950287
1 Dec 2019 19:06:34.000,212.217,3.316,1966.186688
1 Dec 2019 19:06:35.000,212.172,3.389,1959.424789
1 Dec 2019 19:06:36.000,212.126,3.462,1952.664614
1 Dec 2019 19:06:37.000,212.080,3.535,1945.906192
1 Dec 2019 19:06:38.000,212.033,3.609,1939.149547
1 Dec 2019 19:06:39.000,211.987,3.682,1932.394708
1 Dec 2019 19:06:40.000,211.939,3.757,1925.641699
1 Dec 2019 19:06:41.000,211.892,3.831,1918.890551
1 Dec 2019 19:06:42.000,211.844,3.906,1912.141290
1 Dec 2019 19:06:43.000,211.796,3.981,1905.393945
1 Dec 2019 19:06:44.000,211.747,4.056,1898.648542
1 Dec 2019 19:06:45.000,211.698,4.132,1891.905114
1 Dec 2019 19:06:46.000,211.649,4.208,1885.163688
1 Dec 2019 19:06:47.000,211.599,4.284,1878.424294
1 Dec 2019 19:06:48.000,211.549,4.361,1871.686960
1 Dec 2019 19:06:49.000,211.499,4.438,1864.951721
1 Dec 2019 19:06:50.000,211.448,4.515,1858.218605
1 Dec 2019 19:06:51.000,211.397,4.593,1851.487644
1 Dec 2019 19:06:52.000,211.345,4.671,1844.758867
1 Dec 2019 19:06:53.000,211.293,4.749,1838.032311
1 Dec 2019 19:06:54.000,211.241,4.827,1831.308006
1 Dec 2019 19:06:55.000,211.188,4.906,1824.585985
1 Dec 2019 19:06:56.000,211.135,4.986,1817.866279
1 Dec 2019 19:06:57.000,211.081,5.065,1811.148927
1 Dec 2019 19:06:58.000,211.027,5.145,1804.433961
1 Dec 2019 19:06:59.000,210.972,5.225,1797.721415
1 Dec 2019 19:07:00.000,210.917,5.306,1791.011323
1 Dec 2019 19:07:01.000,210.862,5.387,1784.303726
1 Dec 2019 19:07:02.000,210.806,5.469,1777.598656
1 Dec 2019 19:07:03.000,210.750,5.550,1770.896151
1 Dec 2019 19:07:04.000,210.693,5.632,1764.196246
1 Dec 2019 19:07:05.000,210.636,5.715,1757.498983
1 Dec 2019 19:07:06.000,210.578,5.798,1750.804399
1 Dec 2019 19:07:07.000,210.520,5.881,1744.112532
1 Dec 2019 19:07:08.000,210.461,5.965,1737.423422
1 Dec 2019 19:07:09.000,210.402,6.049,1730.737106
1 Dec 2019 19:07:10.000,210.342,6.133,1724.053631
1 Dec 2019 19:07:11.000,210.282,6.218,1717.373033
1 Dec 2019 19:07:12.000,210.222,6.303,1710.695357
1 Dec 2019 19:07:13.000,210.160,6.389,1704.020641
1 Dec 2019 19:07:14.000,210.099,6.475,1697.348932
1 Dec 2019 19:07:15.000,210.037,6.561,1690.680274
1 Dec 2019 19:07:16.000,209.974,6.648,1684.014709
1 Dec 2019 19:07:17.000,209.911,6.736,1677.352283
1 Dec 2019 19:07:18.000,209.847,6.823,1670.693039
1 Dec 2019 19:07:19.000,209.783,6.911,1664.037027
1 Dec 2019 19:07:20.000,209.718,7.000,1657.384293
1 Dec 2019 19:07:21.000,209.652,7.089,1650.734884
1 Dec 2019 19:07:22.000,209.586,7.179,1644.088847
1 Dec 2019 19:07:23.000,209.520,7.269,1637.446234
1 Dec 2019 19:07:24.000,209.452,7.359,1630.807094
1 Dec 2019 19:07:25.000,209.385,7.450,1624.171476
1 Dec 2019 19:07:26.000,209.316,7.541,1617.539433
1 Dec 2019 19:07:27.000,209.247,7.633,1610.911015
1 Dec 2019 19:07:28.000,209.178,7.725,1604.286278
1 Dec 2019 19:07:29.000,209.107,7.818,1597.665275
1 Dec 2019 19:07:30.000,209.036,7.912,1591.048059
1 Dec 2019 19:07:31.000,208.965,8.005,1584.434686
1 Dec 2019 19:07:32.000,208.893,8.100,1577.825212
1 Dec 2019 19:07:33.000,208.820,8.194,1571.219696
1 Dec 2019 19:07:34.000,208.747,8.290,1564.618195
1 Dec 2019 19:07:35.000,208.672,8.385,1558.020767
1 Dec 2019 19:07:36.000,208.598,8.482,1551.427472
1 Dec 2019 19:07:37.000,208.522,8.579,1544.838374
1 Dec 2019 19:07:38.000,208.446,8.676,1538.253532
1 Dec 2019 19:07:39.000,208.369,8.774,1531.673009
1 Dec 2019 19:07:40.000,208.291,8.873,1525.096869
1 Dec 2019 19:07:41.000,208.213,8.972,1518.525178
1 Dec 2019 19:07:42.000,208.134,9.071,1511.957999
1 Dec 2019 19:07:43.000,208.054,9.171,1505.395403
1 Dec 2019 19:07:44.000,207.973,9.272,1498.837457
1 Dec 2019 19:07:45.000,207.892,9.373,1492.284228
1 Dec 2019 19:07:46.000,207.809,9.475,1485.735789
1 Dec 2019 19:07:47.000,207.726,9.578,1479.192208
1 Dec 2019 19:07:48.000,207.643,9.681,1472.653561
1 Dec 2019 19:07:49.000,207.558,9.785,1466.119922
1 Dec 2019 19:07:50.000,207.473,9.889,1459.591364
1 Dec 2019 19:07:51.000,207.386,9.994,1453.067965
1 Dec 2019 19:07:52.000,207.299,10.100,1446.549800
1 Dec 2019 19:07:53.000,207.211,10.206,1440.036952
1 Dec 2019 19:07:54.000,207.122,10.313,1433.529499
1 Dec 2019 19:07:55.000,207.032,10.420,1427.027523
1 Dec 2019 19:07:56.000,206.942,10.528,1420.531107
1 Dec 2019 19:07:57.000,206.850,10.637,1414.040336
1 Dec 2019 19:07:58.000,206.758,10.747,1407.555293
1 Dec 2019 19:07:59.000,206.664,10.857,1401.076070
1 Dec 2019 19:08:00.000,206.570,10.968,1394.602754
1 Dec 2019 19:08:01.000,206.474,11.079,1388.135434
1 Dec 2019 19:08:02.000,206.378,11.191,1381.674204
1 Dec 2019 19:08:03.000,206.281,11.304,1375.219157
1 Dec 2019 19:08:04.000,206.182,11.418,1368.770388
1 Dec 2019 19:08:05.000,206.083,11.533,1362.327992
1 Dec 2019 19:08:06.000,205.982,11.648,1355.892072
1 Dec 2019 19:08:07.000,205.881,11.764,1349.462726
1 Dec 2019 19:08:08.000,205.778,11.880,1343.040056
1 Dec 2019 19:08:09.000,205.674,11.998,1336.624166
1 Dec 2019 19:08:10.000,205.570,12.116,1330.215163
1 Dec 2019 19:08:11.000,205.464,12.235,1323.813153
1 Dec 2019 19:08:12.000,205.356,12.355,1317.418245
1 Dec 2019 19:08:13.000,205.248,12.475,1311.030554
1 Dec 2019 19:08:14.000,205.139,12.597,1304.650192
1 Dec 2019 19:08:15.000,205.028,12.719,1298.277275
1 Dec 2019 19:08:16.000,204.916,12.842,1291.911921
1 Dec 2019 19:08:17.000,204.803,12.966,1285.554248
1 Dec 2019 19:08:18.000,204.689,13.091,1279.204381
1 Dec 2019 19:08:19.000,204.573,13.216,1272.862443
1 Dec 2019 19:08:20.000,204.456,13.343,1266.528560
1 Dec 2019 19:08:21.000,204.338,13.470,1260.202863
1 Dec 2019 19:08:22.000,204.218,13.598,1253.885483
1 Dec 2019 19:08:23.000,204.097,13.727,1247.576554
1 Dec 2019 19:08:24.000,203.975,13.857,1241.276212
1 Dec 2019 19:08:25.000,203.851,13.988,1234.984596
1 Dec 2019 19:08:26.000,203.726,14.120,1228.701848
1 Dec 2019 19:08:27.000,203.599,14.253,1222.428113
1 Dec 2019 19:08:28.000,203.471,14.387,1216.163536
1 Dec 2019 19:08:29.000,203.342,14.522,1209.908268
1 Dec 2019 19:08:30.000,203.210,14.657,1203.662461
1 Dec 2019 19:08:31.000,203.078,14.794,1197.426273
1 Dec 2019 19:08:32.000,202.943,14.932,1191.199860
1 Dec 2019 19:08:33.000,202.807,15.071,1184.983386
1 Dec 2019 19:08:34.000,202.670,15.210,1178.777013
1 Dec 2019 19:08:35.000,202.531,15.351,1172.580911
1 Dec 2019 19:08:36.000,202.390,15.493,1166.395250
1 Dec 2019 19:08:37.000,202.247,15.636,1160.220205
1 Dec 2019 19:08:38.000,202.103,15.780,1154.055953
1 Dec 2019 19:08:39.000,201.957,15.925,1147.902677
1 Dec 2019 19:08:40.000,201.809,16.071,1141.760560
1 Dec 2019 19:08:41.000,201.659,16.218,1135.629792
1 Dec 2019 19:08:42.000,201.507,16.367,1129.510565
1 Dec 2019 19:08:43.000,201.354,16.516,1123.403074
1 Dec 2019 19:08:44.000,201.198,16.667,1117.307520
1 Dec 2019 19:08:45.000,201.040,16.818,1111.224106
1 Dec 2019 19:08:46.000,200.881,16.971,1105.153040
1 Dec 2019 19:08:47.000,200.719,17.126,1099.094534
1 Dec 2019 19:08:48.000,200.556,17.281,1093.048803
1 Dec 2019 19:08:49.000,200.390,17.437,1087.016071
1 Dec 2019 19:08:50.000,200.222,17.595,1080.996559
1 Dec 2019 19:08:51.000,200.052,17.754,1074.990499
1 Dec 2019 19:08:52.000,199.879,17.914,1068.998124
1 Dec 2019 19:08:53.000,199.705,18.076,1063.019672
1 Dec 2019 19:08:54.000,199.527,18.239,1057.055387
1 Dec 2019 19:08:55.000,199.348,18.403,1051.105518
1 Dec 2019 19:08:56.000,199.166,18.568,1045.170319
1 Dec 2019 19:08:57.000,198.982,18.735,1039.250046
1 Dec 2019 19:08:58.000,198.795,18.903,1033.344965
1 Dec 2019 19:08:59.000,198.606,19.072,1027.455343
1 Dec 2019 19:09:00.000,198.414,19.243,1021.581456
1 Dec 2019 19:09:01.000,198.219,19.415,1015.723584
1 Dec 2019 19:09:02.000,198.022,19.588,1009.882012
1 Dec 2019 19:09:03.000,197.822,19.763,1004.057033
1 Dec 2019 19:09:04.000,197.619,19.939,998.248943
1 Dec 2019 19:09:05.000,197.413,20.117,992.458046
1 Dec 2019 19:09:06.000,197.205,20.296,986.684652
1 Dec 2019 19:09:07.000,196.993,20.476,980.929077
1 Dec 2019 19:09:08.000,196.779,20.658,975.191643
1 Dec 2019 19:09:09.000,196.561,20.841,969.472680
1 Dec 2019 19:09:10.000,196.340,21.026,963.772523
1 Dec 2019 19:09:11.000,196.116,21.213,958.091514
1 Dec 2019 19:09:12.000,195.889,21.400,952.430005
1 Dec 2019 19:09:13.000,195.658,21.590,946.788349
1 Dec 2019 19:09:14.000,195.424,21.780,941.166912
1 Dec 2019 19:09:15.000,195.186,21.973,935.566065
1 Dec 2019 19:09:16.000,194.945,22.167,929.986187
1 Dec 2019 19:09:17.000,194.700,22.362,924.427664
1 Dec 2019 19:09:18.000,194.452,22.559,918.890890
1 Dec 2019 19:09:19.000,194.200,22.757,913.376269
1 Dec 2019 19:09:20.000,193.944,22.957,907.884209
1 Dec 2019 19:09:21.000,193.684,23.159,902.415130
1 Dec 2019 19:09:22.000,193.420,23.362,896.969458
1 Dec 2019 19:09:23.000,193.152,23.567,891.547630
1 Dec 2019 19:09:24.000,192.880,23.773,886.150088
1 Dec 2019 19:09:25.000,192.603,23.981,880.777288
1 Dec 2019 19:09:26.000,192.323,24.190,875.429689
1 Dec 2019 19:09:27.000,192.038,24.401,870.107764
1 Dec 2019 19:09:28.000,191.748,24.614,864.811993
1 Dec 2019 19:09:29.000,191.454,24.828,859.542865
1 Dec 2019 19:09:30.000,191.155,25.044,854.300881
1 Dec 2019 19:09:31.000,190.851,25.261,849.086549
1 Dec 2019 19:09:32.000,190.543,25.480,843.900388
1 Dec 2019 19:09:33.000,190.229,25.700,838.742927
1 Dec 2019 19:09:34.000,189.911,25.922,833.614704
1 Dec 2019 19:09:35.000,189.587,26.146,828.516270
1 Dec 2019 19:09:36.000,189.258,26.371,823.448183
1 Dec 2019 19:09:37.000,188.923,26.598,818.411014
1 Dec 2019 19:09:38.000,188.583,26.826,813.405342
1 Dec 2019 19:09:39.000,188.237,27.055,808.431759
1 Dec 2019 19:09:40.000,187.886,27.286,803.490867
1 Dec 2019 19:09:41.000,187.529,27.519,798.583279
1 Dec 2019 19:09:42.000,187.165,27.753,793.709618
1 Dec 2019 19:09:43.000,186.796,27.988,788.870520
1 Dec 2019 19:09:44.000,186.420,28.225,784.066629
1 Dec 2019 19:09:45.000,186.039,28.463,779.298604
1 Dec 2019 19:09:46.000,185.650,28.703,774.567111
1 Dec 2019 19:09:47.000,185.255,28.944,769.872830
1 Dec 2019 19:09:48.000,184.854,29.186,765.216453
1 Dec 2019 19:09:49.000,184.445,29.429,760.598679
1 Dec 2019 19:09:50.000,184.029,29.673,756.020224
1 Dec 2019 19:09:51.000,183.607,29.919,751.481809
1 Dec 2019 19:09:52.000,183.177,30.165,746.984172
1 Dec 2019 19:09:53.000,182.739,30.413,742.528059
1 Dec 2019 19:09:54.000,182.294,30.662,738.114226
1 Dec 2019 19:09:55.000,181.842,30.911,733.743443
1 Dec 2019 19:09:56.000,181.381,31.161,729.416488
1 Dec 2019 19:09:57.000,180.913,31.412,725.134152
1 Dec 2019 19:09:58.000,180.436,31.664,720.897234
1 Dec 2019 19:09:59.000,179.951,31.917,716.706546
1 Dec 2019 19:10:00.000,179.458,32.170,712.562908
1 Dec 2019 19:10:01.000,178.956,32.423,708.467150
1 Dec 2019 19:10:02.000,178.446,32.677,704.420113
1 Dec 2019 19:10:03.000,177.927,32.931,700.422646
1 Dec 2019 19:10:04.000,177.398,33.185,696.475608
1 Dec 2019 19:10:05.000,176.861,33.439,692.579865
1 Dec 2019 19:10:06.000,176.314,33.693,688.736293
1 Dec 2019 19:10:07.000,175.758,33.947,684.945775
1 Dec 2019 19:10:08.000,175.192,34.201,681.209201
1 Dec 2019 19:10:09.000,174.617,34.454,677.527468
1 Dec 2019 19:10:10.000,174.032,34.707,673.901479
1 Dec 2019 19:10:11.000,173.437,34.959,670.332143
1 Dec 2019 19:10:12.000,172.831,35.210,666.820375
1 Dec 2019 19:10:13.000,172.216,35.460,663.367092
1 Dec 2019 19:10:14.000,171.590,35.709,659.973218
1 Dec 2019 19:10:15.000,170.954,35.957,656.639678
1 Dec 2019 19:10:16.000,170.308,36.203,653.367399
1 Dec 2019 19:10:17.000,169.651,36.448,650.157309
1 Dec 2019 19:10:18.000,168.983,36.690,647.010339
1 Dec 2019 19:10:19.000,168.304,36.931,643.927418
1 Dec 2019 19:10:20.000,167.615,37.169,640.909474
1 Dec 2019 19:10:21.000,166.914,37.405,637.957433
1 Dec 2019 19:10:22.000,166.203,37.639,635.072217
1 Dec 2019 19:10:23.000,165.481,37.869,632.254745
1 Dec 2019 19:10:24.000,164.748,38.097,629.505929
1 Dec 2019 19:10:25.000,164.004,38.321,626.826677
1 Dec 2019 19:10:26.000,163.249,38.542,624.217887
1 Dec 2019 19:10:27.000,162.483,38.759,621.680450
1 Dec 2019 19:10:28.000,161.706,38.973,619.215246
1 Dec 2019 19:10:29.000,160.919,39.182,616.823144
1 Dec 2019 19:10:30.000,160.120,39.386,614.505000
1 Dec 2019 19:10:31.000,159.311,39.587,612.261658
1 Dec 2019 19:10:32.000,158.491,39.782,610.093945
1 Dec 2019 19:10:33.000,157.661,39.972,608.002674
1 Dec 2019 19:10:34.000,156.821,40.157,605.988638
1 Dec 2019 19:10:35.000,155.971,40.336,604.052611
1 Dec 2019 19:10:36.000,155.110,40.510,602.195350
1 Dec 2019 19:10:37.000,154.241,40.678,600.417587
1 Dec 2019 19:10:38.000,153.361,40.839,598.720031
1 Dec 2019 19:10:39.000,152.473,40.994,597.103371
1 Dec 2019 19:10:40.000,151.576,41.142,595.568266
1 Dec 2019 19:10:41.000,150.670,41.284,594.115351
1 Dec 2019 19:10:42.000,149.756,41.418,592.745231
1 Dec 2019 19:10:43.000,148.834,41.545,591.458484
1 Dec 2019 19:10:44.000,147.905,41.664,590.255657
1 Dec 2019 19:10:45.000,146.968,41.776,589.137264
1 Dec 2019 19:10:46.000,146.026,41.880,588.103791
1 Dec 2019 19:10:47.000,145.076,41.976,587.155685
1 Dec 2019 19:10:48.000,144.122,42.064,586.293363
1 Dec 2019 19:10:49.000,143.162,42.144,585.517205
1 Dec 2019 19:10:50.000,142.197,42.215,584.827554
1 Dec 2019 19:10:51.000,141.228,42.277,584.224718
1 Dec 2019 19:10:52.000,140.256,42.331,583.708966
1 Dec 2019 19:10:53.000,139.280,42.376,583.280531
1 Dec 2019 19:10:54.000,138.302,42.412,582.939607
1 Dec 2019 19:10:55.000,137.322,42.440,582.686344
1 Dec 2019 19:10:56.000,136.340,42.458,582.520861
1 Dec 2019 19:10:57.000,135.358,42.467,582.443230
1 Dec 2019 19:10:58.000,134.375,42.468,582.453489
1 Dec 2019 19:10:59.000,133.392,42.459,582.551631
1 Dec 2019 19:11:00.000,132.411,42.442,582.737613
1 Dec 2019 19:11:01.000,131.431,42.415,583.011351
1 Dec 2019 19:11:02.000,130.453,42.380,583.372721
1 Dec 2019 19:11:03.000,129.477,42.336,583.821557
1 Dec 2019 19:11:04.000,128.505,42.283,584.357662
1 Dec 2019 19:11:05.000,127.536,42.222,584.980793
1 Dec 2019 19:11:06.000,126.572,42.152,585.690672
1 Dec 2019 19:11:07.000,125.612,42.073,586.486983
1 Dec 2019 19:11:08.000,124.658,41.986,587.369371
1 Dec 2019 19:11:09.000,123.709,41.891,588.337453
1 Dec 2019 19:11:10.000,122.767,41.788,589.390802
1 Dec 2019 19:11:11.000,121.831,41.677,590.528960
1 Dec 2019 19:11:12.000,120.902,41.559,591.751441
1 Dec 2019 19:11:13.000,119.981,41.433,593.057718
1 Dec 2019 19:11:14.000,119.068,41.300,594.447236
1 Dec 2019 19:11:15.000,118.162,41.159,595.919415
1 Dec 2019 19:11:16.000,117.266,41.012,597.473639
1 Dec 2019 19:11:17.000,116.378,40.858,599.109271
1 Dec 2019 19:11:18.000,115.499,40.698,600.825641
1 Dec 2019 19:11:19.000,114.630,40.531,602.622058
1 Dec 2019 19:11:20.000,113.771,40.359,604.497809
1 Dec 2019 19:11:21.000,112.921,40.181,606.452152
1 Dec 2019 19:11:22.000,112.081,39.997,608.484329
1 Dec 2019 19:11:23.000,111.252,39.808,610.593562
1 Dec 2019 19:11:24.000,110.433,39.614,612.779050
1 Dec 2019 19:11:25.000,109.625,39.415,615.039979
1 Dec 2019 19:11:26.000,108.827,39.211,617.375520
1 Dec 2019 19:11:27.000,108.040,39.003,619.784822
1 Dec 2019 19:11:28.000,107.264,38.791,622.267027
1 Dec 2019 19:11:29.000,106.499,38.575,624.821265
1 Dec 2019 19:11:30.000,105.745,38.355,627.446652
1 Dec 2019 19:11:31.000,105.002,38.132,630.142295
1 Dec 2019 19:11:32.000,104.269,37.906,632.907295
1 Dec 2019 19:11:33.000,103.548,37.676,635.740746
1 Dec 2019 19:11:34.000,102.838,37.444,638.641728
1 Dec 2019 19:11:35.000,102.138,37.209,641.609323
1 Dec 2019 19:11:36.000,101.450,36.972,644.642610
1 Dec 2019 19:11:37.000,100.772,36.733,647.740660
1 Dec 2019 19:11:38.000,100.105,36.491,650.902547
1 Dec 2019 19:11:39.000,99.449,36.248,654.127337
1 Dec 2019 19:11:40.000,98.803,36.003,657.414107
1 Dec 2019 19:11:41.000,98.168,35.757,660.761925
1 Dec 2019 19:11:42.000,97.543,35.509,664.169864
1 Dec 2019 19:11:43.000,96.928,35.260,667.637000
1 Dec 2019 19:11:44.000,96.324,35.010,671.162411
1 Dec 2019 19:11:45.000,95.729,34.759,674.745179
1 Dec 2019 19:11:46.000,95.145,34.508,678.384388
1 Dec 2019 19:11:47.000,94.570,34.256,682.079138
1 Dec 2019 19:11:48.000,94.006,34.003,685.828522
1 Dec 2019 19:11:49.000,93.450,33.751,689.631645
1 Dec 2019 19:11:50.000,92.904,33.498,693.487616
1 Dec 2019 19:11:51.000,92.367,33.245,697.395559
1 Dec 2019 19:11:52.000,91.840,32.992,701.354599
1 Dec 2019 19:11:53.000,91.321,32.739,705.363869
1 Dec 2019 19:11:54.000,90.812,32.487,709.422512
1 Dec 2019 19:11:55.000,90.311,32.234,713.529684
1 Dec 2019 19:11:56.000,89.818,31.983,717.684543
1 Dec 2019 19:11:57.000,89.334,31.731,721.886266
1 Dec 2019 19:11:58.000,88.858,31.481,726.134032
1 Dec 2019 19:11:59.000,88.390,31.231,730.427029
1 Dec 2019 19:12:00.000,87.931,30.982,734.764465
1 Dec 2019 19:12:01.000,87.479,30.733,739.145547
1 Dec 2019 19:12:02.000,87.035,30.486,743.569505
1 Dec 2019 19:12:03.000,86.598,30.239,748.035566
1 Dec 2019 19:12:04.000,86.169,29.994,752.542981
1 Dec 2019 19:12:05.000,85.747,29.749,757.091001
1 Dec 2019 19:12:06.000,85.332,29.506,761.678899
1 Dec 2019 19:12:07.000,84.924,29.264,766.305947
1 Dec 2019 19:12:08.000,84.523,29.023,770.971441
1 Dec 2019 19:12:09.000,84.128,28.783,775.674676
1 Dec 2019 19:12:10.000,83.741,28.545,780.414969
1 Dec 2019 19:12:11.000,83.359,28.308,785.191638
1 Dec 2019 19:12:12.000,82.985,28.072,790.004020
1 Dec 2019 19:12:13.000,82.616,27.838,794.851464
1 Dec 2019 19:12:14.000,82.253,27.605,799.733321
1 Dec 2019 19:12:15.000,81.897,27.373,804.648965
1 Dec 2019 19:12:16.000,81.546,27.143,809.597768
1 Dec 2019 19:12:17.000,81.201,26.914,814.579124
1 Dec 2019 19:12:18.000,80.861,26.687,819.592435
1 Dec 2019 19:12:19.000,80.528,26.461,824.637107
1 Dec 2019 19:12:20.000,80.199,26.237,829.712565
1 Dec 2019 19:12:21.000,79.876,26.015,834.818244
1 Dec 2019 19:12:22.000,79.558,25.794,839.953582
1 Dec 2019 19:12:23.000,79.245,25.574,845.118035
1 Dec 2019 19:12:24.000,78.937,25.356,850.311065
1 Dec 2019 19:12:25.000,78.634,25.140,855.532150
1 Dec 2019 19:12:26.000,78.336,24.925,860.780767
1 Dec 2019 19:12:27.000,78.042,24.711,866.056412
1 Dec 2019 19:12:28.000,77.753,24.500,871.358587
1 Dec 2019 19:12:29.000,77.468,24.290,876.686809
1 Dec 2019 19:12:30.000,77.188,24.081,882.040593
1 Dec 2019 19:12:31.000,76.913,23.874,887.419473
1 Dec 2019 19:12:32.000,76.641,23.668,892.822989
1 Dec 2019 19:12:33.000,76.374,23.465,898.250689
1 Dec 2019 19:12:34.000,76.110,23.262,903.702136
1 Dec 2019 19:12:35.000,75.851,23.061,909.176889
1 Dec 2019 19:12:36.000,75.596,22.862,914.674525
1 Dec 2019 19:12:37.000,75.344,22.665,920.194630
1 Dec 2019 19:12:38.000,75.096,22.468,925.736793
1 Dec 2019 19:12:39.000,74.852,22.274,931.300616
1 Dec 2019 19:12:40.000,74.612,22.081,936.885707
1 Dec 2019 19:12:41.000,74.375,21.889,942.491677
1 Dec 2019 19:12:42.000,74.141,21.699,948.118152
1 Dec 2019 19:12:43.000,73.911,21.510,953.764762
1 Dec 2019 19:12:44.000,73.684,21.323,959.431144
1 Dec 2019 19:12:45.000,73.461,21.138,965.116945
1 Dec 2019 19:12:46.000,73.240,20.954,970.821815
1 Dec 2019 19:12:47.000,73.023,20.771,976.545414
1 Dec 2019 19:12:48.000,72.809,20.590,982.287408
1 Dec 2019 19:12:49.000,72.598,20.410,988.047469
1 Dec 2019 19:12:50.000,72.390,20.232,993.825280
1 Dec 2019 19:12:51.000,72.185,20.055,999.620520
1 Dec 2019 19:12:52.000,71.983,19.879,1005.432883
1 Dec 2019 19:12:53.000,71.783,19.705,1011.262067
1 Dec 2019 19:12:54.000,71.587,19.532,1017.107777
1 Dec 2019 19:12:55.000,71.393,19.361,1022.969721
1 Dec 2019 19:12:56.000,71.201,19.190,1028.847616
1 Dec 2019 19:12:57.000,71.013,19.022,1034.741183
1 Dec 2019 19:12:58.000,70.826,18.854,1040.650149
1 Dec 2019 19:12:59.000,70.643,18.688,1046.574245
1 Dec 2019 19:13:00.000,70.461,18.523,1052.513209
1 Dec 2019 19:13:01.000,70.283,18.360,1058.466785
1 Dec 2019 19:13:02.000,70.106,18.198,1064.434719
1 Dec 2019 19:13:03.000,69.932,18.037,1070.416764
1 Dec 2019 19:13:04.000,69.760,17.877,1076.412679
1 Dec 2019 19:13:05.000,69.591,17.718,1082.422225
1 Dec 2019 19:13:06.000,69.423,17.561,1088.445169
1 Dec 2019 19:13:07.000,69.258,17.405,1094.481284
1 Dec 2019 19:13:08.000,69.095,17.250,1100.530346
1 Dec 2019 19:13:09.000,68.934,17.097,1106.592134
1 Dec 2019 19:13:10.000,68.775,16.944,1112.666434
1 Dec 2019 19:13:11.000,68.618,16.793,1118.753035
1 Dec 2019 19:13:12.000,68.463,16.643,1124.851730
1 Dec 2019 19:13:13.000,68.310,16.494,1130.962316
1 Dec 2019 19:13:14.000,68.159,16.346,1137.084594
1 Dec 2019 19:13:15.000,68.010,16.199,1143.218369
1 Dec 2019 19:13:16.000,67.862,16.053,1149.363449
1 Dec 2019 19:13:17.000,67.717,15.909,1155.519648
1 Dec 2019 19:13:18.000,67.573,15.765,1161.686780
1 Dec 2019 19:13:19.000,67.431,15.623,1167.864666
1 Dec 2019 19:13:20.000,67.291,15.481,1174.053128
1 Dec 2019 19:13:21.000,67.152,15.341,1180.251990
1 Dec 2019 19:13:22.000,67.015,15.201,1186.461087
1 Dec 2019 19:13:23.000,66.880,15.063,1192.680249
1 Dec 2019 19:13:24.000,66.746,14.926,1198.909312
1 Dec 2019 19:13:25.000,66.614,14.789,1205.148116
1 Dec 2019 19:13:26.000,66.484,14.654,1211.396501
1 Dec 2019 19:13:27.000,66.355,14.520,1217.654315
1 Dec 2019 19:13:28.000,66.227,14.386,1223.921403
1 Dec 2019 19:13:29.000,66.101,14.254,1230.197618
1 Dec 2019 19:13:30.000,65.977,14.122,1236.482812
1 Dec 2019 19:13:31.000,65.853,13.992,1242.776842
1 Dec 2019 19:13:32.000,65.732,13.862,1249.079568
1 Dec 2019 19:13:33.000,65.611,13.733,1255.390847
1 Dec 2019 19:13:34.000,65.492,13.605,1261.710549
1 Dec 2019 19:13:35.000,65.375,13.478,1268.038540
1 Dec 2019 19:13:36.000,65.258,13.352,1274.374686
1 Dec 2019 19:13:37.000,65.143,13.227,1280.718860
1 Dec 2019 19:13:38.000,65.030,13.102,1287.070936
1 Dec 2019 19:13:39.000,64.917,12.979,1293.430790
1 Dec 2019 19:13:40.000,64.806,12.856,1299.798299
1 Dec 2019 19:13:41.000,64.696,12.734,1306.173342
1 Dec 2019 19:13:42.000,64.587,12.613,1312.555807
1 Dec 2019 19:13:43.000,64.480,12.493,1318.945576
1 Dec 2019 19:13:44.000,64.373,12.373,1325.342535
1 Dec 2019 19:13:45.000,64.268,12.255,1331.746573
1 Dec 2019 19:13:46.000,64.164,12.137,1338.157582
1 Dec 2019 19:13:47.000,64.061,12.020,1344.575454
1 Dec 2019 19:13:48.000,63.959,11.903,1351.000083
1 Dec 2019 19:13:49.000,63.858,11.788,1357.431362
1 Dec 2019 19:13:50.000,63.758,11.673,1363.869197
1 Dec 2019 19:13:51.000,63.659,11.559,1370.313485
1 Dec 2019 19:13:52.000,63.562,11.445,1376.764126
1 Dec 2019 19:13:53.000,63.465,11.332,1383.221024
1 Dec 2019 19:13:54.000,63.369,11.220,1389.684085
1 Dec 2019 19:13:55.000,63.275,11.109,1396.153211
1 Dec 2019 19:13:56.000,63.181,10.999,1402.628319
1 Dec 2019 19:13:57.000,63.088,10.889,1409.109314
1 Dec 2019 19:13:58.000,62.996,10.779,1415.596108
1 Dec 2019 19:13:59.000,62.905,10.671,1422.088614
1 Dec 2019 19:14:00.000,62.815,10.563,1428.586746
1 Dec 2019 19:14:01.000,62.726,10.456,1435.090421
1 Dec 2019 19:14:02.000,62.638,10.349,1441.599552
1 Dec 2019 19:14:03.000,62.551,10.243,1448.114064
1 Dec 2019 19:14:04.000,62.464,10.138,1454.633874
1 Dec 2019 19:14:05.000,62.379,10.033,1461.158904
1 Dec 2019 19:14:06.000,62.294,9.929,1467.689075
1 Dec 2019 19:14:07.000,62.210,9.825,1474.224310
1 Dec 2019 19:14:08.000,62.127,9.723,1480.764539
1 Dec 2019 19:14:09.000,62.045,9.620,1487.309686
1 Dec 2019 19:14:10.000,61.963,9.519,1493.859678
1 Dec 2019 19:14:11.000,61.883,9.417,1500.414444
1 Dec 2019 19:14:12.000,61.803,9.317,1506.973914
1 Dec 2019 19:14:13.000,61.724,9.217,1513.538016
1 Dec 2019 19:14:14.000,61.645,9.118,1520.106689
1 Dec 2019 19:14:15.000,61.568,9.019,1526.679861
1 Dec 2019 19:14:16.000,61.491,8.920,1533.257469
1 Dec 2019 19:14:17.000,61.414,8.823,1539.839447
1 Dec 2019 19:14:18.000,61.339,8.725,1546.425728
1 Dec 2019 19:14:19.000,61.264,8.629,1553.016256
1 Dec 2019 19:14:20.000,61.190,8.533,1559.610966
1 Dec 2019 19:14:21.000,61.117,8.437,1566.209798
1 Dec 2019 19:14:22.000,61.044,8.342,1572.812692
1 Dec 2019 19:14:23.000,60.972,8.247,1579.419586
1 Dec 2019 19:14:24.000,60.901,8.153,1586.030429
1 Dec 2019 19:14:25.000,60.830,8.060,1592.645160
1 Dec 2019 19:14:26.000,60.760,7.966,1599.263723
1 Dec 2019 19:14:27.000,60.690,7.874,1605.886063
1 Dec 2019 19:14:28.000,60.622,7.782,1612.512123
1 Dec 2019 19:14:29.000,60.553,7.690,1619.141855
1 Dec 2019 19:14:30.000,60.486,7.599,1625.775203
1 Dec 2019 19:14:31.000,60.419,7.508,1632.412116
1 Dec 2019 19:14:32.000,60.352,7.418,1639.052538
1 Dec 2019 19:14:33.000,60.287,7.328,1645.696427
1 Dec 2019 19:14:34.000,60.221,7.239,1652.343729
1 Dec 2019 19:14:35.000,60.157,7.150,1658.994395
1 Dec 2019 19:14:36.000,60.093,7.061,1665.648377
1 Dec 2019 19:14:37.000,60.029,6.973,1672.305624
1 Dec 2019 19:14:38.000,59.966,6.886,1678.966097
1 Dec 2019 19:14:39.000,59.904,6.799,1685.629745
1 Dec 2019 19:14:40.000,59.842,6.712,1692.296524
1 Dec 2019 19:14:41.000,59.780,6.626,1698.966387
1 Dec 2019 19:14:42.000,59.720,6.540,1705.639290
1 Dec 2019 19:14:43.000,59.659,6.454,1712.315193
1 Dec 2019 19:14:44.000,59.599,6.369,1718.994051
1 Dec 2019 19:14:45.000,59.540,6.284,1725.675823
1 Dec 2019 19:14:46.000,59.481,6.200,1732.360462
1 Dec 2019 19:14:47.000,59.423,6.116,1739.047935
1 Dec 2019 19:14:48.000,59.365,6.033,1745.738197
1 Dec 2019 19:14:49.000,59.308,5.950,1752.431210
1 Dec 2019 19:14:50.000,59.251,5.867,1759.126929
1 Dec 2019 19:14:51.000,59.195,5.785,1765.825324
1 Dec 2019 19:14:52.000,59.139,5.703,1772.526352
1 Dec 2019 19:14:53.000,59.083,5.621,1779.229976
1 Dec 2019 19:14:54.000,59.028,5.540,1785.936159
1 Dec 2019 19:14:55.000,58.974,5.459,1792.644860
1 Dec 2019 19:14:56.000,58.920,5.378,1799.356050
1 Dec 2019 19:14:57.000,58.866,5.298,1806.069691
1 Dec 2019 19:14:58.000,58.813,5.218,1812.785746
1 Dec 2019 19:14:59.000,58.760,5.139,1819.504178
1 Dec 2019 19:15:00.000,58.708,5.060,1826.224960
1 Dec 2019 19:15:01.000,58.656,4.981,1832.948054
1 Dec 2019 19:15:02.000,58.604,4.902,1839.673426
1 Dec 2019 19:15:03.000,58.553,4.824,1846.401042
1 Dec 2019 19:15:04.000,58.502,4.747,1853.130874
1 Dec 2019 19:15:05.000,58.452,4.669,1859.862888
1 Dec 2019 19:15:06.000,58.402,4.592,1866.597051
1 Dec 2019 19:15:07.000,58.352,4.515,1873.333331
1 Dec 2019 19:15:08.000,58.303,4.439,1880.071701
1 Dec 2019 19:15:09.000,58.255,4.362,1886.812129
1 Dec 2019 19:15:10.000,58.206,4.287,1893.554585
1 Dec 2019 19:15:11.000,58.158,4.211,1900.299036
1 Dec 2019 19:15:12.000,58.111,4.136,1907.045458
1 Dec 2019 19:15:13.000,58.063,4.061,1913.793821
1 Dec 2019 19:15:14.000,58.016,3.986,1920.544095
1 Dec 2019 19:15:15.000,57.970,3.912,1927.296250
1 Dec 2019 19:15:16.000,57.924,3.838,1934.050264
1 Dec 2019 19:15:17.000,57.878,3.764,1940.806106
1 Dec 2019 19:15:18.000,57.832,3.690,1947.563749
1 Dec 2019 19:15:19.000,57.787,3.617,1954.323164
1 Dec 2019 19:15:20.000,57.742,3.544,1961.084331
1 Dec 2019 19:15:21.000,57.698,3.472,1967.847219
1 Dec 2019 19:15:22.000,57.654,3.399,1974.611804
1 Dec 2019 19:15:23.000,57.610,3.327,1981.378057
1 Dec 2019 19:15:24.000,57.566,3.255,1988.145960
1 Dec 2019 19:15:25.000,57.523,3.184,1994.915483
1 Dec 2019 19:15:26.000,57.480,3.112,2001.686603
1 Dec 2019 19:15:27.000,57.438,3.041,2008.459293
1 Dec 2019 19:15:28.000,57.396,2.971,2015.233534
1 Dec 2019 19:15:29.000,57.354,2.900,2022.009301
1 Dec 2019 19:15:30.000,57.312,2.830,2028.786569
1 Dec 2019 19:15:31.000,57.271,2.760,2035.565313
1 Dec 2019 19:15:32.000,57.230,2.690,2042.345516
1 Dec 2019 19:15:33.000,57.189,2.621,2049.127152
1 Dec 2019 19:15:34.000,57.149,2.551,2055.910197
1 Dec 2019 19:15:35.000,57.109,2.482,2062.694634
1 Dec 2019 19:15:36.000,57.069,2.414,2069.480438
1 Dec 2019 19:15:37.000,57.029,2.345,2076.267589
1 Dec 2019 19:15:38.000,56.990,2.277,2083.056061
1 Dec 2019 19:15:39.000,56.951,2.209,2089.845840
1 Dec 2019 19:15:40.000,56.912,2.141,2096.636903
1 Dec 2019 19:15:41.000,56.874,2.073,2103.429228
1 Dec 2019 19:15:42.000,56.836,2.006,2110.222792
1 Dec 2019 19:15:43.000,56.798,1.939,2117.017582
1 Dec 2019 19:15:44.000,56.760,1.872,2123.813575
1 Dec 2019 19:15:45.000,56.723,1.805,2130.610751
1 Dec 2019 19:15:46.000,56.686,1.739,2137.409087
1 Dec 2019 19:15:47.000,56.649,1.672,2144.208571
1 Dec 2019 19:15:48.000,56.612,1.606,2151.009181
1 Dec 2019 19:15:49.000,56.576,1.541,2157.810894
1 Dec 2019 19:15:50.000,56.540,1.475,2164.613699
1 Dec 2019 19:15:51.000,56.504,1.410,2171.417574
1 Dec 2019 19:15:52.000,56.469,1.344,2178.222501
1 Dec 2019 19:15:53.000,56.433,1.279,2185.028459
1 Dec 2019 19:15:54.000,56.398,1.215,2191.835437
1 Dec 2019 19:15:55.000,56.363,1.150,2198.643413
1 Dec 2019 19:15:56.000,56.329,1.086,2205.452372
1 Dec 2019 19:15:57.000,56.294,1.022,2212.262291
1 Dec 2019 19:15:58.000,56.260,0.958,2219.073161
1 Dec 2019 19:15:59.000,56.226,0.894,2225.884962
1 Dec 2019 19:16:00.000,56.193,0.830,2232.697676
1 Dec 2019 19:16:01.000,56.159,0.767,2239.511286
1 Dec 2019 19:16:02.000,56.126,0.704,2246.325780
1 Dec 2019 19:16:03.000,56.093,0.641,2253.141139
1 Dec 2019 19:16:04.000,56.060,0.578,2259.957344
1 Dec 2019 19:16:05.000,56.027,0.515,2266.774387
1 Dec 2019 19:16:06.000,55.995,0.453,2273.592247
1 Dec 2019 19:16:07.000,55.963,0.390,2280.410910
1 Dec 2019 19:16:08.000,55.931,0.328,2287.230357
1 Dec 2019 19:16:09.000,55.899,0.267,2294.050580
1 Dec 2019 19:16:10.000,55.868,0.205,2300.871559
1 Dec 2019 19:16:11.000,55.836,0.143,2307.693279
1 Dec 2019 19:16:12.000,55.805,0.082,2314.515729
1 Dec 2019 19:16:13.000,55.774,0.021,2321.338893
1 Dec 2019 19:16:14.000,55.744,-0.040,2328.162755
1 Dec 2019 19:16:14.246,55.736,-0.055,2329.842433
1 Dec 2019 20:42:35.800,262.098,-0.056,2319.947903
1 Dec 2019 20:42:36.000,262.113,-0.044,2318.681217
1 Dec 2019 20:42:37.000,262.187,0.013,2312.348831
1 Dec 2019 20:42:38.000,262.261,0.070,2306.019658
1 Dec 2019 20:42:39.000,262.336,0.127,2299.693730
1 Dec 2019 20:42:40.000,262.411,0.185,2293.371082
1 Dec 2019 20:42:41.000,262.486,0.242,2287.051747
1 Dec 2019 20:42:42.000,262.562,0.300,2280.735762
1 Dec 2019 20:42:43.000,262.638,0.358,2274.423160
1 Dec 2019 20:42:44.000,262.715,0.416,2268.113978
1 Dec 2019 20:42:45.000,262.792,0.474,2261.808247
1 Dec 2019 20:42:46.000,262.869,0.532,2255.506011
1 Dec 2019 20:42:47.000,262.947,0.591,2249.207302
1 Dec 2019 20:42:48.000,263.025,0.649,2242.912157
1 Dec 2019 20:42:49.000,263.104,0.708,2236.620614
1 Dec 2019 20:42:50.000,263.183,0.767,2230.332711
1 Dec 2019 20:42:51.000,263.263,0.826,2224.048484
1 Dec 2019 20:42:52.000,263.343,0.885,2217.767973
1 Dec 2019 20:42:53.000,263.423,0.944,2211.491217
1 Dec 2019 20:42:54.000,263.504,1.003,2205.218253
1 Dec 2019 20:42:55.000,263.586,1.063,2198.949123
1 Dec 2019 20:42:56.000,263.668,1.123,2192.683862
1 Dec 2019 20:42:57.000,263.750,1.182,2186.422518
1 Dec 2019 20:42:58.000,263.833,1.242,2180.165127
1 Dec 2019 20:42:59.000,263.916,1.302,2173.911733
1 Dec 2019 20:43:00.000,264.000,1.363,2167.662375
1 Dec 2019 20:43:01.000,264.084,1.423,2161.417096
1 Dec 2019 20:43:02.000,264.168,1.483,2155.175938
1 Dec 2019 20:43:03.000,264.254,1.544,2148.938945
1 Dec 2019 20:43:04.000,264.339,1.605,2142.706160
1 Dec 2019 20:43:05.000,264.425,1.666,2136.477627
1 Dec 2019 20:43:06.000,264.512,1.727,2130.253389
1 Dec 2019 20:43:07.000,264.599,1.788,2124.033492
1 Dec 2019 20:43:08.000,264.687,1.850,2117.817978
1 Dec 2019 20:43:09.000,264.775,1.911,2111.606899
1 Dec 2019 20:43:10.000,264.863,1.973,2105.400298
1 Dec 2019 20:43:11.000,264.952,2.035,2099.198222
1 Dec 2019 20:43:12.000,265.042,2.097,2093.000718
1 Dec 2019 20:43:13.000,265.132,2.159,2086.807834
1 Dec 2019 20:43:14.000,265.223,2.222,2080.619617
1 Dec 2019 20:43:15.000,265.314,2.284,2074.436117
1 Dec 2019 20:43:16.000,265.406,2.347,2068.257382
1 Dec 2019 20:43:17.000,265.498,2.410,2062.083464
1 Dec 2019 20:43:18.000,265.591,2.473,2055.914411
1 Dec 2019 20:43:19.000,265.685,2.536,2049.750276
1 Dec 2019 20:43:20.000,265.779,2.599,2043.591108
1 Dec 2019 20:43:21.000,265.873,2.663,2037.436961
1 Dec 2019 20:43:22.000,265.968,2.727,2031.287887
1 Dec 2019 20:43:23.000,266.064,2.791,2025.143938
1 Dec 2019 20:43:24.000,266.160,2.855,2019.005166
1 Dec 2019 20:43:25.000,266.257,2.919,2012.871631
1 Dec 2019 20:43:26.000,266.354,2.983,2006.743385
1 Dec 2019 20:43:27.000,266.452,3.048,2000.620483
1 Dec 2019 20:43:28.000,266.551,3.112,1994.502982
1 Dec 2019 20:43:29.000,266.650,3.177,1988.390938
1 Dec 2019 20:43:30.000,266.750,3.242,1982.284408
1 Dec 2019 20:43:31.000,266.851,3.308,1976.183450
1 Dec 2019 20:43:32.000,266.952,3.373,1970.088124
1 Dec 2019 20:43:33.000,267.053,3.439,1963.998488
1 Dec 2019 20:43:34.000,267.156,3.505,1957.914602
1 Dec 2019 20:43:35.000,267.259,3.571,1951.836527
1 Dec 2019 20:43:36.000,267.362,3.637,1945.764325
1 Dec 2019 20:43:37.000,267.467,3.703,1939.698056
1 Dec 2019 20:43:38.000,267.571,3.770,1933.637784
1 Dec 2019 20:43:39.000,267.677,3.836,1927.583572
1 Dec 2019 20:43:40.000,267.783,3.903,1921.535484
1 Dec 2019 20:43:41.000,267.890,3.970,1915.493584
1 Dec 2019 20:43:42.000,267.998,4.038,1909.457940
1 Dec 2019 20:43:43.000,268.106,4.105,1903.428616
1 Dec 2019 20:43:44.000,268.215,4.173,1897.405679
1 Dec 2019 20:43:45.000,268.325,4.241,1891.389199
1 Dec 2019 20:43:46.000,268.435,4.309,1885.379242
1 Dec 2019 20:43:47.000,268.546,4.377,1879.375878
1 Dec 2019 20:43:48.000,268.658,4.445,1873.379178
1 Dec 2019 20:43:49.000,268.770,4.514,1867.389211
1 Dec 2019 20:43:50.000,268.883,4.583,1861.406051
1 Dec 2019 20:43:51.000,268.997,4.652,1855.429770
1 Dec 2019 20:43:52.000,269.112,4.721,1849.460440
1 Dec 2019 20:43:53.000,269.228,4.790,1843.498136
1 Dec 2019 20:43:54.000,269.344,4.860,1837.542934
1 Dec 2019 20:43:55.000,269.461,4.930,1831.594908
1 Dec 2019 20:43:56.000,269.578,5.000,1825.654136
1 Dec 2019 20:43:57.000,269.697,5.070,1819.720696
1 Dec 2019 20:43:58.000,269.816,5.140,1813.794666
1 Dec 2019 20:43:59.000,269.936,5.211,1807.876125
1 Dec 2019 20:44:00.000,270.057,5.282,1801.965154
1 Dec 2019 20:44:01.000,270.179,5.353,1796.061835
1 Dec 2019 20:44:02.000,270.301,5.424,1790.166249
1 Dec 2019 20:44:03.000,270.425,5.496,1784.278480
1 Dec 2019 20:44:04.000,270.549,5.567,1778.398611
1 Dec 2019 20:44:05.000,270.674,5.639,1772.526729
1 Dec 2019 20:44:06.000,270.800,5.711,1766.662919
1 Dec 2019 20:44:07.000,270.926,5.783,1760.807269
1 Dec 2019 20:44:08.000,271.054,5.856,1754.959866
1 Dec 2019 20:44:09.000,271.182,5.929,1749.120800
1 Dec 2019 20:44:10.000,271.312,6.002,1743.290161
1 Dec 2019 20:44:11.000,271.442,6.075,1737.468045
1 Dec 2019 20:44:12.000,271.573,6.148,1731.654535
1 Dec 2019 20:44:13.000,271.705,6.222,1725.849730
1 Dec 2019 20:44:14.000,271.838,6.296,1720.053724
1 Dec 2019 20:44:15.000,271.972,6.370,1714.266612
1 Dec 2019 20:44:16.000,272.106,6.444,1708.488492
1 Dec 2019 20:44:17.000,272.242,6.518,1702.719461
1 Dec 2019 20:44:18.000,272.379,6.593,1696.959619
1 Dec 2019 20:44:19.000,272.516,6.668,1691.209065
1 Dec 2019 20:44:20.000,272.655,6.743,1685.467901
1 Dec 2019 20:44:21.000,272.794,6.818,1679.736230
1 Dec 2019 20:44:22.000,272.935,6.894,1674.014156
1 Dec 2019 20:44:23.000,273.076,6.970,1668.301784
1 Dec 2019 20:44:24.000,273.219,7.046,1662.599223
1 Dec 2019 20:44:25.000,273.362,7.122,1656.906575
1 Dec 2019 20:44:26.000,273.506,7.199,1651.223951
1 Dec 2019 20:44:27.000,273.652,7.275,1645.551461
1 Dec 2019 20:44:28.000,273.799,7.352,1639.889218
1 Dec 2019 20:44:29.000,273.946,7.429,1634.237333
1 Dec 2019 20:44:30.000,274.095,7.507,1628.595922
1 Dec 2019 20:44:31.000,274.244,7.584,1622.965099
1 Dec 2019 20:44:32.000,274.395,7.662,1617.344981
1 Dec 2019 20:44:33.000,274.547,7.740,1611.735690
1 Dec 2019 20:44:34.000,274.700,7.819,1606.137338
1 Dec 2019 20:44:35.000,274.854,7.897,1600.550050
1 Dec 2019 20:44:36.000,275.009,7.976,1594.973949
1 Dec 2019 20:44:37.000,275.166,8.055,1589.409158
1 Dec 2019 20:44:38.000,275.323,8.134,1583.855803
1 Dec 2019 20:44:39.000,275.482,8.214,1578.314010
1 Dec 2019 20:44:40.000,275.642,8.293,1572.783912
1 Dec 2019 20:44:41.000,275.803,8.373,1567.265631
1 Dec 2019 20:44:42.000,275.965,8.453,1561.759301
1 Dec 2019 20:44:43.000,276.128,8.534,1556.265057
1 Dec 2019 20:44:44.000,276.293,8.614,1550.783032
1 Dec 2019 20:44:45.000,276.458,8.695,1545.313363
1 Dec 2019 20:44:46.000,276.625,8.776,1539.856190
1 Dec 2019 20:44:47.000,276.794,8.858,1534.411646
1 Dec 2019 20:44:48.000,276.963,8.939,1528.979876
1 Dec 2019 20:44:49.000,277.134,9.021,1523.561021
1 Dec 2019 20:44:50.000,277.306,9.103,1518.155227
1 Dec 2019 20:44:51.000,277.479,9.185,1512.762639
1 Dec 2019 20:44:52.000,277.654,9.268,1507.383408
1 Dec 2019 20:44:53.000,277.830,9.350,1502.017676
1 Dec 2019 20:44:54.000,278.007,9.433,1496.665599
1 Dec 2019 20:44:55.000,278.185,9.516,1491.327329
1 Dec 2019 20:44:56.000,278.365,9.600,1486.003025
1 Dec 2019 20:44:57.000,278.547,9.683,1480.692835
1 Dec 2019 20:44:58.000,278.729,9.767,1475.396921
1 Dec 2019 20:44:59.000,278.913,9.851,1470.115444
1 Dec 2019 20:45:00.000,279.099,9.935,1464.848565
1 Dec 2019 20:45:01.000,279.286,10.020,1459.596452
1 Dec 2019 20:45:02.000,279.474,10.104,1454.359263
1 Dec 2019 20:45:03.000,279.664,10.189,1449.137170
1 Dec 2019 20:45:04.000,279.855,10.274,1443.930341
1 Dec 2019 20:45:05.000,280.047,10.360,1438.738953
1 Dec 2019 20:45:06.000,280.242,10.445,1433.563170
1 Dec 2019 20:45:07.000,280.437,10.531,1428.403172
1 Dec 2019 20:45:08.000,280.634,10.617,1423.259140
1 Dec 2019 20:45:09.000,280.833,10.703,1418.131246
1 Dec 2019 20:45:10.000,281.033,10.789,1413.019675
1 Dec 2019 20:45:11.000,281.235,10.876,1407.924610
1 Dec 2019 20:45:12.000,281.438,10.963,1402.846240
1 Dec 2019 20:45:13.000,281.643,11.050,1397.784746
1 Dec 2019 20:45:14.000,281.849,11.137,1392.740319
1 Dec 2019 20:45:15.000,282.057,11.224,1387.713157
1 Dec 2019 20:45:16.000,282.267,11.312,1382.703444
1 Dec 2019 20:45:17.000,282.478,11.399,1377.711381
1 Dec 2019 20:45:18.000,282.691,11.487,1372.737170
1 Dec 2019 20:45:19.000,282.906,11.575,1367.781002
1 Dec 2019 20:45:20.000,283.122,11.664,1362.843084
1 Dec 2019 20:45:21.000,283.340,11.752,1357.923624
1 Dec 2019 20:45:22.000,283.560,11.841,1353.022821
1 Dec 2019 20:45:23.000,283.781,11.929,1348.140888
1 Dec 2019 20:45:24.000,284.004,12.018,1343.278039
1 Dec 2019 20:45:25.000,284.229,12.107,1338.434480
1 Dec 2019 20:45:26.000,284.455,12.197,1333.610434
1 Dec 2019 20:45:27.000,284.684,12.286,1328.806111
1 Dec 2019 20:45:28.000,284.914,12.376,1324.021735
1 Dec 2019 20:45:29.000,285.146,12.465,1319.257532
1 Dec 2019 20:45:30.000,285.380,12.555,1314.513719
1 Dec 2019 20:45:31.000,285.615,12.645,1309.790529
1 Dec 2019 20:45:32.000,285.853,12.735,1305.088184
1 Dec 2019 20:45:33.000,286.092,12.825,1300.406923
1 Dec 2019 20:45:34.000,286.333,12.916,1295.746972
1 Dec 2019 20:45:35.000,286.576,13.006,1291.108571
1 Dec 2019 20:45:36.000,286.821,13.097,1286.491960
1 Dec 2019 20:45:37.000,287.068,13.187,1281.897374
1 Dec 2019 20:45:38.000,287.317,13.278,1277.325062
1 Dec 2019 20:45:39.000,287.568,13.369,1272.775261
1 Dec 2019 20:45:40.000,287.821,13.460,1268.248226
1 Dec 2019 20:45:41.000,288.075,13.551,1263.744199
1 Dec 2019 20:45:42.000,288.332,13.642,1259.263439
1 Dec 2019 20:45:43.000,288.591,13.733,1254.806193
1 Dec 2019 20:45:44.000,288.852,13.824,1250.372725
1 Dec 2019 20:45:45.000,289.114,13.915,1245.963285
1 Dec 2019 20:45:46.000,289.379,14.006,1241.578141
1 Dec 2019 20:45:47.000,289.646,14.097,1237.217549
1 Dec 2019 20:45:48.000,289.915,14.189,1232.881782
1 Dec 2019 20:45:49.000,290.186,14.280,1228.571100
1 Dec 2019 20:45:50.000,290.459,14.371,1224.285779
1 Dec 2019 20:45:51.000,290.735,14.463,1220.026087
1 Dec 2019 20:45:52.000,291.012,14.554,1215.792295
1 Dec 2019 20:45:53.000,291.292,14.645,1211.584686
1 Dec 2019 20:45:54.000,291.573,14.736,1207.403532
1 Dec 2019 20:45:55.000,291.857,14.827,1203.249118
1 Dec 2019 20:45:56.000,292.143,14.918,1199.121724
1 Dec 2019 20:45:57.000,292.432,15.009,1195.021631
1 Dec 2019 20:45:58.000,292.722,15.100,1190.949131
1 Dec 2019 20:45:59.000,293.015,15.191,1186.904511
1 Dec 2019 20:46:00.000,293.310,15.282,1182.888056
1 Dec 2019 20:46:01.000,293.607,15.372,1178.900065
1 Dec 2019 20:46:02.000,293.906,15.463,1174.940829
1 Dec 2019 20:46:03.000,294.208,15.553,1171.010640
1 Dec 2019 20:46:04.000,294.512,15.643,1167.109803
1 Dec 2019 20:46:05.000,294.818,15.733,1163.238613
1 Dec 2019 20:46:06.000,295.126,15.823,1159.397369
1 Dec 2019 20:46:07.000,295.437,15.913,1155.586378
1 Dec 2019 20:46:08.000,295.750,16.002,1151.805943
1 Dec 2019 20:46:09.000,296.066,16.091,1148.056369
1 Dec 2019 20:46:10.000,296.383,16.180,1144.337960
1 Dec 2019 20:46:11.000,296.703,16.269,1140.651031
1 Dec 2019 20:46:12.000,297.026,16.358,1136.995888
1 Dec 2019 20:46:13.000,297.351,16.446,1133.372844
1 Dec 2019 20:46:14.000,297.678,16.534,1129.782207
1 Dec 2019 20:46:15.000,298.007,16.621,1126.224297
1 Dec 2019 20:46:16.000,298.339,16.709,1122.699426
1 Dec 2019 20:46:17.000,298.673,16.796,1119.207909
1 Dec 2019 20:46:18.000,299.010,16.882,1115.750064
1 Dec 2019 20:46:19.000,299.349,16.968,1112.326208
1 Dec 2019 20:46:20.000,299.690,17.054,1108.936655
1 Dec 2019 20:46:21.000,300.033,17.139,1105.581731
1 Dec 2019 20:46:22.000,300.380,17.224,1102.261753
1 Dec 2019 20:46:23.000,300.728,17.309,1098.977040
1 Dec 2019 20:46:24.000,301.079,17.393,1095.727914
1 Dec 2019 20:46:25.000,301.432,17.476,1092.514693
1 Dec 2019 20:46:26.000,301.787,17.560,1089.337701
1 Dec 2019 20:46:27.000,302.145,17.642,1086.197256
1 Dec 2019 20:46:28.000,302.506,17.724,1083.093682
1 Dec 2019 20:46:29.000,302.868,17.805,1080.027298
1 Dec 2019 20:46:30.000,303.233,17.886,1076.998425
1 Dec 2019 20:46:31.000,303.601,17.967,1074.007383
1 Dec 2019 20:46:32.000,303.971,18.046,1071.054493
1 Dec 2019 20:46:33.000,304.343,18.125,1068.140073
1 Dec 2019 20:46:34.000,304.717,18.204,1065.264443
1 Dec 2019 20:46:35.000,305.094,18.281,1062.427919
1 Dec 2019 20:46:36.000,305.473,18.358,1059.630819
1 Dec 2019 20:46:37.000,305.854,18.434,1056.873458
1 Dec 2019 20:46:38.000,306.238,18.510,1054.156152
1 Dec 2019 20:46:39.000,306.624,18.585,1051.479212
1 Dec 2019 20:46:40.000,307.012,18.658,1048.842951
1 Dec 2019 20:46:41.000,307.403,18.732,1046.247678
1 Dec 2019 20:46:42.000,307.796,18.804,1043.693705
1 Dec 2019 20:46:43.000,308.191,18.875,1041.181332
1 Dec 2019 20:46:44.000,308.588,18.946,1038.710866
1 Dec 2019 20:46:45.000,308.987,19.016,1036.282610
1 Dec 2019 20:46:46.000,309.389,19.084,1033.896862
1 Dec 2019 20:46:47.000,309.793,19.152,1031.553921
1 Dec 2019 20:46:48.000,310.199,19.219,1029.254082
1 Dec 2019 20:46:49.000,310.607,19.285,1026.997633
1 Dec 2019 20:46:50.000,311.017,19.350,1024.784865
1 Dec 2019 20:46:51.000,311.429,19.414,1022.616063
1 Dec 2019 20:46:52.000,311.843,19.476,1020.491512
1 Dec 2019 20:46:53.000,312.259,19.538,1018.411486
1 Dec 2019 20:46:54.000,312.678,19.599,1016.376262
1 Dec 2019 20:46:55.000,313.098,19.658,1014.386115
1 Dec 2019 20:46:56.000,313.520,19.717,1012.441307
1 Dec 2019 20:46:57.000,313.944,19.774,1010.542103
1 Dec 2019 20:46:58.000,314.370,19.830,1008.688767
1 Dec 2019 20:46:59.000,314.798,19.885,1006.881546
1 Dec 2019 20:47:00.000,315.227,19.938,1005.120697
1 Dec 2019 20:47:01.000,315.658,19.991,1003.406461
1 Dec 2019 20:47:02.000,316.091,20.042,1001.739080
1 Dec 2019 20:47:03.000,316.526,20.092,1000.118792
1 Dec 2019 20:47:04.000,316.962,20.140,998.545823
1 Dec 2019 20:47:05.000,317.400,20.188,997.020404
1 Dec 2019 20:47:06.000,317.840,20.234,995.542748
1 Dec 2019 20:47:07.000,318.281,20.278,994.113076
1 Dec 2019 20:47:08.000,318.724,20.321,992.731590
1 Dec 2019 20:47:09.000,319.168,20.363,991.398497
1 Dec 2019 20:47:10.000,319.613,20.404,990.113991
1 Dec 2019 20:47:11.000,320.060,20.443,988.878264
1 Dec 2019 20:47:12.000,320.508,20.480,987.691499
1 Dec 2019 20:47:13.000,320.957,20.516,986.553871
1 Dec 2019 20:47:14.000,321.408,20.551,985.465555
1 Dec 2019 20:47:15.000,321.860,20.584,984.426714
1 Dec 2019 20:47:16.000,322.312,20.616,983.437502
1 Dec 2019 20:47:17.000,322.766,20.646,982.498075
1 Dec 2019 20:47:18.000,323.221,20.674,981.608573
1 Dec 2019 20:47:19.000,323.677,20.702,980.769130
1 Dec 2019 20:47:20.000,324.134,20.727,979.979881
1 Dec 2019 20:47:21.000,324.592,20.751,979.240943
1 Dec 2019 20:47:22.000,325.050,20.773,978.552431
1 Dec 2019 20:47:23.000,325.509,20.794,977.914453
1 Dec 2019 20:47:24.000,325.969,20.813,977.327108
1 Dec 2019 20:47:25.000,326.430,20.831,976.790487
1 Dec 2019 20:47:26.000,326.891,20.847,976.304673
1 Dec 2019 20:47:27.000,327.352,20.862,975.869742
1 Dec 2019 20:47:28.000,327.815,20.874,975.485760
1 Dec 2019 20:47:29.000,328.277,20.885,975.152791
1 Dec 2019 20:47:30.000,328.740,20.895,974.870885
1 Dec 2019 20:47:31.000,329.203,20.903,974.640086
1 Dec 2019 20:47:32.000,329.666,20.909,974.460431
1 Dec 2019 20:47:33.000,330.130,20.914,974.331946
1 Dec 2019 20:47:34.000,330.594,20.917,974.254652
1 Dec 2019 20:47:35.000,331.058,20.918,974.228560
1 Dec 2019 20:47:36.000,331.521,20.918,974.253674
1 Dec 2019 20:47:37.000,331.985,20.916,974.329989
1 Dec 2019 20:47:38.000,332.449,20.912,974.457492
1 Dec 2019 20:47:39.000,332.912,20.907,974.636163
1 Dec 2019 20:47:40.000,333.375,20.900,974.865973
1 Dec 2019 20:47:41.000,333.838,20.892,975.146884
1 Dec 2019 20:47:42.000,334.301,20.882,975.478851
1 Dec 2019 20:47:43.000,334.763,20.870,975.861821
