vcc_sched/network/input/aer_uvags_wj2xmr_vcc-a_44428.csv

"Time (UTCG)","Azimuth (deg)","Elevation (deg)","Range (km)"
1 Dec 2019 17:33:01.018,152.543,-0.124,2318.725968
1 Dec 2019 17:33:02.000,152.386,-0.095,2315.460210
1 Dec 2019 17:33:03.000,152.226,-0.065,2312.150245
1 Dec 2019 17:33:04.000,152.065,-0.035,2308.856647
1 Dec 2019 17:33:05.000,151.904,-0.005,2305.579488
1 Dec 2019 17:33:06.000,151.742,0.025,2302.318845
1 Dec 2019 17:33:07.000,151.580,0.054,2299.074792
1 Dec 2019 17:33:08.000,151.417,0.084,2295.847403
1 Dec 2019 17:33:09.000,151.254,0.113,2292.636755
1 Dec 2019 17:33:10.000,151.091,0.142,2289.442921
1 Dec 2019 17:33:11.000,150.927,0.171,2286.265978
1 Dec 2019 17:33:12.000,150.762,0.200,2283.105998
1 Dec 2019 17:33:13.000,150.597,0.229,2279.963059
1 Dec 2019 17:33:14.000,150.432,0.258,2276.837236
1 Dec 2019 17:33:15.000,150.266,0.286,2273.728600
1 Dec 2019 17:33:16.000,150.099,0.315,2270.637230
1 Dec 2019 17:33:17.000,149.933,0.343,2267.563199
1 Dec 2019 17:33:18.000,149.765,0.372,2264.506582
1 Dec 2019 17:33:19.000,149.598,0.400,2261.467455
1 Dec 2019 17:33:20.000,149.429,0.428,2258.445892
1 Dec 2019 17:33:21.000,149.261,0.456,2255.441969
1 Dec 2019 17:33:22.000,149.092,0.484,2252.455759
1 Dec 2019 17:33:23.000,148.922,0.511,2249.487339
1 Dec 2019 17:33:24.000,148.752,0.539,2246.536782
1 Dec 2019 17:33:25.000,148.582,0.566,2243.604163
1 Dec 2019 17:33:26.000,148.411,0.594,2240.689558
1 Dec 2019 17:33:27.000,148.239,0.621,2237.793039
1 Dec 2019 17:33:28.000,148.068,0.648,2234.914683
1 Dec 2019 17:33:29.000,147.895,0.675,2232.054562
1 Dec 2019 17:33:30.000,147.723,0.702,2229.212751
1 Dec 2019 17:33:31.000,147.550,0.728,2226.389326
1 Dec 2019 17:33:32.000,147.376,0.755,2223.584359
1 Dec 2019 17:33:33.000,147.202,0.781,2220.797926
1 Dec 2019 17:33:34.000,147.028,0.807,2218.030099
1 Dec 2019 17:33:35.000,146.853,0.833,2215.280952
1 Dec 2019 17:33:36.000,146.677,0.859,2212.550559
1 Dec 2019 17:33:37.000,146.502,0.885,2209.838994
1 Dec 2019 17:33:38.000,146.325,0.911,2207.146329
1 Dec 2019 17:33:39.000,146.149,0.936,2204.472638
1 Dec 2019 17:33:40.000,145.972,0.962,2201.817994
1 Dec 2019 17:33:41.000,145.794,0.987,2199.182469
1 Dec 2019 17:33:42.000,145.616,1.012,2196.566135
1 Dec 2019 17:33:43.000,145.438,1.037,2193.969068
1 Dec 2019 17:33:44.000,145.259,1.061,2191.391337
1 Dec 2019 17:33:45.000,145.080,1.086,2188.833015
1 Dec 2019 17:33:46.000,144.900,1.111,2186.294175
1 Dec 2019 17:33:47.000,144.720,1.135,2183.774887
1 Dec 2019 17:33:48.000,144.539,1.159,2181.275223
1 Dec 2019 17:33:49.000,144.359,1.183,2178.795252
1 Dec 2019 17:33:50.000,144.177,1.207,2176.335049
1 Dec 2019 17:33:51.000,143.995,1.230,2173.894683
1 Dec 2019 17:33:52.000,143.813,1.254,2171.474225
1 Dec 2019 17:33:53.000,143.631,1.277,2169.073744
1 Dec 2019 17:33:54.000,143.448,1.300,2166.693309
1 Dec 2019 17:33:55.000,143.264,1.323,2164.332992
1 Dec 2019 17:33:56.000,143.080,1.346,2161.992863
1 Dec 2019 17:33:57.000,142.896,1.369,2159.672989
1 Dec 2019 17:33:58.000,142.712,1.391,2157.373440
1 Dec 2019 17:33:59.000,142.527,1.414,2155.094281
1 Dec 2019 17:34:00.000,142.341,1.436,2152.835586
1 Dec 2019 17:34:01.000,142.155,1.458,2150.597419
1 Dec 2019 17:34:02.000,141.969,1.480,2148.379849
1 Dec 2019 17:34:03.000,141.783,1.501,2146.182941
1 Dec 2019 17:34:04.000,141.596,1.523,2144.006765
1 Dec 2019 17:34:05.000,141.408,1.544,2141.851386
1 Dec 2019 17:34:06.000,141.221,1.565,2139.716868
1 Dec 2019 17:34:07.000,141.032,1.586,2137.603281
1 Dec 2019 17:34:08.000,140.844,1.607,2135.510688
1 Dec 2019 17:34:09.000,140.655,1.628,2133.439154
1 Dec 2019 17:34:10.000,140.466,1.648,2131.388741
1 Dec 2019 17:34:11.000,140.276,1.668,2129.359518
1 Dec 2019 17:34:12.000,140.086,1.688,2127.351547
1 Dec 2019 17:34:13.000,139.896,1.708,2125.364888
1 Dec 2019 17:34:14.000,139.705,1.728,2123.399610
1 Dec 2019 17:34:15.000,139.514,1.747,2121.455771
1 Dec 2019 17:34:16.000,139.323,1.766,2119.533432
1 Dec 2019 17:34:17.000,139.131,1.785,2117.632659
1 Dec 2019 17:34:18.000,138.939,1.804,2115.753509
1 Dec 2019 17:34:19.000,138.746,1.823,2113.896046
1 Dec 2019 17:34:20.000,138.553,1.841,2112.060328
1 Dec 2019 17:34:21.000,138.360,1.860,2110.246413
1 Dec 2019 17:34:22.000,138.167,1.878,2108.454365
1 Dec 2019 17:34:23.000,137.973,1.896,2106.684239
1 Dec 2019 17:34:24.000,137.779,1.913,2104.936092
1 Dec 2019 17:34:25.000,137.584,1.931,2103.209985
1 Dec 2019 17:34:26.000,137.389,1.948,2101.505972
1 Dec 2019 17:34:27.000,137.194,1.965,2099.824113
1 Dec 2019 17:34:28.000,136.999,1.982,2098.164459
1 Dec 2019 17:34:29.000,136.803,1.999,2096.527071
1 Dec 2019 17:34:30.000,136.607,2.015,2094.911999
1 Dec 2019 17:34:31.000,136.411,2.031,2093.319302
1 Dec 2019 17:34:32.000,136.214,2.047,2091.749031
1 Dec 2019 17:34:33.000,136.017,2.063,2090.201236
1 Dec 2019 17:34:34.000,135.820,2.079,2088.675976
1 Dec 2019 17:34:35.000,135.622,2.094,2087.173297
1 Dec 2019 17:34:36.000,135.424,2.109,2085.693255
1 Dec 2019 17:34:37.000,135.226,2.124,2084.235896
1 Dec 2019 17:34:38.000,135.028,2.139,2082.801275
1 Dec 2019 17:34:39.000,134.829,2.153,2081.389437
1 Dec 2019 17:34:40.000,134.630,2.168,2080.000432
1 Dec 2019 17:34:41.000,134.431,2.182,2078.634312
1 Dec 2019 17:34:42.000,134.231,2.196,2077.291118
1 Dec 2019 17:34:43.000,134.031,2.209,2075.970903
1 Dec 2019 17:34:44.000,133.831,2.223,2074.673708
1 Dec 2019 17:34:45.000,133.631,2.236,2073.399583
1 Dec 2019 17:34:46.000,133.430,2.249,2072.148567
1 Dec 2019 17:34:47.000,133.230,2.262,2070.920711
1 Dec 2019 17:34:48.000,133.029,2.274,2069.716052
1 Dec 2019 17:34:49.000,132.827,2.287,2068.534635
1 Dec 2019 17:34:50.000,132.626,2.299,2067.376505
1 Dec 2019 17:34:51.000,132.424,2.311,2066.241698
1 Dec 2019 17:34:52.000,132.222,2.322,2065.130257
1 Dec 2019 17:34:53.000,132.020,2.334,2064.042224
1 Dec 2019 17:34:54.000,131.817,2.345,2062.977634
1 Dec 2019 17:34:55.000,131.615,2.356,2061.936529
1 Dec 2019 17:34:56.000,131.412,2.366,2060.918942
1 Dec 2019 17:34:57.000,131.209,2.377,2059.924912
1 Dec 2019 17:34:58.000,131.006,2.387,2058.954479
1 Dec 2019 17:34:59.000,130.802,2.397,2058.007671
1 Dec 2019 17:35:00.000,130.599,2.407,2057.084525
1 Dec 2019 17:35:01.000,130.395,2.416,2056.185080
1 Dec 2019 17:35:02.000,130.191,2.426,2055.309360
1 Dec 2019 17:35:03.000,129.987,2.435,2054.457402
1 Dec 2019 17:35:04.000,129.782,2.444,2053.629237
1 Dec 2019 17:35:05.000,129.578,2.452,2052.824898
1 Dec 2019 17:35:06.000,129.373,2.460,2052.044409
1 Dec 2019 17:35:07.000,129.169,2.469,2051.287801
1 Dec 2019 17:35:08.000,128.964,2.476,2050.555103
1 Dec 2019 17:35:09.000,128.758,2.484,2049.846344
1 Dec 2019 17:35:10.000,128.553,2.491,2049.161546
1 Dec 2019 17:35:11.000,128.348,2.499,2048.500737
1 Dec 2019 17:35:12.000,128.142,2.505,2047.863941
1 Dec 2019 17:35:13.000,127.937,2.512,2047.251184
1 Dec 2019 17:35:14.000,127.731,2.519,2046.662485
1 Dec 2019 17:35:15.000,127.525,2.525,2046.097869
1 Dec 2019 17:35:16.000,127.319,2.531,2045.557356
1 Dec 2019 17:35:17.000,127.113,2.536,2045.040966
1 Dec 2019 17:35:18.000,126.907,2.542,2044.548721
1 Dec 2019 17:35:19.000,126.700,2.547,2044.080640
1 Dec 2019 17:35:20.000,126.494,2.552,2043.636737
1 Dec 2019 17:35:21.000,126.287,2.556,2043.217031
1 Dec 2019 17:35:22.000,126.081,2.561,2042.821537
1 Dec 2019 17:35:23.000,125.874,2.565,2042.450272
1 Dec 2019 17:35:24.000,125.667,2.569,2042.103250
1 Dec 2019 17:35:25.000,125.461,2.573,2041.780483
1 Dec 2019 17:35:26.000,125.254,2.576,2041.481988
1 Dec 2019 17:35:27.000,125.047,2.579,2041.207771
1 Dec 2019 17:35:28.000,124.840,2.582,2040.957844
1 Dec 2019 17:35:29.000,124.633,2.585,2040.732218
1 Dec 2019 17:35:30.000,124.426,2.588,2040.530902
1 Dec 2019 17:35:31.000,124.218,2.590,2040.353904
1 Dec 2019 17:35:32.000,124.011,2.592,2040.201231
1 Dec 2019 17:35:33.000,123.804,2.593,2040.072889
1 Dec 2019 17:35:34.000,123.597,2.595,2039.968885
1 Dec 2019 17:35:35.000,123.390,2.596,2039.889221
1 Dec 2019 17:35:36.000,123.182,2.597,2039.833903
1 Dec 2019 17:35:37.000,122.975,2.598,2039.802932
1 Dec 2019 17:35:38.000,122.768,2.598,2039.796311
1 Dec 2019 17:35:39.000,122.561,2.598,2039.814040
1 Dec 2019 17:35:40.000,122.353,2.598,2039.856119
1 Dec 2019 17:35:41.000,122.146,2.598,2039.922548
1 Dec 2019 17:35:42.000,121.939,2.597,2040.013324
1 Dec 2019 17:35:43.000,121.732,2.597,2040.128445
1 Dec 2019 17:35:44.000,121.524,2.596,2040.267907
1 Dec 2019 17:35:45.000,121.317,2.594,2040.431706
1 Dec 2019 17:35:46.000,121.110,2.593,2040.619837
1 Dec 2019 17:35:47.000,120.903,2.591,2040.832292
1 Dec 2019 17:35:48.000,120.696,2.589,2041.069065
1 Dec 2019 17:35:49.000,120.489,2.587,2041.330148
1 Dec 2019 17:35:50.000,120.282,2.584,2041.615532
1 Dec 2019 17:35:51.000,120.075,2.581,2041.925203
1 Dec 2019 17:35:52.000,119.869,2.578,2042.259158
1 Dec 2019 17:35:53.000,119.662,2.575,2042.617381
1 Dec 2019 17:35:54.000,119.455,2.571,2042.999860
1 Dec 2019 17:35:55.000,119.249,2.568,2043.406581
1 Dec 2019 17:35:56.000,119.042,2.564,2043.837530
1 Dec 2019 17:35:57.000,118.836,2.559,2044.292692
1 Dec 2019 17:35:58.000,118.630,2.555,2044.772051
1 Dec 2019 17:35:59.000,118.423,2.550,2045.275586
1 Dec 2019 17:36:00.000,118.217,2.545,2045.803287
1 Dec 2019 17:36:01.000,118.011,2.540,2046.355131
1 Dec 2019 17:36:02.000,117.805,2.534,2046.931099
1 Dec 2019 17:36:03.000,117.600,2.529,2047.531170
1 Dec 2019 17:36:04.000,117.394,2.523,2048.155320
1 Dec 2019 17:36:05.000,117.189,2.516,2048.803534
1 Dec 2019 17:36:06.000,116.983,2.510,2049.475784
1 Dec 2019 17:36:07.000,116.778,2.503,2050.172047
1 Dec 2019 17:36:08.000,116.573,2.496,2050.892299
1 Dec 2019 17:36:09.000,116.368,2.489,2051.636511
1 Dec 2019 17:36:10.000,116.163,2.481,2052.404662
1 Dec 2019 17:36:11.000,115.959,2.474,2053.196723
1 Dec 2019 17:36:12.000,115.754,2.466,2054.012666
1 Dec 2019 17:36:13.000,115.550,2.458,2054.852458
1 Dec 2019 17:36:14.000,115.346,2.449,2055.716077
1 Dec 2019 17:36:15.000,115.142,2.441,2056.603488
1 Dec 2019 17:36:16.000,114.938,2.432,2057.514657
1 Dec 2019 17:36:17.000,114.735,2.423,2058.449559
1 Dec 2019 17:36:18.000,114.532,2.413,2059.408158
1 Dec 2019 17:36:19.000,114.328,2.404,2060.390416
1 Dec 2019 17:36:20.000,114.125,2.394,2061.396307
1 Dec 2019 17:36:21.000,113.923,2.384,2062.425791
1 Dec 2019 17:36:22.000,113.720,2.373,2063.478829
1 Dec 2019 17:36:23.000,113.518,2.363,2064.555391
1 Dec 2019 17:36:24.000,113.316,2.352,2065.655437
1 Dec 2019 17:36:25.000,113.114,2.341,2066.778925
1 Dec 2019 17:36:26.000,112.912,2.330,2067.925822
1 Dec 2019 17:36:27.000,112.711,2.318,2069.096086
1 Dec 2019 17:36:28.000,112.510,2.307,2070.289673
1 Dec 2019 17:36:29.000,112.309,2.295,2071.506548
1 Dec 2019 17:36:30.000,112.108,2.283,2072.746663
1 Dec 2019 17:36:31.000,111.908,2.270,2074.009982
1 Dec 2019 17:36:32.000,111.707,2.258,2075.296458
1 Dec 2019 17:36:33.000,111.507,2.245,2076.606045
1 Dec 2019 17:36:34.000,111.308,2.232,2077.938703
1 Dec 2019 17:36:35.000,111.108,2.219,2079.294381
1 Dec 2019 17:36:36.000,110.909,2.205,2080.673041
1 Dec 2019 17:36:37.000,110.710,2.191,2082.074627
1 Dec 2019 17:36:38.000,110.512,2.177,2083.499100
1 Dec 2019 17:36:39.000,110.313,2.163,2084.946405
1 Dec 2019 17:36:40.000,110.115,2.149,2086.416500
1 Dec 2019 17:36:41.000,109.918,2.134,2087.909329
1 Dec 2019 17:36:42.000,109.720,2.120,2089.424849
1 Dec 2019 17:36:43.000,109.523,2.105,2090.963002
1 Dec 2019 17:36:44.000,109.326,2.089,2092.523745
1 Dec 2019 17:36:45.000,109.130,2.074,2094.107018
1 Dec 2019 17:36:46.000,108.933,2.058,2095.712776
1 Dec 2019 17:36:47.000,108.738,2.042,2097.340959
1 Dec 2019 17:36:48.000,108.542,2.026,2098.991521
1 Dec 2019 17:36:49.000,108.347,2.010,2100.664400
1 Dec 2019 17:36:50.000,108.152,1.994,2102.359549
1 Dec 2019 17:36:51.000,107.957,1.977,2104.076905
1 Dec 2019 17:36:52.000,107.763,1.960,2105.816417
1 Dec 2019 17:36:53.000,107.569,1.943,2107.578031
1 Dec 2019 17:36:54.000,107.375,1.926,2109.361683
1 Dec 2019 17:36:55.000,107.182,1.908,2111.167324
1 Dec 2019 17:36:56.000,106.989,1.890,2112.994887
1 Dec 2019 17:36:57.000,106.796,1.873,2114.844319
1 Dec 2019 17:36:58.000,106.604,1.854,2116.715563
1 Dec 2019 17:36:59.000,106.412,1.836,2118.608554
1 Dec 2019 17:37:00.000,106.220,1.818,2120.523237
1 Dec 2019 17:37:01.000,106.029,1.799,2122.459547
1 Dec 2019 17:37:02.000,105.838,1.780,2124.417425
1 Dec 2019 17:37:03.000,105.647,1.761,2126.396814
1 Dec 2019 17:37:04.000,105.457,1.742,2128.397645
1 Dec 2019 17:37:05.000,105.267,1.722,2130.419859
1 Dec 2019 17:37:06.000,105.078,1.703,2132.463397
1 Dec 2019 17:37:07.000,104.889,1.683,2134.528189
1 Dec 2019 17:37:08.000,104.700,1.663,2136.614174
1 Dec 2019 17:37:09.000,104.512,1.643,2138.721290
1 Dec 2019 17:37:10.000,104.324,1.622,2140.849474
1 Dec 2019 17:37:11.000,104.137,1.602,2142.998656
1 Dec 2019 17:37:12.000,103.949,1.581,2145.168773
1 Dec 2019 17:37:13.000,103.763,1.560,2147.359765
1 Dec 2019 17:37:14.000,103.576,1.539,2149.571557
1 Dec 2019 17:37:15.000,103.390,1.518,2151.804087
1 Dec 2019 17:37:16.000,103.205,1.496,2154.057288
1 Dec 2019 17:37:17.000,103.020,1.474,2156.331097
1 Dec 2019 17:37:18.000,102.835,1.453,2158.625441
1 Dec 2019 17:37:19.000,102.650,1.431,2160.940254
1 Dec 2019 17:37:20.000,102.466,1.408,2163.275468
1 Dec 2019 17:37:21.000,102.283,1.386,2165.631020
1 Dec 2019 17:37:22.000,102.100,1.364,2168.006833
1 Dec 2019 17:37:23.000,101.917,1.341,2170.402842
1 Dec 2019 17:37:24.000,101.735,1.318,2172.818979
1 Dec 2019 17:37:25.000,101.553,1.295,2175.255172
1 Dec 2019 17:37:26.000,101.371,1.272,2177.711358
1 Dec 2019 17:37:27.000,101.190,1.249,2180.187458
1 Dec 2019 17:37:28.000,101.009,1.225,2182.683405
1 Dec 2019 17:37:29.000,100.829,1.202,2185.199130
1 Dec 2019 17:37:30.000,100.649,1.178,2187.734561
1 Dec 2019 17:37:31.000,100.470,1.154,2190.289629
1 Dec 2019 17:37:32.000,100.291,1.130,2192.864260
1 Dec 2019 17:37:33.000,100.113,1.105,2195.458389
1 Dec 2019 17:37:34.000,99.934,1.081,2198.071935
1 Dec 2019 17:37:35.000,99.757,1.056,2200.704832
1 Dec 2019 17:37:36.000,99.580,1.032,2203.357006
1 Dec 2019 17:37:37.000,99.403,1.007,2206.028386
1 Dec 2019 17:37:38.000,99.226,0.982,2208.718899
1 Dec 2019 17:37:39.000,99.051,0.957,2211.428473
1 Dec 2019 17:37:40.000,98.875,0.931,2214.157036
1 Dec 2019 17:37:41.000,98.700,0.906,2216.904517
1 Dec 2019 17:37:42.000,98.525,0.880,2219.670837
1 Dec 2019 17:37:43.000,98.351,0.854,2222.455926
1 Dec 2019 17:37:44.000,98.178,0.828,2225.259711
1 Dec 2019 17:37:45.000,98.004,0.802,2228.082118
1 Dec 2019 17:37:46.000,97.832,0.776,2230.923075
1 Dec 2019 17:37:47.000,97.659,0.750,2233.782506
1 Dec 2019 17:37:48.000,97.487,0.723,2236.660340
1 Dec 2019 17:37:49.000,97.316,0.697,2239.556501
1 Dec 2019 17:37:50.000,97.145,0.670,2242.470915
1 Dec 2019 17:37:51.000,96.974,0.643,2245.403510
1 Dec 2019 17:37:52.000,96.804,0.616,2248.354210
1 Dec 2019 17:37:53.000,96.635,0.589,2251.322942
1 Dec 2019 17:37:54.000,96.465,0.562,2254.309630
1 Dec 2019 17:37:55.000,96.297,0.534,2257.314202
1 Dec 2019 17:37:56.000,96.128,0.507,2260.336581
1 Dec 2019 17:37:57.000,95.961,0.479,2263.376695
1 Dec 2019 17:37:58.000,95.793,0.452,2266.434468
1 Dec 2019 17:37:59.000,95.626,0.424,2269.509826
1 Dec 2019 17:38:00.000,95.460,0.396,2272.602695
1 Dec 2019 17:38:01.000,95.294,0.368,2275.712999
1 Dec 2019 17:38:02.000,95.128,0.339,2278.840665
1 Dec 2019 17:38:03.000,94.963,0.311,2281.985617
1 Dec 2019 17:38:04.000,94.799,0.282,2285.147781
1 Dec 2019 17:38:05.000,94.635,0.254,2288.327082
1 Dec 2019 17:38:06.000,94.471,0.225,2291.523447
1 Dec 2019 17:38:07.000,94.308,0.196,2294.736799
1 Dec 2019 17:38:08.000,94.145,0.167,2297.967064
1 Dec 2019 17:38:09.000,93.983,0.138,2301.214165
1 Dec 2019 17:38:10.000,93.821,0.109,2304.478034
1 Dec 2019 17:38:11.000,93.660,0.080,2307.758592
1 Dec 2019 17:38:12.000,93.499,0.051,2311.055766
1 Dec 2019 17:38:13.000,93.339,0.021,2314.369481
1 Dec 2019 17:38:14.000,93.179,-0.009,2317.699662
1 Dec 2019 17:38:15.000,93.019,-0.038,2321.046235
1 Dec 2019 17:38:16.000,92.860,-0.068,2324.409126
1 Dec 2019 17:38:17.000,92.702,-0.098,2327.788260
1 Dec 2019 17:38:17.873,92.564,-0.124,2330.752147
1 Dec 2019 19:06:07.014,216.778,-0.124,2319.938761
1 Dec 2019 19:06:08.000,216.751,-0.063,2313.183987
1 Dec 2019 19:06:09.000,216.724,-0.002,2306.333356
1 Dec 2019 19:06:10.000,216.696,0.060,2299.483273
1 Dec 2019 19:06:11.000,216.668,0.122,2292.633747
1 Dec 2019 19:06:12.000,216.640,0.185,2285.784791
1 Dec 2019 19:06:13.000,216.612,0.247,2278.936422
1 Dec 2019 19:06:14.000,216.584,0.310,2272.088651
1 Dec 2019 19:06:15.000,216.555,0.373,2265.241492
1 Dec 2019 19:06:16.000,216.526,0.436,2258.394956
1 Dec 2019 19:06:17.000,216.497,0.499,2251.549063
1 Dec 2019 19:06:18.000,216.468,0.562,2244.703823
1 Dec 2019 19:06:19.000,216.439,0.626,2237.859251
1 Dec 2019 19:06:20.000,216.410,0.690,2231.015359
1 Dec 2019 19:06:21.000,216.380,0.754,2224.172166
1 Dec 2019 19:06:22.000,216.350,0.818,2217.329685
1 Dec 2019 19:06:23.000,216.320,0.882,2210.487927
1 Dec 2019 19:06:24.000,216.290,0.947,2203.646914
1 Dec 2019 19:06:25.000,216.259,1.012,2196.806656
1 Dec 2019 19:06:26.000,216.229,1.077,2189.967171
1 Dec 2019 19:06:27.000,216.198,1.142,2183.128471
1 Dec 2019 19:06:28.000,216.167,1.207,2176.290575
1 Dec 2019 19:06:29.000,216.136,1.273,2169.453499
1 Dec 2019 19:06:30.000,216.104,1.339,2162.617255
1 Dec 2019 19:06:31.000,216.072,1.405,2155.781863
1 Dec 2019 19:06:32.000,216.040,1.471,2148.947339
1 Dec 2019 19:06:33.000,216.008,1.538,2142.113699
1 Dec 2019 19:06:34.000,215.976,1.605,2135.280957
1 Dec 2019 19:06:35.000,215.943,1.672,2128.449134
1 Dec 2019 19:06:36.000,215.911,1.739,2121.618246
1 Dec 2019 19:06:37.000,215.878,1.806,2114.788307
1 Dec 2019 19:06:38.000,215.844,1.874,2107.959339
1 Dec 2019 19:06:39.000,215.811,1.942,2101.131358
1 Dec 2019 19:06:40.000,215.777,2.010,2094.304382
1 Dec 2019 19:06:41.000,215.743,2.078,2087.478425
1 Dec 2019 19:06:42.000,215.709,2.147,2080.653512
1 Dec 2019 19:06:43.000,215.675,2.216,2073.829658
1 Dec 2019 19:06:44.000,215.640,2.285,2067.006883
1 Dec 2019 19:06:45.000,215.605,2.354,2060.185202
1 Dec 2019 19:06:46.000,215.570,2.424,2053.364639
1 Dec 2019 19:06:47.000,215.535,2.494,2046.545211
1 Dec 2019 19:06:48.000,215.499,2.564,2039.726937
1 Dec 2019 19:06:49.000,215.463,2.634,2032.909839
1 Dec 2019 19:06:50.000,215.427,2.705,2026.093937
1 Dec 2019 19:06:51.000,215.391,2.775,2019.279249
1 Dec 2019 19:06:52.000,215.354,2.847,2012.465795
1 Dec 2019 19:06:53.000,215.317,2.918,2005.653599
1 Dec 2019 19:06:54.000,215.280,2.990,1998.842681
1 Dec 2019 19:06:55.000,215.242,3.062,1992.033060
1 Dec 2019 19:06:56.000,215.205,3.134,1985.224761
1 Dec 2019 19:06:57.000,215.167,3.206,1978.417804
1 Dec 2019 19:06:58.000,215.128,3.279,1971.612212
1 Dec 2019 19:06:59.000,215.090,3.352,1964.808003
1 Dec 2019 19:07:00.000,215.051,3.425,1958.005206
1 Dec 2019 19:07:01.000,215.012,3.499,1951.203842
1 Dec 2019 19:07:02.000,214.972,3.573,1944.403932
1 Dec 2019 19:07:03.000,214.932,3.647,1937.605499
1 Dec 2019 19:07:04.000,214.892,3.722,1930.808571
1 Dec 2019 19:07:05.000,214.852,3.797,1924.013169
1 Dec 2019 19:07:06.000,214.811,3.872,1917.219319
1 Dec 2019 19:07:07.000,214.770,3.947,1910.427042
1 Dec 2019 19:07:08.000,214.729,4.023,1903.636368
1 Dec 2019 19:07:09.000,214.687,4.099,1896.847320
1 Dec 2019 19:07:10.000,214.646,4.175,1890.059922
1 Dec 2019 19:07:11.000,214.603,4.252,1883.274204
1 Dec 2019 19:07:12.000,214.561,4.329,1876.490190
1 Dec 2019 19:07:13.000,214.518,4.406,1869.707907
1 Dec 2019 19:07:14.000,214.475,4.484,1862.927380
1 Dec 2019 19:07:15.000,214.431,4.562,1856.148640
1 Dec 2019 19:07:16.000,214.387,4.640,1849.371713
1 Dec 2019 19:07:17.000,214.343,4.719,1842.596627
1 Dec 2019 19:07:18.000,214.298,4.798,1835.823410
1 Dec 2019 19:07:19.000,214.253,4.877,1829.052093
1 Dec 2019 19:07:20.000,214.208,4.957,1822.282704
1 Dec 2019 19:07:21.000,214.162,5.037,1815.515272
1 Dec 2019 19:07:22.000,214.116,5.117,1808.749827
1 Dec 2019 19:07:23.000,214.070,5.198,1801.986401
1 Dec 2019 19:07:24.000,214.023,5.279,1795.225025
1 Dec 2019 19:07:25.000,213.976,5.361,1788.465730
1 Dec 2019 19:07:26.000,213.928,5.442,1781.708545
1 Dec 2019 19:07:27.000,213.880,5.525,1774.953507
1 Dec 2019 19:07:28.000,213.832,5.607,1768.200646
1 Dec 2019 19:07:29.000,213.783,5.690,1761.449995
1 Dec 2019 19:07:30.000,213.734,5.774,1754.701587
1 Dec 2019 19:07:31.000,213.684,5.857,1747.955459
1 Dec 2019 19:07:32.000,213.634,5.942,1741.211643
1 Dec 2019 19:07:33.000,213.584,6.026,1734.470176
1 Dec 2019 19:07:34.000,213.533,6.111,1727.731090
1 Dec 2019 19:07:35.000,213.482,6.197,1720.994425
1 Dec 2019 19:07:36.000,213.430,6.282,1714.260217
1 Dec 2019 19:07:37.000,213.378,6.369,1707.528502
1 Dec 2019 19:07:38.000,213.326,6.455,1700.799316
1 Dec 2019 19:07:39.000,213.272,6.542,1694.072701
1 Dec 2019 19:07:40.000,213.219,6.630,1687.348695
1 Dec 2019 19:07:41.000,213.165,6.718,1680.627335
1 Dec 2019 19:07:42.000,213.111,6.806,1673.908661
1 Dec 2019 19:07:43.000,213.056,6.895,1667.192718
1 Dec 2019 19:07:44.000,213.000,6.984,1660.479543
1 Dec 2019 19:07:45.000,212.945,7.074,1653.769179
1 Dec 2019 19:07:46.000,212.888,7.164,1647.061667
1 Dec 2019 19:07:47.000,212.831,7.255,1640.357052
1 Dec 2019 19:07:48.000,212.774,7.346,1633.655378
1 Dec 2019 19:07:49.000,212.716,7.438,1626.956689
1 Dec 2019 19:07:50.000,212.658,7.530,1620.261027
1 Dec 2019 19:07:51.000,212.599,7.623,1613.568442
1 Dec 2019 19:07:52.000,212.539,7.716,1606.878979
1 Dec 2019 19:07:53.000,212.479,7.809,1600.192685
1 Dec 2019 19:07:54.000,212.419,7.904,1593.509608
1 Dec 2019 19:07:55.000,212.358,7.998,1586.829795
1 Dec 2019 19:07:56.000,212.296,8.093,1580.153298
1 Dec 2019 19:07:57.000,212.234,8.189,1573.480167
1 Dec 2019 19:07:58.000,212.171,8.285,1566.810452
1 Dec 2019 19:07:59.000,212.108,8.382,1560.144203
1 Dec 2019 19:08:00.000,212.044,8.479,1553.481476
1 Dec 2019 19:08:01.000,211.979,8.577,1546.822324
1 Dec 2019 19:08:02.000,211.914,8.675,1540.166800
1 Dec 2019 19:08:03.000,211.848,8.774,1533.514960
1 Dec 2019 19:08:04.000,211.782,8.874,1526.866858
1 Dec 2019 19:08:05.000,211.715,8.974,1520.222555
1 Dec 2019 19:08:06.000,211.647,9.075,1513.582107
1 Dec 2019 19:08:07.000,211.579,9.176,1506.945573
1 Dec 2019 19:08:08.000,211.510,9.278,1500.313010
1 Dec 2019 19:08:09.000,211.440,9.380,1493.684484
1 Dec 2019 19:08:10.000,211.370,9.483,1487.060055
1 Dec 2019 19:08:11.000,211.299,9.587,1480.439785
1 Dec 2019 19:08:12.000,211.227,9.692,1473.823739
1 Dec 2019 19:08:13.000,211.154,9.796,1467.211980
1 Dec 2019 19:08:14.000,211.081,9.902,1460.604577
1 Dec 2019 19:08:15.000,211.007,10.008,1454.001597
1 Dec 2019 19:08:16.000,210.932,10.115,1447.403107
1 Dec 2019 19:08:17.000,210.857,10.223,1440.809177
1 Dec 2019 19:08:18.000,210.781,10.331,1434.219876
1 Dec 2019 19:08:19.000,210.704,10.440,1427.635281
1 Dec 2019 19:08:20.000,210.626,10.550,1421.055461
1 Dec 2019 19:08:21.000,210.548,10.660,1414.480493
1 Dec 2019 19:08:22.000,210.468,10.771,1407.910451
1 Dec 2019 19:08:23.000,210.388,10.883,1401.345411
1 Dec 2019 19:08:24.000,210.307,10.995,1394.785456
1 Dec 2019 19:08:25.000,210.225,11.108,1388.230663
1 Dec 2019 19:08:26.000,210.142,11.222,1381.681113
1 Dec 2019 19:08:27.000,210.059,11.337,1375.136891
1 Dec 2019 19:08:28.000,209.974,11.453,1368.598077
1 Dec 2019 19:08:29.000,209.889,11.569,1362.064762
1 Dec 2019 19:08:30.000,209.803,11.686,1355.537030
1 Dec 2019 19:08:31.000,209.715,11.804,1349.014971
1 Dec 2019 19:08:32.000,209.627,11.922,1342.498676
1 Dec 2019 19:08:33.000,209.538,12.042,1335.988236
1 Dec 2019 19:08:34.000,209.448,12.162,1329.483743
1 Dec 2019 19:08:35.000,209.357,12.283,1322.985298
1 Dec 2019 19:08:36.000,209.265,12.405,1316.492994
1 Dec 2019 19:08:37.000,209.172,12.528,1310.006932
1 Dec 2019 19:08:38.000,209.077,12.651,1303.527212
1 Dec 2019 19:08:39.000,208.982,12.776,1297.053937
1 Dec 2019 19:08:40.000,208.886,12.901,1290.587210
1 Dec 2019 19:08:41.000,208.789,13.027,1284.127141
1 Dec 2019 19:08:42.000,208.690,13.155,1277.673838
1 Dec 2019 19:08:43.000,208.590,13.283,1271.227410
1 Dec 2019 19:08:44.000,208.490,13.412,1264.787972
1 Dec 2019 19:08:45.000,208.388,13.542,1258.355637
1 Dec 2019 19:08:46.000,208.285,13.673,1251.930524
1 Dec 2019 19:08:47.000,208.180,13.805,1245.512750
1 Dec 2019 19:08:48.000,208.075,13.937,1239.102440
1 Dec 2019 19:08:49.000,207.968,14.071,1232.699716
1 Dec 2019 19:08:50.000,207.860,14.206,1226.304705
1 Dec 2019 19:08:51.000,207.751,14.342,1219.917537
1 Dec 2019 19:08:52.000,207.640,14.479,1213.538342
1 Dec 2019 19:08:53.000,207.528,14.617,1207.167254
1 Dec 2019 19:08:54.000,207.415,14.756,1200.804409
1 Dec 2019 19:08:55.000,207.300,14.896,1194.449950
1 Dec 2019 19:08:56.000,207.184,15.037,1188.104016
1 Dec 2019 19:08:57.000,207.066,15.180,1181.766753
1 Dec 2019 19:08:58.000,206.947,15.323,1175.438308
1 Dec 2019 19:08:59.000,206.827,15.467,1169.118833
1 Dec 2019 19:09:00.000,206.705,15.613,1162.808482
1 Dec 2019 19:09:01.000,206.581,15.760,1156.507410
1 Dec 2019 19:09:02.000,206.456,15.908,1150.215779
1 Dec 2019 19:09:03.000,206.330,16.057,1143.933751
1 Dec 2019 19:09:04.000,206.201,16.208,1137.661492
1 Dec 2019 19:09:05.000,206.071,16.359,1131.399175
1 Dec 2019 19:09:06.000,205.940,16.512,1125.146971
1 Dec 2019 19:09:07.000,205.807,16.666,1118.905059
1 Dec 2019 19:09:08.000,205.672,16.821,1112.673617
1 Dec 2019 19:09:09.000,205.535,16.978,1106.452832
1 Dec 2019 19:09:10.000,205.396,17.136,1100.242890
1 Dec 2019 19:09:11.000,205.256,17.295,1094.043985
1 Dec 2019 19:09:12.000,205.113,17.456,1087.856312
1 Dec 2019 19:09:13.000,204.969,17.618,1081.680071
1 Dec 2019 19:09:14.000,204.823,17.781,1075.515467
1 Dec 2019 19:09:15.000,204.675,17.946,1069.362709
1 Dec 2019 19:09:16.000,204.525,18.112,1063.222009
1 Dec 2019 19:09:17.000,204.372,18.279,1057.093585
1 Dec 2019 19:09:18.000,204.218,18.448,1050.977658
1 Dec 2019 19:09:19.000,204.061,18.619,1044.874457
1 Dec 2019 19:09:20.000,203.903,18.790,1038.784213
1 Dec 2019 19:09:21.000,203.742,18.964,1032.707162
1 Dec 2019 19:09:22.000,203.579,19.138,1026.643545
1 Dec 2019 19:09:23.000,203.413,19.315,1020.593610
1 Dec 2019 19:09:24.000,203.245,19.493,1014.557609
1 Dec 2019 19:09:25.000,203.075,19.672,1008.535798
1 Dec 2019 19:09:26.000,202.902,19.853,1002.528440
1 Dec 2019 19:09:27.000,202.727,20.036,996.535806
1 Dec 2019 19:09:28.000,202.549,20.220,990.558167
1 Dec 2019 19:09:29.000,202.369,20.406,984.595806
1 Dec 2019 19:09:30.000,202.186,20.594,978.649009
1 Dec 2019 19:09:31.000,202.000,20.783,972.718067
1 Dec 2019 19:09:32.000,201.811,20.974,966.803280
1 Dec 2019 19:09:33.000,201.620,21.166,960.904954
1 Dec 2019 19:09:34.000,201.425,21.361,955.023400
1 Dec 2019 19:09:35.000,201.228,21.557,949.158937
1 Dec 2019 19:09:36.000,201.028,21.754,943.311893
1 Dec 2019 19:09:37.000,200.824,21.954,937.482597
1 Dec 2019 19:09:38.000,200.618,22.156,931.671392
1 Dec 2019 19:09:39.000,200.408,22.359,925.878624
1 Dec 2019 19:09:40.000,200.195,22.564,920.104649
1 Dec 2019 19:09:41.000,199.978,22.771,914.349830
1 Dec 2019 19:09:42.000,199.758,22.980,908.614538
1 Dec 2019 19:09:43.000,199.535,23.190,902.899151
1 Dec 2019 19:09:44.000,199.308,23.403,897.204058
1 Dec 2019 19:09:45.000,199.077,23.618,891.529653
1 Dec 2019 19:09:46.000,198.843,23.834,885.876341
1 Dec 2019 19:09:47.000,198.605,24.052,880.244536
1 Dec 2019 19:09:48.000,198.362,24.273,874.634660
1 Dec 2019 19:09:49.000,198.116,24.495,869.047142
1 Dec 2019 19:09:50.000,197.866,24.720,863.482426
1 Dec 2019 19:09:51.000,197.611,24.946,857.940960
1 Dec 2019 19:09:52.000,197.352,25.174,852.423206
1 Dec 2019 19:09:53.000,197.089,25.405,846.929632
1 Dec 2019 19:09:54.000,196.821,25.637,841.460720
1 Dec 2019 19:09:55.000,196.549,25.872,836.016961
1 Dec 2019 19:09:56.000,196.272,26.109,830.598853
1 Dec 2019 19:09:57.000,195.990,26.347,825.206910
1 Dec 2019 19:09:58.000,195.704,26.588,819.841655
1 Dec 2019 19:09:59.000,195.412,26.831,814.503620
1 Dec 2019 19:10:00.000,195.115,27.076,809.193353
1 Dec 2019 19:10:01.000,194.813,27.323,803.911408
1 Dec 2019 19:10:02.000,194.505,27.572,798.658354
1 Dec 2019 19:10:03.000,194.192,27.824,793.434772
1 Dec 2019 19:10:04.000,193.873,28.077,788.241253
1 Dec 2019 19:10:05.000,193.548,28.333,783.078402
1 Dec 2019 19:10:06.000,193.218,28.590,777.946835
1 Dec 2019 19:10:07.000,192.881,28.850,772.847183
1 Dec 2019 19:10:08.000,192.539,29.112,767.780086
1 Dec 2019 19:10:09.000,192.189,29.376,762.746200
1 Dec 2019 19:10:10.000,191.834,29.641,757.746193
1 Dec 2019 19:10:11.000,191.471,29.909,752.780746
1 Dec 2019 19:10:12.000,191.102,30.179,747.850553
1 Dec 2019 19:10:13.000,190.726,30.451,742.956322
1 Dec 2019 19:10:14.000,190.343,30.725,738.098774
1 Dec 2019 19:10:15.000,189.952,31.001,733.278644
1 Dec 2019 19:10:16.000,189.554,31.279,728.496681
1 Dec 2019 19:10:17.000,189.148,31.558,723.753646
1 Dec 2019 19:10:18.000,188.735,31.840,719.050316
1 Dec 2019 19:10:19.000,188.313,32.123,714.387480
1 Dec 2019 19:10:20.000,187.883,32.408,709.765943
1 Dec 2019 19:10:21.000,187.445,32.695,705.186522
1 Dec 2019 19:10:22.000,186.998,32.983,700.650047
1 Dec 2019 19:10:23.000,186.542,33.273,696.157365
1 Dec 2019 19:10:24.000,186.077,33.564,691.709334
1 Dec 2019 19:10:25.000,185.603,33.857,687.306825
1 Dec 2019 19:10:26.000,185.120,34.151,682.950725
1 Dec 2019 19:10:27.000,184.627,34.446,678.641933
1 Dec 2019 19:10:28.000,184.124,34.743,674.381360
1 Dec 2019 19:10:29.000,183.611,35.040,670.169931
1 Dec 2019 19:10:30.000,183.087,35.339,666.008584
1 Dec 2019 19:10:31.000,182.553,35.638,661.898267
1 Dec 2019 19:10:32.000,182.009,35.939,657.839943
1 Dec 2019 19:10:33.000,181.453,36.240,653.834585
1 Dec 2019 19:10:34.000,180.886,36.541,649.883176
1 Dec 2019 19:10:35.000,180.308,36.842,645.986712
1 Dec 2019 19:10:36.000,179.718,37.144,642.146196
1 Dec 2019 19:10:37.000,179.117,37.446,638.362645
1 Dec 2019 19:10:38.000,178.503,37.748,634.637080
1 Dec 2019 19:10:39.000,177.877,38.050,630.970534
1 Dec 2019 19:10:40.000,177.238,38.351,627.364045
1 Dec 2019 19:10:41.000,176.587,38.651,623.818660
1 Dec 2019 19:10:42.000,175.922,38.950,620.335431
1 Dec 2019 19:10:43.000,175.245,39.249,616.915414
1 Dec 2019 19:10:44.000,174.554,39.546,613.559671
1 Dec 2019 19:10:45.000,173.849,39.841,610.269266
1 Dec 2019 19:10:46.000,173.131,40.135,607.045265
1 Dec 2019 19:10:47.000,172.399,40.427,603.888736
1 Dec 2019 19:10:48.000,171.652,40.716,600.800746
1 Dec 2019 19:10:49.000,170.892,41.003,597.782360
1 Dec 2019 19:10:50.000,170.117,41.287,594.834643
1 Dec 2019 19:10:51.000,169.328,41.568,591.958653
1 Dec 2019 19:10:52.000,168.524,41.846,589.155445
1 Dec 2019 19:10:53.000,167.705,42.120,586.426064
1 Dec 2019 19:10:54.000,166.872,42.390,583.771550
1 Dec 2019 19:10:55.000,166.024,42.655,581.192933
1 Dec 2019 19:10:56.000,165.161,42.916,578.691229
1 Dec 2019 19:10:57.000,164.284,43.172,576.267443
1 Dec 2019 19:10:58.000,163.392,43.423,573.922566
1 Dec 2019 19:10:59.000,162.485,43.668,571.657571
1 Dec 2019 19:11:00.000,161.564,43.907,569.473414
1 Dec 2019 19:11:01.000,160.628,44.139,567.371032
1 Dec 2019 19:11:02.000,159.678,44.365,565.351338
1 Dec 2019 19:11:03.000,158.714,44.584,563.415226
1 Dec 2019 19:11:04.000,157.736,44.796,561.563560
1 Dec 2019 19:11:05.000,156.745,45.000,559.797183
1 Dec 2019 19:11:06.000,155.741,45.196,558.116906
1 Dec 2019 19:11:07.000,154.724,45.383,556.523509
1 Dec 2019 19:11:08.000,153.694,45.562,555.017746
1 Dec 2019 19:11:09.000,152.653,45.732,553.600329
1 Dec 2019 19:11:10.000,151.600,45.892,552.271945
1 Dec 2019 19:11:11.000,150.537,46.043,551.033235
1 Dec 2019 19:11:12.000,149.463,46.184,549.884810
1 Dec 2019 19:11:13.000,148.379,46.314,548.827236
1 Dec 2019 19:11:14.000,147.287,46.434,547.861041
1 Dec 2019 19:11:15.000,146.186,46.544,546.986711
1 Dec 2019 19:11:16.000,145.077,46.643,546.204687
1 Dec 2019 19:11:17.000,143.962,46.730,545.515367
1 Dec 2019 19:11:18.000,142.841,46.806,544.919105
1 Dec 2019 19:11:19.000,141.714,46.871,544.416207
1 Dec 2019 19:11:20.000,140.583,46.924,544.006933
1 Dec 2019 19:11:21.000,139.448,46.966,543.691493
1 Dec 2019 19:11:22.000,138.311,46.995,543.470052
1 Dec 2019 19:11:23.000,137.172,47.013,543.342725
1 Dec 2019 19:11:24.000,136.033,47.019,543.309578
1 Dec 2019 19:11:25.000,134.893,47.013,543.370629
1 Dec 2019 19:11:26.000,133.754,46.995,543.525847
1 Dec 2019 19:11:27.000,132.617,46.966,543.775149
1 Dec 2019 19:11:28.000,131.483,46.924,544.118407
1 Dec 2019 19:11:29.000,130.353,46.871,544.555442
1 Dec 2019 19:11:30.000,129.227,46.806,545.086027
1 Dec 2019 19:11:31.000,128.106,46.730,545.709892
1 Dec 2019 19:11:32.000,126.992,46.643,546.426714
1 Dec 2019 19:11:33.000,125.884,46.544,547.236127
1 Dec 2019 19:11:34.000,124.784,46.435,548.137719
1 Dec 2019 19:11:35.000,123.693,46.315,549.131039
1 Dec 2019 19:11:36.000,122.611,46.184,550.215585
1 Dec 2019 19:11:37.000,121.538,46.044,551.390817
1 Dec 2019 19:11:38.000,120.476,45.893,552.656159
1 Dec 2019 19:11:39.000,119.425,45.733,554.010990
1 Dec 2019 19:11:40.000,118.385,45.563,555.454651
1 Dec 2019 19:11:41.000,117.357,45.385,556.986454
1 Dec 2019 19:11:42.000,116.342,45.198,558.605668
1 Dec 2019 19:11:43.000,115.339,45.003,560.311537
1 Dec 2019 19:11:44.000,114.350,44.799,562.103266
1 Dec 2019 19:11:45.000,113.374,44.588,563.980037
1 Dec 2019 19:11:46.000,112.412,44.370,565.941004
1 Dec 2019 19:11:47.000,111.464,44.144,567.985288
1 Dec 2019 19:11:48.000,110.530,43.912,570.111991
1 Dec 2019 19:11:49.000,109.610,43.674,572.320197
1 Dec 2019 19:11:50.000,108.705,43.430,574.608957
1 Dec 2019 19:11:51.000,107.815,43.180,576.977312
1 Dec 2019 19:11:52.000,106.940,42.925,579.424284
1 Dec 2019 19:11:53.000,106.079,42.665,581.948878
1 Dec 2019 19:11:54.000,105.233,42.400,584.550087
1 Dec 2019 19:11:55.000,104.402,42.131,587.226886
1 Dec 2019 19:11:56.000,103.585,41.859,589.978245
1 Dec 2019 19:11:57.000,102.783,41.582,592.803122
1 Dec 2019 19:11:58.000,101.996,41.302,595.700469
1 Dec 2019 19:11:59.000,101.223,41.019,598.669229
1 Dec 2019 19:12:00.000,100.464,40.733,601.708342
1 Dec 2019 19:12:01.000,99.720,40.445,604.816744
1 Dec 2019 19:12:02.000,98.990,40.154,607.993368
1 Dec 2019 19:12:03.000,98.273,39.862,611.237147
1 Dec 2019 19:12:04.000,97.571,39.567,614.547014
1 Dec 2019 19:12:05.000,96.882,39.272,617.921902
1 Dec 2019 19:12:06.000,96.206,38.975,621.360746
1 Dec 2019 19:12:07.000,95.543,38.676,624.862491
1 Dec 2019 19:12:08.000,94.894,38.377,628.426078
1 Dec 2019 19:12:09.000,94.257,38.078,632.050457
1 Dec 2019 19:12:10.000,93.632,37.777,635.734585
1 Dec 2019 19:12:11.000,93.020,37.477,639.477421
1 Dec 2019 19:12:12.000,92.420,37.176,643.277941
1 Dec 2019 19:12:13.000,91.832,36.876,647.135122
1 Dec 2019 19:12:14.000,91.255,36.576,651.047953
1 Dec 2019 19:12:15.000,90.690,36.276,655.015428
1 Dec 2019 19:12:16.000,90.136,35.976,659.036562
1 Dec 2019 19:12:17.000,89.593,35.677,663.110370
1 Dec 2019 19:12:18.000,89.061,35.379,667.235881
1 Dec 2019 19:12:19.000,88.539,35.082,671.412141
1 Dec 2019 19:12:20.000,88.027,34.786,675.638200
1 Dec 2019 19:12:21.000,87.526,34.490,679.913129
1 Dec 2019 19:12:22.000,87.034,34.196,684.236004
1 Dec 2019 19:12:23.000,86.552,33.904,688.605914
1 Dec 2019 19:12:24.000,86.080,33.612,693.021971
1 Dec 2019 19:12:25.000,85.616,33.322,697.483286
1 Dec 2019 19:12:26.000,85.162,33.034,701.988997
1 Dec 2019 19:12:27.000,84.716,32.747,706.538243
1 Dec 2019 19:12:28.000,84.279,32.462,711.130190
1 Dec 2019 19:12:29.000,83.850,32.178,715.764005
1 Dec 2019 19:12:30.000,83.430,31.896,720.438879
1 Dec 2019 19:12:31.000,83.018,31.616,725.154007
1 Dec 2019 19:12:32.000,82.613,31.338,729.908606
1 Dec 2019 19:12:33.000,82.216,31.061,734.701908
1 Dec 2019 19:12:34.000,81.827,30.787,739.533148
1 Dec 2019 19:12:35.000,81.445,30.514,744.401588
1 Dec 2019 19:12:36.000,81.070,30.243,749.306491
1 Dec 2019 19:12:37.000,80.702,29.975,754.247142
1 Dec 2019 19:12:38.000,80.340,29.708,759.222841
1 Dec 2019 19:12:39.000,79.986,29.443,764.232891
1 Dec 2019 19:12:40.000,79.638,29.181,769.276619
1 Dec 2019 19:12:41.000,79.296,28.920,774.353363
1 Dec 2019 19:12:42.000,78.960,28.662,779.462465
1 Dec 2019 19:12:43.000,78.631,28.405,784.603291
1 Dec 2019 19:12:44.000,78.307,28.151,789.775219
1 Dec 2019 19:12:45.000,77.990,27.898,794.977628
1 Dec 2019 19:12:46.000,77.677,27.648,800.209922
1 Dec 2019 19:12:47.000,77.371,27.400,805.471511
1 Dec 2019 19:12:48.000,77.070,27.154,810.761822
1 Dec 2019 19:12:49.000,76.774,26.910,816.080284
1 Dec 2019 19:12:50.000,76.483,26.668,821.426347
1 Dec 2019 19:12:51.000,76.197,26.429,826.799469
1 Dec 2019 19:12:52.000,75.916,26.191,832.199120
1 Dec 2019 19:12:53.000,75.640,25.955,837.624783
1 Dec 2019 19:12:54.000,75.369,25.722,843.075944
1 Dec 2019 19:12:55.000,75.102,25.490,848.552107
1 Dec 2019 19:12:56.000,74.839,25.261,854.052785
1 Dec 2019 19:12:57.000,74.581,25.033,859.577501
1 Dec 2019 19:12:58.000,74.328,24.808,865.125788
1 Dec 2019 19:12:59.000,74.078,24.585,870.697192
1 Dec 2019 19:13:00.000,73.833,24.363,876.291259
1 Dec 2019 19:13:01.000,73.591,24.144,881.907554
1 Dec 2019 19:13:02.000,73.354,23.926,887.545649
1 Dec 2019 19:13:03.000,73.120,23.711,893.205123
1 Dec 2019 19:13:04.000,72.890,23.497,898.885567
1 Dec 2019 19:13:05.000,72.664,23.285,904.586578
1 Dec 2019 19:13:06.000,72.442,23.075,910.307764
1 Dec 2019 19:13:07.000,72.223,22.867,916.048742
1 Dec 2019 19:13:08.000,72.007,22.661,921.809131
1 Dec 2019 19:13:09.000,71.794,22.457,927.588564
1 Dec 2019 19:13:10.000,71.585,22.255,933.386680
1 Dec 2019 19:13:11.000,71.380,22.054,939.203128
1 Dec 2019 19:13:12.000,71.177,21.855,945.037561
1 Dec 2019 19:13:13.000,70.977,21.658,950.889641
1 Dec 2019 19:13:14.000,70.781,21.463,956.759038
1 Dec 2019 19:13:15.000,70.587,21.269,962.645428
1 Dec 2019 19:13:16.000,70.397,21.077,968.548495
1 Dec 2019 19:13:17.000,70.209,20.887,974.467927
1 Dec 2019 19:13:18.000,70.024,20.699,980.403422
1 Dec 2019 19:13:19.000,69.841,20.512,986.354682
1 Dec 2019 19:13:20.000,69.662,20.327,992.321417
1 Dec 2019 19:13:21.000,69.484,20.143,998.303343
1 Dec 2019 19:13:22.000,69.310,19.961,1004.300180
1 Dec 2019 19:13:23.000,69.138,19.781,1010.311656
1 Dec 2019 19:13:24.000,68.968,19.602,1016.337504
1 Dec 2019 19:13:25.000,68.801,19.425,1022.377463
1 Dec 2019 19:13:26.000,68.636,19.249,1028.431277
1 Dec 2019 19:13:27.000,68.474,19.075,1034.498695
1 Dec 2019 19:13:28.000,68.314,18.902,1040.579473
1 Dec 2019 19:13:29.000,68.156,18.731,1046.673370
1 Dec 2019 19:13:30.000,68.000,18.561,1052.780151
1 Dec 2019 19:13:31.000,67.846,18.393,1058.899586
1 Dec 2019 19:13:32.000,67.695,18.226,1065.031450
1 Dec 2019 19:13:33.000,67.545,18.061,1071.175522
1 Dec 2019 19:13:34.000,67.398,17.897,1077.331585
1 Dec 2019 19:13:35.000,67.252,17.734,1083.499429
1 Dec 2019 19:13:36.000,67.109,17.573,1089.678845
1 Dec 2019 19:13:37.000,66.967,17.413,1095.869630
1 Dec 2019 19:13:38.000,66.827,17.254,1102.071586
1 Dec 2019 19:13:39.000,66.690,17.097,1108.284515
1 Dec 2019 19:13:40.000,66.553,16.941,1114.508231
1 Dec 2019 19:13:41.000,66.419,16.786,1120.742545
1 Dec 2019 19:13:42.000,66.286,16.632,1126.987273
1 Dec 2019 19:13:43.000,66.156,16.480,1133.242236
1 Dec 2019 19:13:44.000,66.026,16.329,1139.507258
1 Dec 2019 19:13:45.000,65.899,16.179,1145.782166
1 Dec 2019 19:13:46.000,65.773,16.030,1152.066791
1 Dec 2019 19:13:47.000,65.648,15.883,1158.360968
1 Dec 2019 19:13:48.000,65.526,15.736,1164.664534
1 Dec 2019 19:13:49.000,65.404,15.591,1170.977331
1 Dec 2019 19:13:50.000,65.285,15.447,1177.299198
1 Dec 2019 19:13:51.000,65.166,15.304,1183.629990
1 Dec 2019 19:13:52.000,65.049,15.162,1189.969553
1 Dec 2019 19:13:53.000,64.934,15.022,1196.317741
1 Dec 2019 19:13:54.000,64.820,14.882,1202.674408
1 Dec 2019 19:13:55.000,64.707,14.743,1209.039415
1 Dec 2019 19:13:56.000,64.596,14.606,1215.412622
1 Dec 2019 19:13:57.000,64.486,14.469,1221.793894
1 Dec 2019 19:13:58.000,64.377,14.334,1228.183096
1 Dec 2019 19:13:59.000,64.270,14.199,1234.580096
1 Dec 2019 19:14:00.000,64.164,14.066,1240.984772
1 Dec 2019 19:14:01.000,64.059,13.933,1247.396993
1 Dec 2019 19:14:02.000,63.956,13.802,1253.816638
1 Dec 2019 19:14:03.000,63.853,13.671,1260.243584
1 Dec 2019 19:14:04.000,63.752,13.542,1266.677714
1 Dec 2019 19:14:05.000,63.652,13.413,1273.118910
1 Dec 2019 19:14:06.000,63.553,13.285,1279.567056
1 Dec 2019 19:14:07.000,63.455,13.158,1286.022044
1 Dec 2019 19:14:08.000,63.358,13.033,1292.483762
1 Dec 2019 19:14:09.000,63.263,12.908,1298.952102
1 Dec 2019 19:14:10.000,63.168,12.783,1305.426957
1 Dec 2019 19:14:11.000,63.075,12.660,1311.908224
1 Dec 2019 19:14:12.000,62.982,12.538,1318.395797
1 Dec 2019 19:14:13.000,62.891,12.416,1324.889581
1 Dec 2019 19:14:14.000,62.801,12.295,1331.389476
1 Dec 2019 19:14:15.000,62.711,12.176,1337.895384
1 Dec 2019 19:14:16.000,62.623,12.056,1344.407211
1 Dec 2019 19:14:17.000,62.535,11.938,1350.924862
1 Dec 2019 19:14:18.000,62.449,11.821,1357.448244
1 Dec 2019 19:14:19.000,62.363,11.704,1363.977272
1 Dec 2019 19:14:20.000,62.279,11.588,1370.511855
1 Dec 2019 19:14:21.000,62.195,11.473,1377.051906
1 Dec 2019 19:14:22.000,62.112,11.359,1383.597340
1 Dec 2019 19:14:23.000,62.030,11.245,1390.148072
1 Dec 2019 19:14:24.000,61.949,11.132,1396.704019
1 Dec 2019 19:14:25.000,61.868,11.020,1403.265104
1 Dec 2019 19:14:26.000,61.789,10.908,1409.831245
1 Dec 2019 19:14:27.000,61.710,10.798,1416.402364
1 Dec 2019 19:14:28.000,61.633,10.688,1422.978385
1 Dec 2019 19:14:29.000,61.556,10.578,1429.559228
1 Dec 2019 19:14:30.000,61.479,10.470,1436.144826
1 Dec 2019 19:14:31.000,61.404,10.362,1442.735103
1 Dec 2019 19:14:32.000,61.329,10.254,1449.329986
1 Dec 2019 19:14:33.000,61.255,10.148,1455.929407
1 Dec 2019 19:14:34.000,61.182,10.042,1462.533292
1 Dec 2019 19:14:35.000,61.110,9.936,1469.141579
1 Dec 2019 19:14:36.000,61.038,9.832,1475.754198
1 Dec 2019 19:14:37.000,60.967,9.727,1482.371084
1 Dec 2019 19:14:38.000,60.897,9.624,1488.992172
1 Dec 2019 19:14:39.000,60.827,9.521,1495.617395
1 Dec 2019 19:14:40.000,60.758,9.419,1502.246696
1 Dec 2019 19:14:41.000,60.690,9.317,1508.880012
1 Dec 2019 19:14:42.000,60.622,9.216,1515.517280
1 Dec 2019 19:14:43.000,60.555,9.116,1522.158439
1 Dec 2019 19:14:44.000,60.489,9.016,1528.803436
1 Dec 2019 19:14:45.000,60.423,8.917,1535.452211
1 Dec 2019 19:14:46.000,60.358,8.818,1542.104706
1 Dec 2019 19:14:47.000,60.294,8.720,1548.760866
1 Dec 2019 19:14:48.000,60.230,8.622,1555.420632
1 Dec 2019 19:14:49.000,60.167,8.525,1562.083957
1 Dec 2019 19:14:50.000,60.104,8.428,1568.750785
1 Dec 2019 19:14:51.000,60.042,8.332,1575.421063
1 Dec 2019 19:14:52.000,59.981,8.237,1582.094739
1 Dec 2019 19:14:53.000,59.920,8.142,1588.771760
1 Dec 2019 19:14:54.000,59.860,8.048,1595.452082
1 Dec 2019 19:14:55.000,59.800,7.954,1602.135652
1 Dec 2019 19:14:56.000,59.741,7.860,1608.822422
1 Dec 2019 19:14:57.000,59.682,7.767,1615.512342
1 Dec 2019 19:14:58.000,59.624,7.675,1622.205371
1 Dec 2019 19:14:59.000,59.566,7.583,1628.901458
1 Dec 2019 19:15:00.000,59.509,7.492,1635.600560
1 Dec 2019 19:15:01.000,59.453,7.401,1642.302627
1 Dec 2019 19:15:02.000,59.397,7.310,1649.007622
1 Dec 2019 19:15:03.000,59.341,7.220,1655.715498
1 Dec 2019 19:15:04.000,59.286,7.131,1662.426213
1 Dec 2019 19:15:05.000,59.232,7.041,1669.139721
1 Dec 2019 19:15:06.000,59.178,6.953,1675.855986
1 Dec 2019 19:15:07.000,59.124,6.865,1682.574965
1 Dec 2019 19:15:08.000,59.071,6.777,1689.296617
1 Dec 2019 19:15:09.000,59.018,6.689,1696.020903
1 Dec 2019 19:15:10.000,58.966,6.602,1702.747780
1 Dec 2019 19:15:11.000,58.914,6.516,1709.477216
1 Dec 2019 19:15:12.000,58.863,6.430,1716.209169
1 Dec 2019 19:15:13.000,58.812,6.344,1722.943603
1 Dec 2019 19:15:14.000,58.762,6.259,1729.680476
1 Dec 2019 19:15:15.000,58.712,6.174,1736.419759
1 Dec 2019 19:15:16.000,58.662,6.090,1743.161413
1 Dec 2019 19:15:17.000,58.613,6.006,1749.905402
1 Dec 2019 19:15:18.000,58.564,5.922,1756.651689
1 Dec 2019 19:15:19.000,58.516,5.839,1763.400245
1 Dec 2019 19:15:20.000,58.468,5.756,1770.151032
1 Dec 2019 19:15:21.000,58.421,5.674,1776.904019
1 Dec 2019 19:15:22.000,58.374,5.592,1783.659168
1 Dec 2019 19:15:23.000,58.327,5.510,1790.416453
1 Dec 2019 19:15:24.000,58.281,5.429,1797.175839
1 Dec 2019 19:15:25.000,58.235,5.348,1803.937294
1 Dec 2019 19:15:26.000,58.189,5.267,1810.700784
1 Dec 2019 19:15:27.000,58.144,5.187,1817.466285
1 Dec 2019 19:15:28.000,58.099,5.107,1824.233763
1 Dec 2019 19:15:29.000,58.055,5.027,1831.003184
1 Dec 2019 19:15:30.000,58.011,4.948,1837.774527
1 Dec 2019 19:15:31.000,57.967,4.869,1844.547757
1 Dec 2019 19:15:32.000,57.924,4.791,1851.322847
1 Dec 2019 19:15:33.000,57.881,4.713,1858.099765
1 Dec 2019 19:15:34.000,57.838,4.635,1864.878489
1 Dec 2019 19:15:35.000,57.796,4.557,1871.658988
1 Dec 2019 19:15:36.000,57.754,4.480,1878.441236
1 Dec 2019 19:15:37.000,57.712,4.403,1885.225202
1 Dec 2019 19:15:38.000,57.671,4.327,1892.010865
1 Dec 2019 19:15:39.000,57.630,4.250,1898.798197
1 Dec 2019 19:15:40.000,57.589,4.174,1905.587171
1 Dec 2019 19:15:41.000,57.549,4.099,1912.377760
1 Dec 2019 19:15:42.000,57.509,4.024,1919.169943
1 Dec 2019 19:15:43.000,57.469,3.949,1925.963693
1 Dec 2019 19:15:44.000,57.429,3.874,1932.758985
1 Dec 2019 19:15:45.000,57.390,3.800,1939.555792
1 Dec 2019 19:15:46.000,57.351,3.725,1946.354096
1 Dec 2019 19:15:47.000,57.313,3.652,1953.153870
1 Dec 2019 19:15:48.000,57.275,3.578,1959.955088
1 Dec 2019 19:15:49.000,57.237,3.505,1966.757733
1 Dec 2019 19:15:50.000,57.199,3.432,1973.561779
1 Dec 2019 19:15:51.000,57.162,3.359,1980.367204
1 Dec 2019 19:15:52.000,57.125,3.287,1987.173982
1 Dec 2019 19:15:53.000,57.088,3.215,1993.982097
1 Dec 2019 19:15:54.000,57.051,3.143,2000.791524
1 Dec 2019 19:15:55.000,57.015,3.072,2007.602243
1 Dec 2019 19:15:56.000,56.979,3.000,2014.414228
1 Dec 2019 19:15:57.000,56.944,2.929,2021.227466
1 Dec 2019 19:15:58.000,56.908,2.859,2028.041932
1 Dec 2019 19:15:59.000,56.873,2.788,2034.857605
1 Dec 2019 19:16:00.000,56.838,2.718,2041.674463
1 Dec 2019 19:16:01.000,56.803,2.648,2048.492492
1 Dec 2019 19:16:02.000,56.769,2.578,2055.311669
1 Dec 2019 19:16:03.000,56.735,2.509,2062.131972
1 Dec 2019 19:16:04.000,56.701,2.439,2068.953387
1 Dec 2019 19:16:05.000,56.667,2.370,2075.775891
1 Dec 2019 19:16:06.000,56.634,2.302,2082.599468
1 Dec 2019 19:16:07.000,56.601,2.233,2089.424094
1 Dec 2019 19:16:08.000,56.568,2.165,2096.249757
1 Dec 2019 19:16:09.000,56.535,2.097,2103.076437
1 Dec 2019 19:16:10.000,56.503,2.029,2109.904111
1 Dec 2019 19:16:11.000,56.471,1.962,2116.732770
1 Dec 2019 19:16:12.000,56.439,1.894,2123.562391
1 Dec 2019 19:16:13.000,56.407,1.827,2130.392958
1 Dec 2019 19:16:14.000,56.375,1.760,2137.224449
1 Dec 2019 19:16:15.000,56.344,1.694,2144.056856
1 Dec 2019 19:16:16.000,56.313,1.627,2150.890157
1 Dec 2019 19:16:17.000,56.282,1.561,2157.724335
1 Dec 2019 19:16:18.000,56.251,1.495,2164.559373
1 Dec 2019 19:16:19.000,56.221,1.429,2171.395258
1 Dec 2019 19:16:20.000,56.191,1.364,2178.231973
1 Dec 2019 19:16:21.000,56.161,1.298,2185.069497
1 Dec 2019 19:16:22.000,56.131,1.233,2191.907823
1 Dec 2019 19:16:23.000,56.101,1.168,2198.746930
1 Dec 2019 19:16:24.000,56.072,1.103,2205.586804
1 Dec 2019 19:16:25.000,56.043,1.039,2212.427426
1 Dec 2019 19:16:26.000,56.014,0.975,2219.268788
1 Dec 2019 19:16:27.000,55.985,0.911,2226.110870
1 Dec 2019 19:16:28.000,55.956,0.847,2232.953657
1 Dec 2019 19:16:29.000,55.928,0.783,2239.797138
1 Dec 2019 19:16:30.000,55.900,0.719,2246.641297
1 Dec 2019 19:16:31.000,55.872,0.656,2253.486119
1 Dec 2019 19:16:32.000,55.844,0.593,2260.331587
1 Dec 2019 19:16:33.000,55.816,0.530,2267.177693
1 Dec 2019 19:16:34.000,55.789,0.467,2274.024420
1 Dec 2019 19:16:35.000,55.762,0.405,2280.871752
1 Dec 2019 19:16:36.000,55.735,0.342,2287.719680
1 Dec 2019 19:16:37.000,55.708,0.280,2294.568189
1 Dec 2019 19:16:38.000,55.681,0.218,2301.417265
1 Dec 2019 19:16:39.000,55.655,0.156,2308.266892
1 Dec 2019 19:16:40.000,55.628,0.095,2315.117063
1 Dec 2019 19:16:41.000,55.602,0.033,2321.967762
1 Dec 2019 19:16:42.000,55.576,-0.028,2328.818973
1 Dec 2019 19:16:43.000,55.550,-0.089,2335.670689
1 Dec 2019 19:16:43.571,55.536,-0.124,2339.584874
1 Dec 2019 20:43:02.672,263.592,-0.124,2329.723108
1 Dec 2019 20:43:03.000,263.616,-0.105,2327.647243
1 Dec 2019 20:43:04.000,263.690,-0.048,2321.314710
1 Dec 2019 20:43:05.000,263.764,0.009,2314.985354
1 Dec 2019 20:43:06.000,263.838,0.066,2308.659207
1 Dec 2019 20:43:07.000,263.912,0.123,2302.336304
1 Dec 2019 20:43:08.000,263.987,0.180,2296.016677
1 Dec 2019 20:43:09.000,264.063,0.238,2289.700362
1 Dec 2019 20:43:10.000,264.139,0.296,2283.387394
1 Dec 2019 20:43:11.000,264.215,0.354,2277.077806
1 Dec 2019 20:43:12.000,264.292,0.411,2270.771632
1 Dec 2019 20:43:13.000,264.369,0.470,2264.468913
1 Dec 2019 20:43:14.000,264.446,0.528,2258.169682
1 Dec 2019 20:43:15.000,264.524,0.586,2251.873976
1 Dec 2019 20:43:16.000,264.602,0.645,2245.581832
1 Dec 2019 20:43:17.000,264.681,0.703,2239.293286
1 Dec 2019 20:43:18.000,264.760,0.762,2233.008376
1 Dec 2019 20:43:19.000,264.840,0.821,2226.727139
1 Dec 2019 20:43:20.000,264.920,0.880,2220.449615
1 Dec 2019 20:43:21.000,265.001,0.939,2214.175842
1 Dec 2019 20:43:22.000,265.081,0.998,2207.905859
1 Dec 2019 20:43:23.000,265.163,1.058,2201.639702
1 Dec 2019 20:43:24.000,265.245,1.117,2195.377417
1 Dec 2019 20:43:25.000,265.327,1.177,2189.119042
1 Dec 2019 20:43:26.000,265.410,1.237,2182.864618
1 Dec 2019 20:43:27.000,265.493,1.297,2176.614184
1 Dec 2019 20:43:28.000,265.577,1.357,2170.367784
1 Dec 2019 20:43:29.000,265.661,1.418,2164.125459
1 Dec 2019 20:43:30.000,265.746,1.478,2157.887251
1 Dec 2019 20:43:31.000,265.831,1.539,2151.653203
1 Dec 2019 20:43:32.000,265.916,1.599,2145.423358
1 Dec 2019 20:43:33.000,266.002,1.660,2139.197761
1 Dec 2019 20:43:34.000,266.089,1.721,2132.976455
1 Dec 2019 20:43:35.000,266.176,1.783,2126.759482
1 Dec 2019 20:43:36.000,266.264,1.844,2120.546893
1 Dec 2019 20:43:37.000,266.352,1.906,2114.338732
1 Dec 2019 20:43:38.000,266.440,1.967,2108.135044
1 Dec 2019 20:43:39.000,266.530,2.029,2101.935875
1 Dec 2019 20:43:40.000,266.619,2.091,2095.741273
1 Dec 2019 20:43:41.000,266.709,2.153,2089.551285
1 Dec 2019 20:43:42.000,266.800,2.216,2083.365959
1 Dec 2019 20:43:43.000,266.891,2.278,2077.185345
1 Dec 2019 20:43:44.000,266.983,2.341,2071.009491
1 Dec 2019 20:43:45.000,267.075,2.404,2064.838447
1 Dec 2019 20:43:46.000,267.168,2.467,2058.672262
1 Dec 2019 20:43:47.000,267.262,2.530,2052.510989
1 Dec 2019 20:43:48.000,267.356,2.593,2046.354678
1 Dec 2019 20:43:49.000,267.450,2.656,2040.203380
1 Dec 2019 20:43:50.000,267.545,2.720,2034.057145
1 Dec 2019 20:43:51.000,267.641,2.784,2027.916034
1 Dec 2019 20:43:52.000,267.737,2.848,2021.780095
1 Dec 2019 20:43:53.000,267.834,2.912,2015.649383
1 Dec 2019 20:43:54.000,267.931,2.976,2009.523953
1 Dec 2019 20:43:55.000,268.029,3.041,2003.403860
1 Dec 2019 20:43:56.000,268.128,3.106,1997.289160
1 Dec 2019 20:43:57.000,268.227,3.170,1991.179910
1 Dec 2019 20:43:58.000,268.327,3.235,1985.076167
1 Dec 2019 20:43:59.000,268.427,3.301,1978.977988
1 Dec 2019 20:44:00.000,268.528,3.366,1972.885432
1 Dec 2019 20:44:01.000,268.630,3.432,1966.798559
1 Dec 2019 20:44:02.000,268.732,3.497,1960.717427
1 Dec 2019 20:44:03.000,268.835,3.563,1954.642098
1 Dec 2019 20:44:04.000,268.939,3.629,1948.572632
1 Dec 2019 20:44:05.000,269.043,3.696,1942.509091
1 Dec 2019 20:44:06.000,269.148,3.762,1936.451538
1 Dec 2019 20:44:07.000,269.253,3.829,1930.400036
1 Dec 2019 20:44:08.000,269.359,3.895,1924.354648
1 Dec 2019 20:44:09.000,269.466,3.962,1918.315440
1 Dec 2019 20:44:10.000,269.574,4.030,1912.282476
1 Dec 2019 20:44:11.000,269.682,4.097,1906.255823
1 Dec 2019 20:44:12.000,269.791,4.165,1900.235548
1 Dec 2019 20:44:13.000,269.900,4.232,1894.221717
1 Dec 2019 20:44:14.000,270.011,4.300,1888.214400
1 Dec 2019 20:44:15.000,270.122,4.368,1882.213665
1 Dec 2019 20:44:16.000,270.233,4.437,1876.219583
1 Dec 2019 20:44:17.000,270.346,4.505,1870.232223
1 Dec 2019 20:44:18.000,270.459,4.574,1864.251658
1 Dec 2019 20:44:19.000,270.573,4.643,1858.277960
1 Dec 2019 20:44:20.000,270.687,4.712,1852.311201
1 Dec 2019 20:44:21.000,270.803,4.782,1846.351456
1 Dec 2019 20:44:22.000,270.919,4.851,1840.398800
1 Dec 2019 20:44:23.000,271.036,4.921,1834.453308
1 Dec 2019 20:44:24.000,271.153,4.991,1828.515057
1 Dec 2019 20:44:25.000,271.272,5.061,1822.584125
1 Dec 2019 20:44:26.000,271.391,5.131,1816.660588
1 Dec 2019 20:44:27.000,271.511,5.202,1810.744528
1 Dec 2019 20:44:28.000,271.632,5.272,1804.836023
1 Dec 2019 20:44:29.000,271.753,5.343,1798.935155
1 Dec 2019 20:44:30.000,271.876,5.415,1793.042006
1 Dec 2019 20:44:31.000,271.999,5.486,1787.156659
1 Dec 2019 20:44:32.000,272.123,5.557,1781.279198
1 Dec 2019 20:44:33.000,272.248,5.629,1775.409707
1 Dec 2019 20:44:34.000,272.374,5.701,1769.548273
1 Dec 2019 20:44:35.000,272.500,5.773,1763.694982
1 Dec 2019 20:44:36.000,272.628,5.846,1757.849922
1 Dec 2019 20:44:37.000,272.756,5.918,1752.013182
1 Dec 2019 20:44:38.000,272.885,5.991,1746.184852
1 Dec 2019 20:44:39.000,273.015,6.064,1740.365023
1 Dec 2019 20:44:40.000,273.146,6.138,1734.553791
1 Dec 2019 20:44:41.000,273.278,6.211,1728.751241
1 Dec 2019 20:44:42.000,273.411,6.285,1722.957472
1 Dec 2019 20:44:43.000,273.544,6.359,1717.172578
1 Dec 2019 20:44:44.000,273.679,6.433,1711.396656
1 Dec 2019 20:44:45.000,273.814,6.507,1705.629805
1 Dec 2019 20:44:46.000,273.951,6.582,1699.872121
1 Dec 2019 20:44:47.000,274.088,6.657,1694.123706
1 Dec 2019 20:44:48.000,274.226,6.732,1688.384660
1 Dec 2019 20:44:49.000,274.366,6.807,1682.655086
1 Dec 2019 20:44:50.000,274.506,6.882,1676.935087
1 Dec 2019 20:44:51.000,274.647,6.958,1671.224767
1 Dec 2019 20:44:52.000,274.790,7.034,1665.524233
1 Dec 2019 20:44:53.000,274.933,7.110,1659.833595
1 Dec 2019 20:44:54.000,275.077,7.187,1654.152955
1 Dec 2019 20:44:55.000,275.222,7.263,1648.482426
1 Dec 2019 20:44:56.000,275.369,7.340,1642.822119
1 Dec 2019 20:44:57.000,275.516,7.417,1637.172145
1 Dec 2019 20:44:58.000,275.665,7.494,1631.532619
1 Dec 2019 20:44:59.000,275.814,7.572,1625.903656
1 Dec 2019 20:45:00.000,275.965,7.649,1620.285372
1 Dec 2019 20:45:01.000,276.116,7.727,1614.677889
1 Dec 2019 20:45:02.000,276.269,7.806,1609.081317
1 Dec 2019 20:45:03.000,276.423,7.884,1603.495782
1 Dec 2019 20:45:04.000,276.578,7.963,1597.921404
1 Dec 2019 20:45:05.000,276.734,8.042,1592.358309
1 Dec 2019 20:45:06.000,276.891,8.121,1586.806619
1 Dec 2019 20:45:07.000,277.049,8.200,1581.266462
1 Dec 2019 20:45:08.000,277.209,8.279,1575.737969
1 Dec 2019 20:45:09.000,277.370,8.359,1570.221262
1 Dec 2019 20:45:10.000,277.532,8.439,1564.716475
1 Dec 2019 20:45:11.000,277.695,8.520,1559.223741
1 Dec 2019 20:45:12.000,277.859,8.600,1553.743193
1 Dec 2019 20:45:13.000,278.024,8.681,1548.274968
1 Dec 2019 20:45:14.000,278.191,8.762,1542.819205
1 Dec 2019 20:45:15.000,278.359,8.843,1537.376036
1 Dec 2019 20:45:16.000,278.528,8.924,1531.945605
1 Dec 2019 20:45:17.000,278.699,9.006,1526.528054
1 Dec 2019 20:45:18.000,278.870,9.088,1521.123526
1 Dec 2019 20:45:19.000,279.043,9.170,1515.732167
1 Dec 2019 20:45:20.000,279.218,9.252,1510.354127
1 Dec 2019 20:45:21.000,279.393,9.335,1504.989548
1 Dec 2019 20:45:22.000,279.570,9.417,1499.638584
1 Dec 2019 20:45:23.000,279.748,9.500,1494.301386
1 Dec 2019 20:45:24.000,279.928,9.583,1488.978112
1 Dec 2019 20:45:25.000,280.109,9.667,1483.668912
1 Dec 2019 20:45:26.000,280.291,9.750,1478.373945
1 Dec 2019 20:45:27.000,280.475,9.834,1473.093371
1 Dec 2019 20:45:28.000,280.660,9.918,1467.827351
1 Dec 2019 20:45:29.000,280.846,10.003,1462.576052
1 Dec 2019 20:45:30.000,281.034,10.087,1457.339632
1 Dec 2019 20:45:31.000,281.223,10.172,1452.118260
1 Dec 2019 20:45:32.000,281.414,10.257,1446.912106
1 Dec 2019 20:45:33.000,281.606,10.342,1441.721343
1 Dec 2019 20:45:34.000,281.800,10.427,1436.546137
1 Dec 2019 20:45:35.000,281.995,10.513,1431.386665
1 Dec 2019 20:45:36.000,282.192,10.599,1426.243109
1 Dec 2019 20:45:37.000,282.390,10.685,1421.115638
1 Dec 2019 20:45:38.000,282.590,10.771,1416.004437
1 Dec 2019 20:45:39.000,282.791,10.857,1410.909689
1 Dec 2019 20:45:40.000,282.994,10.944,1405.831581
1 Dec 2019 20:45:41.000,283.198,11.031,1400.770292
1 Dec 2019 20:45:42.000,283.404,11.118,1395.726015
1 Dec 2019 20:45:43.000,283.612,11.205,1390.698944
1 Dec 2019 20:45:44.000,283.821,11.292,1385.689264
1 Dec 2019 20:45:45.000,284.032,11.380,1380.697174
1 Dec 2019 20:45:46.000,284.244,11.468,1375.722875
1 Dec 2019 20:45:47.000,284.458,11.555,1370.766557
1 Dec 2019 20:45:48.000,284.674,11.644,1365.828426
1 Dec 2019 20:45:49.000,284.891,11.732,1360.908688
1 Dec 2019 20:45:50.000,285.110,11.820,1356.007543
1 Dec 2019 20:45:51.000,285.331,11.909,1351.125201
1 Dec 2019 20:45:52.000,285.554,11.998,1346.261876
1 Dec 2019 20:45:53.000,285.778,12.086,1341.417772
1 Dec 2019 20:45:54.000,286.004,12.176,1336.593111
1 Dec 2019 20:45:55.000,286.232,12.265,1331.788103
1 Dec 2019 20:45:56.000,286.461,12.354,1327.002969
1 Dec 2019 20:45:57.000,286.693,12.444,1322.237934
1 Dec 2019 20:45:58.000,286.926,12.533,1317.493214
1 Dec 2019 20:45:59.000,287.161,12.623,1312.769042
1 Dec 2019 20:46:00.000,287.398,12.713,1308.065638
1 Dec 2019 20:46:01.000,287.636,12.803,1303.383239
1 Dec 2019 20:46:02.000,287.877,12.893,1298.722071
1 Dec 2019 20:46:03.000,288.119,12.983,1294.082371
1 Dec 2019 20:46:04.000,288.364,13.074,1289.464379
1 Dec 2019 20:46:05.000,288.610,13.164,1284.868328
1 Dec 2019 20:46:06.000,288.858,13.255,1280.294465
1 Dec 2019 20:46:07.000,289.108,13.345,1275.743028
1 Dec 2019 20:46:08.000,289.360,13.436,1271.214268
1 Dec 2019 20:46:09.000,289.614,13.527,1266.708428
1 Dec 2019 20:46:10.000,289.870,13.618,1262.225764
1 Dec 2019 20:46:11.000,290.128,13.709,1257.766522
1 Dec 2019 20:46:12.000,290.388,13.800,1253.330963
1 Dec 2019 20:46:13.000,290.650,13.891,1248.919338
1 Dec 2019 20:46:14.000,290.914,13.982,1244.531912
1 Dec 2019 20:46:15.000,291.180,14.073,1240.168941
1 Dec 2019 20:46:16.000,291.448,14.164,1235.830695
1 Dec 2019 20:46:17.000,291.719,14.255,1231.517433
1 Dec 2019 20:46:18.000,291.991,14.346,1227.229429
1 Dec 2019 20:46:19.000,292.266,14.437,1222.966951
1 Dec 2019 20:46:20.000,292.542,14.528,1218.730268
1 Dec 2019 20:46:21.000,292.821,14.619,1214.519660
1 Dec 2019 20:46:22.000,293.102,14.710,1210.335397
1 Dec 2019 20:46:23.000,293.385,14.801,1206.177766
1 Dec 2019 20:46:24.000,293.670,14.892,1202.047042
1 Dec 2019 20:46:25.000,293.957,14.983,1197.943506
1 Dec 2019 20:46:26.000,294.247,15.074,1193.867448
1 Dec 2019 20:46:27.000,294.539,15.164,1189.819153
1 Dec 2019 20:46:28.000,294.832,15.255,1185.798905
1 Dec 2019 20:46:29.000,295.129,15.345,1181.807001
1 Dec 2019 20:46:30.000,295.427,15.436,1177.843731
1 Dec 2019 20:46:31.000,295.728,15.526,1173.909385
1 Dec 2019 20:46:32.000,296.031,15.616,1170.004266
1 Dec 2019 20:46:33.000,296.336,15.706,1166.128668
1 Dec 2019 20:46:34.000,296.643,15.795,1162.282887
1 Dec 2019 20:46:35.000,296.953,15.885,1158.467231
1 Dec 2019 20:46:36.000,297.265,15.974,1154.681999
1 Dec 2019 20:46:37.000,297.580,16.063,1150.927495
1 Dec 2019 20:46:38.000,297.896,16.152,1147.204021
1 Dec 2019 20:46:39.000,298.215,16.241,1143.511891
1 Dec 2019 20:46:40.000,298.537,16.329,1139.851411
1 Dec 2019 20:46:41.000,298.860,16.417,1136.222888
1 Dec 2019 20:46:42.000,299.186,16.505,1132.626633
1 Dec 2019 20:46:43.000,299.515,16.592,1129.062961
1 Dec 2019 20:46:44.000,299.845,16.680,1125.532185
1 Dec 2019 20:46:45.000,300.178,16.766,1122.034617
1 Dec 2019 20:46:46.000,300.514,16.853,1118.570573
1 Dec 2019 20:46:47.000,300.851,16.939,1115.140368
1 Dec 2019 20:46:48.000,301.192,17.025,1111.744317
1 Dec 2019 20:46:49.000,301.534,17.110,1108.382743
1 Dec 2019 20:46:50.000,301.879,17.195,1105.055961
1 Dec 2019 20:46:51.000,302.226,17.279,1101.764289
1 Dec 2019 20:46:52.000,302.576,17.363,1098.508046
1 Dec 2019 20:46:53.000,302.928,17.447,1095.287552
1 Dec 2019 20:46:54.000,303.282,17.530,1092.103126
1 Dec 2019 20:46:55.000,303.639,17.612,1088.955088
1 Dec 2019 20:46:56.000,303.998,17.694,1085.843756
1 Dec 2019 20:46:57.000,304.359,17.776,1082.769452
1 Dec 2019 20:46:58.000,304.723,17.856,1079.732493
1 Dec 2019 20:46:59.000,305.089,17.937,1076.733200
1 Dec 2019 20:47:00.000,305.458,18.016,1073.771890
1 Dec 2019 20:47:01.000,305.828,18.095,1070.848882
1 Dec 2019 20:47:02.000,306.201,18.174,1067.964492
1 Dec 2019 20:47:03.000,306.577,18.251,1065.119038
1 Dec 2019 20:47:04.000,306.955,18.328,1062.312836
1 Dec 2019 20:47:05.000,307.335,18.405,1059.546199
