vcc_sched/network/input/aer_vtgs_wj2xms_vcc-c_44430.csv

"Time (UTCG)","Azimuth (deg)","Elevation (deg)","Range (km)"
16 Dec 2019 16:46:55.147,308.717,-0.056,2319.348187
16 Dec 2019 16:46:56.000,308.831,-0.019,2315.333252
16 Dec 2019 16:46:57.000,308.965,0.023,2310.638293
16 Dec 2019 16:46:58.000,309.100,0.065,2305.954029
16 Dec 2019 16:46:59.000,309.235,0.107,2301.280535
16 Dec 2019 16:47:00.000,309.371,0.150,2296.617877
16 Dec 2019 16:47:01.000,309.507,0.192,2291.966132
16 Dec 2019 16:47:02.000,309.644,0.234,2287.325365
16 Dec 2019 16:47:03.000,309.782,0.276,2282.695653
16 Dec 2019 16:47:04.000,309.920,0.318,2278.077071
16 Dec 2019 16:47:05.000,310.058,0.360,2273.469685
16 Dec 2019 16:47:06.000,310.197,0.403,2268.873575
16 Dec 2019 16:47:07.000,310.337,0.445,2264.288809
16 Dec 2019 16:47:08.000,310.477,0.487,2259.715467
16 Dec 2019 16:47:09.000,310.617,0.529,2255.153619
16 Dec 2019 16:47:10.000,310.759,0.571,2250.603343
16 Dec 2019 16:47:11.000,310.900,0.613,2246.064712
16 Dec 2019 16:47:12.000,311.043,0.655,2241.537805
16 Dec 2019 16:47:13.000,311.186,0.697,2237.022693
16 Dec 2019 16:47:14.000,311.329,0.739,2232.519460
16 Dec 2019 16:47:15.000,311.473,0.781,2228.028176
16 Dec 2019 16:47:16.000,311.618,0.823,2223.548924
16 Dec 2019 16:47:17.000,311.763,0.865,2219.081777
16 Dec 2019 16:47:18.000,311.909,0.907,2214.626818
16 Dec 2019 16:47:19.000,312.055,0.949,2210.184122
16 Dec 2019 16:47:20.000,312.202,0.990,2205.753771
16 Dec 2019 16:47:21.000,312.350,1.032,2201.335841
16 Dec 2019 16:47:22.000,312.498,1.074,2196.930417
16 Dec 2019 16:47:23.000,312.646,1.116,2192.537573
16 Dec 2019 16:47:24.000,312.796,1.158,2188.157396
16 Dec 2019 16:47:25.000,312.946,1.199,2183.789961
16 Dec 2019 16:47:26.000,313.096,1.241,2179.435356
16 Dec 2019 16:47:27.000,313.247,1.282,2175.093659
16 Dec 2019 16:47:28.000,313.399,1.324,2170.764951
16 Dec 2019 16:47:29.000,313.551,1.366,2166.449319
16 Dec 2019 16:47:30.000,313.704,1.407,2162.146841
16 Dec 2019 16:47:31.000,313.857,1.449,2157.857607
16 Dec 2019 16:47:32.000,314.011,1.490,2153.581694
16 Dec 2019 16:47:33.000,314.166,1.531,2149.319192
16 Dec 2019 16:47:34.000,314.321,1.573,2145.070181
16 Dec 2019 16:47:35.000,314.477,1.614,2140.834751
16 Dec 2019 16:47:36.000,314.634,1.655,2136.612985
16 Dec 2019 16:47:37.000,314.791,1.696,2132.404966
16 Dec 2019 16:47:38.000,314.948,1.738,2128.210786
16 Dec 2019 16:47:39.000,315.107,1.779,2124.030526
16 Dec 2019 16:47:40.000,315.265,1.820,2119.864279
16 Dec 2019 16:47:41.000,315.425,1.861,2115.712129
16 Dec 2019 16:47:42.000,315.585,1.902,2111.574162
16 Dec 2019 16:47:43.000,315.746,1.943,2107.450470
16 Dec 2019 16:47:44.000,315.907,1.984,2103.341141
16 Dec 2019 16:47:45.000,316.069,2.024,2099.246259
16 Dec 2019 16:47:46.000,316.232,2.065,2095.165921
16 Dec 2019 16:47:47.000,316.395,2.106,2091.100209
16 Dec 2019 16:47:48.000,316.559,2.146,2087.049221
16 Dec 2019 16:47:49.000,316.724,2.187,2083.013042
16 Dec 2019 16:47:50.000,316.889,2.227,2078.991763
16 Dec 2019 16:47:51.000,317.055,2.268,2074.985478
16 Dec 2019 16:47:52.000,317.221,2.308,2070.994276
16 Dec 2019 16:47:53.000,317.388,2.349,2067.018248
16 Dec 2019 16:47:54.000,317.556,2.389,2063.057491
16 Dec 2019 16:47:55.000,317.725,2.429,2059.112093
16 Dec 2019 16:47:56.000,317.894,2.469,2055.182147
16 Dec 2019 16:47:57.000,318.063,2.509,2051.267749
16 Dec 2019 16:47:58.000,318.233,2.549,2047.368992
16 Dec 2019 16:47:59.000,318.404,2.589,2043.485968
16 Dec 2019 16:48:00.000,318.576,2.629,2039.618770
16 Dec 2019 16:48:01.000,318.748,2.669,2035.767497
16 Dec 2019 16:48:02.000,318.921,2.708,2031.932241
16 Dec 2019 16:48:03.000,319.095,2.748,2028.113096
16 Dec 2019 16:48:04.000,319.269,2.787,2024.310161
16 Dec 2019 16:48:05.000,319.444,2.827,2020.523531
16 Dec 2019 16:48:06.000,319.619,2.866,2016.753300
16 Dec 2019 16:48:07.000,319.795,2.905,2012.999563
16 Dec 2019 16:48:08.000,319.972,2.944,2009.262421
16 Dec 2019 16:48:09.000,320.150,2.983,2005.541970
16 Dec 2019 16:48:10.000,320.328,3.022,2001.838305
16 Dec 2019 16:48:11.000,320.507,3.061,1998.151523
16 Dec 2019 16:48:12.000,320.686,3.100,1994.481725
16 Dec 2019 16:48:13.000,320.866,3.139,1990.829008
16 Dec 2019 16:48:14.000,321.047,3.177,1987.193470
16 Dec 2019 16:48:15.000,321.228,3.216,1983.575206
16 Dec 2019 16:48:16.000,321.411,3.254,1979.974320
16 Dec 2019 16:48:17.000,321.593,3.292,1976.390910
16 Dec 2019 16:48:18.000,321.777,3.330,1972.825073
16 Dec 2019 16:48:19.000,321.961,3.369,1969.276911
16 Dec 2019 16:48:20.000,322.146,3.406,1965.746521
16 Dec 2019 16:48:21.000,322.331,3.444,1962.234002
16 Dec 2019 16:48:22.000,322.517,3.482,1958.739459
16 Dec 2019 16:48:23.000,322.704,3.520,1955.262989
16 Dec 2019 16:48:24.000,322.891,3.557,1951.804693
16 Dec 2019 16:48:25.000,323.079,3.595,1948.364672
16 Dec 2019 16:48:26.000,323.268,3.632,1944.943025
16 Dec 2019 16:48:27.000,323.458,3.669,1941.539853
16 Dec 2019 16:48:28.000,323.648,3.706,1938.155261
16 Dec 2019 16:48:29.000,323.838,3.743,1934.789347
16 Dec 2019 16:48:30.000,324.030,3.779,1931.442213
16 Dec 2019 16:48:31.000,324.222,3.816,1928.113961
16 Dec 2019 16:48:32.000,324.415,3.853,1924.804692
16 Dec 2019 16:48:33.000,324.608,3.889,1921.514508
16 Dec 2019 16:48:34.000,324.802,3.925,1918.243511
16 Dec 2019 16:48:35.000,324.997,3.961,1914.991803
16 Dec 2019 16:48:36.000,325.192,3.997,1911.759483
16 Dec 2019 16:48:37.000,325.388,4.033,1908.546659
16 Dec 2019 16:48:38.000,325.585,4.069,1905.353430
16 Dec 2019 16:48:39.000,325.783,4.104,1902.179898
16 Dec 2019 16:48:40.000,325.981,4.139,1899.026166
16 Dec 2019 16:48:41.000,326.179,4.175,1895.892335
16 Dec 2019 16:48:42.000,326.379,4.210,1892.778509
16 Dec 2019 16:48:43.000,326.579,4.245,1889.684790
16 Dec 2019 16:48:44.000,326.780,4.279,1886.611280
16 Dec 2019 16:48:45.000,326.981,4.314,1883.558081
16 Dec 2019 16:48:46.000,327.183,4.348,1880.525296
16 Dec 2019 16:48:47.000,327.386,4.382,1877.513026
16 Dec 2019 16:48:48.000,327.589,4.417,1874.521375
16 Dec 2019 16:48:49.000,327.793,4.450,1871.550444
16 Dec 2019 16:48:50.000,327.998,4.484,1868.600336
16 Dec 2019 16:48:51.000,328.203,4.518,1865.671152
16 Dec 2019 16:48:52.000,328.409,4.551,1862.762994
16 Dec 2019 16:48:53.000,328.616,4.584,1859.875965
16 Dec 2019 16:48:54.000,328.823,4.617,1857.010166
16 Dec 2019 16:48:55.000,329.031,4.650,1854.165699
16 Dec 2019 16:48:56.000,329.239,4.683,1851.342665
16 Dec 2019 16:48:57.000,329.449,4.715,1848.541165
16 Dec 2019 16:48:58.000,329.659,4.748,1845.761301
16 Dec 2019 16:48:59.000,329.869,4.780,1843.003174
16 Dec 2019 16:49:00.000,330.080,4.812,1840.266885
16 Dec 2019 16:49:01.000,330.292,4.843,1837.552533
16 Dec 2019 16:49:02.000,330.504,4.875,1834.860219
16 Dec 2019 16:49:03.000,330.717,4.906,1832.190044
16 Dec 2019 16:49:04.000,330.931,4.937,1829.542107
16 Dec 2019 16:49:05.000,331.145,4.968,1826.916507
16 Dec 2019 16:49:06.000,331.360,4.999,1824.313345
16 Dec 2019 16:49:07.000,331.576,5.029,1821.732719
16 Dec 2019 16:49:08.000,331.792,5.060,1819.174729
16 Dec 2019 16:49:09.000,332.009,5.090,1816.639473
16 Dec 2019 16:49:10.000,332.226,5.119,1814.127047
16 Dec 2019 16:49:11.000,332.444,5.149,1811.637551
16 Dec 2019 16:49:12.000,332.663,5.178,1809.171081
16 Dec 2019 16:49:13.000,332.882,5.208,1806.727736
16 Dec 2019 16:49:14.000,333.102,5.237,1804.307610
16 Dec 2019 16:49:15.000,333.322,5.265,1801.910803
16 Dec 2019 16:49:16.000,333.543,5.294,1799.537406
16 Dec 2019 16:49:17.000,333.765,5.322,1797.187517
16 Dec 2019 16:49:18.000,333.987,5.350,1794.861231
16 Dec 2019 16:49:19.000,334.210,5.378,1792.558643
16 Dec 2019 16:49:20.000,334.433,5.405,1790.279845
16 Dec 2019 16:49:21.000,334.657,5.433,1788.024931
16 Dec 2019 16:49:22.000,334.881,5.460,1785.793995
16 Dec 2019 16:49:23.000,335.106,5.487,1783.587130
16 Dec 2019 16:49:24.000,335.332,5.513,1781.404425
16 Dec 2019 16:49:25.000,335.558,5.539,1779.245973
16 Dec 2019 16:49:26.000,335.785,5.565,1777.111865
16 Dec 2019 16:49:27.000,336.012,5.591,1775.002192
16 Dec 2019 16:49:28.000,336.240,5.617,1772.917041
16 Dec 2019 16:49:29.000,336.469,5.642,1770.856502
16 Dec 2019 16:49:30.000,336.697,5.667,1768.820666
16 Dec 2019 16:49:31.000,336.927,5.692,1766.809616
16 Dec 2019 16:49:32.000,337.157,5.716,1764.823441
16 Dec 2019 16:49:33.000,337.387,5.740,1762.862228
16 Dec 2019 16:49:34.000,337.619,5.764,1760.926062
16 Dec 2019 16:49:35.000,337.850,5.788,1759.015026
16 Dec 2019 16:49:36.000,338.082,5.811,1757.129208
16 Dec 2019 16:49:37.000,338.315,5.834,1755.268688
16 Dec 2019 16:49:38.000,338.548,5.857,1753.433548
16 Dec 2019 16:49:39.000,338.781,5.880,1751.623874
16 Dec 2019 16:49:40.000,339.016,5.902,1749.839743
16 Dec 2019 16:49:41.000,339.250,5.924,1748.081237
16 Dec 2019 16:49:42.000,339.485,5.945,1746.348433
16 Dec 2019 16:49:43.000,339.721,5.967,1744.641412
16 Dec 2019 16:49:44.000,339.957,5.988,1742.960252
16 Dec 2019 16:49:45.000,340.193,6.009,1741.305027
16 Dec 2019 16:49:46.000,340.430,6.029,1739.675815
16 Dec 2019 16:49:47.000,340.667,6.049,1738.072690
16 Dec 2019 16:49:48.000,340.905,6.069,1736.495726
16 Dec 2019 16:49:49.000,341.143,6.089,1734.944996
16 Dec 2019 16:49:50.000,341.382,6.108,1733.420573
16 Dec 2019 16:49:51.000,341.621,6.127,1731.922526
16 Dec 2019 16:49:52.000,341.861,6.146,1730.450927
16 Dec 2019 16:49:53.000,342.101,6.164,1729.005844
16 Dec 2019 16:49:54.000,342.341,6.182,1727.587347
16 Dec 2019 16:49:55.000,342.582,6.200,1726.195500
16 Dec 2019 16:49:56.000,342.823,6.217,1724.830372
16 Dec 2019 16:49:57.000,343.065,6.234,1723.492025
16 Dec 2019 16:49:58.000,343.306,6.251,1722.180525
16 Dec 2019 16:49:59.000,343.549,6.267,1720.895934
16 Dec 2019 16:50:00.000,343.791,6.283,1719.638315
16 Dec 2019 16:50:01.000,344.034,6.299,1718.407726
16 Dec 2019 16:50:02.000,344.278,6.314,1717.204228
16 Dec 2019 16:50:03.000,344.522,6.329,1716.027879
16 Dec 2019 16:50:04.000,344.766,6.344,1714.878736
16 Dec 2019 16:50:05.000,345.010,6.358,1713.756855
16 Dec 2019 16:50:06.000,345.255,6.373,1712.662292
16 Dec 2019 16:50:07.000,345.500,6.386,1711.595097
16 Dec 2019 16:50:08.000,345.745,6.400,1710.555326
16 Dec 2019 16:50:09.000,345.991,6.413,1709.543029
16 Dec 2019 16:50:10.000,346.237,6.425,1708.558254
16 Dec 2019 16:50:11.000,346.483,6.438,1707.601053
16 Dec 2019 16:50:12.000,346.730,6.450,1706.671471
16 Dec 2019 16:50:13.000,346.976,6.461,1705.769554
16 Dec 2019 16:50:14.000,347.223,6.473,1704.895348
16 Dec 2019 16:50:15.000,347.471,6.484,1704.048896
16 Dec 2019 16:50:16.000,347.718,6.494,1703.230241
16 Dec 2019 16:50:17.000,347.966,6.505,1702.439422
16 Dec 2019 16:50:18.000,348.214,6.515,1701.676480
16 Dec 2019 16:50:19.000,348.462,6.524,1700.941454
16 Dec 2019 16:50:20.000,348.711,6.533,1700.234378
16 Dec 2019 16:50:21.000,348.960,6.542,1699.555291
16 Dec 2019 16:50:22.000,349.208,6.551,1698.904226
16 Dec 2019 16:50:23.000,349.458,6.559,1698.281215
16 Dec 2019 16:50:24.000,349.707,6.567,1697.686290
16 Dec 2019 16:50:25.000,349.956,6.574,1697.119481
16 Dec 2019 16:50:26.000,350.206,6.581,1696.580817
16 Dec 2019 16:50:27.000,350.456,6.588,1696.070325
16 Dec 2019 16:50:28.000,350.706,6.594,1695.588032
16 Dec 2019 16:50:29.000,350.956,6.600,1695.133961
16 Dec 2019 16:50:30.000,351.206,6.606,1694.708136
16 Dec 2019 16:50:31.000,351.456,6.611,1694.310577
16 Dec 2019 16:50:32.000,351.707,6.616,1693.941307
16 Dec 2019 16:50:33.000,351.957,6.620,1693.600343
16 Dec 2019 16:50:34.000,352.208,6.625,1693.287703
16 Dec 2019 16:50:35.000,352.458,6.628,1693.003403
16 Dec 2019 16:50:36.000,352.709,6.632,1692.747456
16 Dec 2019 16:50:37.000,352.960,6.635,1692.519877
16 Dec 2019 16:50:38.000,353.211,6.637,1692.320677
16 Dec 2019 16:50:39.000,353.462,6.640,1692.149866
16 Dec 2019 16:50:40.000,353.713,6.642,1692.007452
16 Dec 2019 16:50:41.000,353.964,6.643,1691.893443
16 Dec 2019 16:50:42.000,354.215,6.644,1691.807845
16 Dec 2019 16:50:43.000,354.467,6.645,1691.750661
16 Dec 2019 16:50:44.000,354.718,6.646,1691.721895
16 Dec 2019 16:50:45.000,354.969,6.646,1691.721548
16 Dec 2019 16:50:46.000,355.220,6.646,1691.749621
16 Dec 2019 16:50:47.000,355.471,6.645,1691.806110
16 Dec 2019 16:50:48.000,355.722,6.644,1691.891014
16 Dec 2019 16:50:49.000,355.973,6.643,1692.004328
16 Dec 2019 16:50:50.000,356.225,6.641,1692.146046
16 Dec 2019 16:50:51.000,356.476,6.639,1692.316160
16 Dec 2019 16:50:52.000,356.727,6.636,1692.514662
16 Dec 2019 16:50:53.000,356.977,6.633,1692.741541
16 Dec 2019 16:50:54.000,357.228,6.630,1692.996785
16 Dec 2019 16:50:55.000,357.479,6.627,1693.280382
16 Dec 2019 16:50:56.000,357.730,6.623,1693.592316
16 Dec 2019 16:50:57.000,357.980,6.618,1693.932572
16 Dec 2019 16:50:58.000,358.231,6.614,1694.301132
16 Dec 2019 16:50:59.000,358.481,6.608,1694.697977
16 Dec 2019 16:51:00.000,358.731,6.603,1695.123086
16 Dec 2019 16:51:01.000,358.981,6.597,1695.576437
16 Dec 2019 16:51:02.000,359.231,6.591,1696.058008
16 Dec 2019 16:51:03.000,359.481,6.585,1696.567774
16 Dec 2019 16:51:04.000,359.731,6.578,1697.105708
16 Dec 2019 16:51:05.000,359.980,6.571,1697.671783
16 Dec 2019 16:51:06.000,0.229,6.563,1698.265970
16 Dec 2019 16:51:07.000,0.478,6.555,1698.888239
16 Dec 2019 16:51:08.000,0.727,6.547,1699.538557
16 Dec 2019 16:51:09.000,0.976,6.538,1700.216893
16 Dec 2019 16:51:10.000,1.224,6.529,1700.923212
16 Dec 2019 16:51:11.000,1.473,6.520,1701.657477
16 Dec 2019 16:51:12.000,1.721,6.510,1702.419653
16 Dec 2019 16:51:13.000,1.969,6.500,1703.209699
16 Dec 2019 16:51:14.000,2.216,6.489,1704.027577
16 Dec 2019 16:51:15.000,2.463,6.479,1704.873246
16 Dec 2019 16:51:16.000,2.710,6.467,1705.746662
16 Dec 2019 16:51:17.000,2.957,6.456,1706.647783
16 Dec 2019 16:51:18.000,3.204,6.444,1707.576563
16 Dec 2019 16:51:19.000,3.450,6.432,1708.532956
16 Dec 2019 16:51:20.000,3.696,6.419,1709.516914
16 Dec 2019 16:51:21.000,3.942,6.407,1710.528389
16 Dec 2019 16:51:22.000,4.187,6.393,1711.567331
16 Dec 2019 16:51:23.000,4.432,6.380,1712.633688
16 Dec 2019 16:51:24.000,4.677,6.366,1713.727408
16 Dec 2019 16:51:25.000,4.921,6.352,1714.848436
16 Dec 2019 16:51:26.000,5.165,6.337,1715.996719
16 Dec 2019 16:51:27.000,5.409,6.322,1717.172200
16 Dec 2019 16:51:28.000,5.653,6.307,1718.374822
16 Dec 2019 16:51:29.000,5.896,6.291,1719.604526
16 Dec 2019 16:51:30.000,6.138,6.276,1720.861253
16 Dec 2019 16:51:31.000,6.381,6.259,1722.144942
16 Dec 2019 16:51:32.000,6.623,6.243,1723.455530
16 Dec 2019 16:51:33.000,6.864,6.226,1724.792957
16 Dec 2019 16:51:34.000,7.105,6.209,1726.157156
16 Dec 2019 16:51:35.000,7.346,6.191,1727.548064
16 Dec 2019 16:51:36.000,7.586,6.173,1728.965614
16 Dec 2019 16:51:37.000,7.826,6.155,1730.409738
16 Dec 2019 16:51:38.000,8.066,6.137,1731.880369
16 Dec 2019 16:51:39.000,8.305,6.118,1733.377438
16 Dec 2019 16:51:40.000,8.544,6.099,1734.900873
16 Dec 2019 16:51:41.000,8.782,6.080,1736.450604
16 Dec 2019 16:51:42.000,9.020,6.060,1738.026559
16 Dec 2019 16:51:43.000,9.257,6.040,1739.628664
16 Dec 2019 16:51:44.000,9.494,6.020,1741.256845
16 Dec 2019 16:51:45.000,9.731,5.999,1742.911028
16 Dec 2019 16:51:46.000,9.967,5.978,1744.591136
16 Dec 2019 16:51:47.000,10.202,5.957,1746.297092
16 Dec 2019 16:51:48.000,10.437,5.936,1748.028819
16 Dec 2019 16:51:49.000,10.672,5.914,1749.786237
16 Dec 2019 16:51:50.000,10.906,5.892,1751.569269
16 Dec 2019 16:51:51.000,11.140,5.869,1753.377833
16 Dec 2019 16:51:52.000,11.373,5.847,1755.211848
16 Dec 2019 16:51:53.000,11.605,5.824,1757.071232
16 Dec 2019 16:51:54.000,11.837,5.801,1758.955903
16 Dec 2019 16:51:55.000,12.069,5.777,1760.865777
16 Dec 2019 16:51:56.000,12.300,5.754,1762.800770
16 Dec 2019 16:51:57.000,12.531,5.729,1764.760797
16 Dec 2019 16:51:58.000,12.761,5.705,1766.745773
16 Dec 2019 16:51:59.000,12.990,5.681,1768.755610
16 Dec 2019 16:52:00.000,13.219,5.656,1770.790222
16 Dec 2019 16:52:01.000,13.448,5.631,1772.849522
16 Dec 2019 16:52:02.000,13.676,5.605,1774.933420
16 Dec 2019 16:52:03.000,13.903,5.580,1777.041828
16 Dec 2019 16:52:04.000,14.130,5.554,1779.174656
16 Dec 2019 16:52:05.000,14.356,5.528,1781.331814
16 Dec 2019 16:52:06.000,14.582,5.501,1783.513211
16 Dec 2019 16:52:07.000,14.807,5.475,1785.718755
16 Dec 2019 16:52:08.000,15.031,5.448,1787.948356
16 Dec 2019 16:52:09.000,15.255,5.421,1790.201919
16 Dec 2019 16:52:10.000,15.478,5.393,1792.479352
16 Dec 2019 16:52:11.000,15.701,5.366,1794.780561
16 Dec 2019 16:52:12.000,15.923,5.338,1797.105454
16 Dec 2019 16:52:13.000,16.145,5.310,1799.453933
16 Dec 2019 16:52:14.000,16.366,5.282,1801.825906
16 Dec 2019 16:52:15.000,16.587,5.253,1804.221275
16 Dec 2019 16:52:16.000,16.806,5.224,1806.639947
16 Dec 2019 16:52:17.000,17.026,5.195,1809.081823
16 Dec 2019 16:52:18.000,17.244,5.166,1811.546808
16 Dec 2019 16:52:19.000,17.462,5.137,1814.034803
16 Dec 2019 16:52:20.000,17.680,5.107,1816.545713
16 Dec 2019 16:52:21.000,17.897,5.077,1819.079438
16 Dec 2019 16:52:22.000,18.113,5.047,1821.635882
16 Dec 2019 16:52:23.000,18.328,5.017,1824.214944
16 Dec 2019 16:52:24.000,18.543,4.986,1826.816526
16 Dec 2019 16:52:25.000,18.758,4.955,1829.440530
16 Dec 2019 16:52:26.000,18.971,4.924,1832.086855
16 Dec 2019 16:52:27.000,19.184,4.893,1834.755402
16 Dec 2019 16:52:28.000,19.397,4.862,1837.446072
16 Dec 2019 16:52:29.000,19.609,4.830,1840.158763
16 Dec 2019 16:52:30.000,19.820,4.799,1842.893375
16 Dec 2019 16:52:31.000,20.030,4.767,1845.649809
16 Dec 2019 16:52:32.000,20.240,4.734,1848.427962
16 Dec 2019 16:52:33.000,20.449,4.702,1851.227734
16 Dec 2019 16:52:34.000,20.658,4.670,1854.049023
16 Dec 2019 16:52:35.000,20.866,4.637,1856.891729
16 Dec 2019 16:52:36.000,21.073,4.604,1859.755749
16 Dec 2019 16:52:37.000,21.280,4.571,1862.640981
16 Dec 2019 16:52:38.000,21.486,4.538,1865.547325
16 Dec 2019 16:52:39.000,21.691,4.504,1868.474679
16 Dec 2019 16:52:40.000,21.896,4.471,1871.422939
16 Dec 2019 16:52:41.000,22.100,4.437,1874.392004
16 Dec 2019 16:52:42.000,22.303,4.403,1877.381772
16 Dec 2019 16:52:43.000,22.506,4.369,1880.392141
16 Dec 2019 16:52:44.000,22.708,4.335,1883.423007
16 Dec 2019 16:52:45.000,22.910,4.300,1886.474270
16 Dec 2019 16:52:46.000,23.111,4.266,1889.545826
16 Dec 2019 16:52:47.000,23.311,4.231,1892.637573
16 Dec 2019 16:52:48.000,23.510,4.196,1895.749409
16 Dec 2019 16:52:49.000,23.709,4.161,1898.881231
16 Dec 2019 16:52:50.000,23.907,4.126,1902.032937
16 Dec 2019 16:52:51.000,24.104,4.090,1905.204425
16 Dec 2019 16:52:52.000,24.301,4.055,1908.395591
16 Dec 2019 16:52:53.000,24.497,4.019,1911.606335
16 Dec 2019 16:52:54.000,24.693,3.984,1914.836553
16 Dec 2019 16:52:55.000,24.888,3.948,1918.086141
16 Dec 2019 16:52:56.000,25.082,3.912,1921.355002
16 Dec 2019 16:52:57.000,25.275,3.875,1924.643031
16 Dec 2019 16:52:58.000,25.468,3.839,1927.950127
16 Dec 2019 16:52:59.000,25.660,3.803,1931.276187
16 Dec 2019 16:53:00.000,25.852,3.766,1934.621109
16 Dec 2019 16:53:01.000,26.043,3.729,1937.984794
16 Dec 2019 16:53:02.000,26.233,3.692,1941.367138
16 Dec 2019 16:53:03.000,26.422,3.655,1944.768040
16 Dec 2019 16:53:04.000,26.611,3.618,1948.187398
16 Dec 2019 16:53:05.000,26.799,3.581,1951.625115
16 Dec 2019 16:53:06.000,26.987,3.544,1955.081086
16 Dec 2019 16:53:07.000,27.173,3.506,1958.555213
16 Dec 2019 16:53:08.000,27.360,3.469,1962.047394
16 Dec 2019 16:53:09.000,27.545,3.431,1965.557528
16 Dec 2019 16:53:10.000,27.730,3.393,1969.085517
16 Dec 2019 16:53:11.000,27.914,3.355,1972.631258
16 Dec 2019 16:53:12.000,28.097,3.317,1976.194655
16 Dec 2019 16:53:13.000,28.280,3.279,1979.775607
16 Dec 2019 16:53:14.000,28.462,3.241,1983.374014
16 Dec 2019 16:53:15.000,28.644,3.202,1986.989778
16 Dec 2019 16:53:16.000,28.825,3.164,1990.622798
16 Dec 2019 16:53:17.000,29.005,3.125,1994.272979
16 Dec 2019 16:53:18.000,29.184,3.087,1997.940220
16 Dec 2019 16:53:19.000,29.363,3.048,2001.624424
16 Dec 2019 16:53:20.000,29.542,3.009,2005.325492
16 Dec 2019 16:53:21.000,29.719,2.970,2009.043329
16 Dec 2019 16:53:22.000,29.896,2.931,2012.777836
16 Dec 2019 16:53:23.000,30.072,2.892,2016.528916
16 Dec 2019 16:53:24.000,30.248,2.853,2020.296471
16 Dec 2019 16:53:25.000,30.423,2.814,2024.080408
16 Dec 2019 16:53:26.000,30.597,2.774,2027.880629
16 Dec 2019 16:53:27.000,30.771,2.735,2031.697039
16 Dec 2019 16:53:28.000,30.943,2.695,2035.529539
16 Dec 2019 16:53:29.000,31.116,2.656,2039.378039
16 Dec 2019 16:53:30.000,31.287,2.616,2043.242442
16 Dec 2019 16:53:31.000,31.458,2.576,2047.122653
16 Dec 2019 16:53:32.000,31.629,2.537,2051.018575
16 Dec 2019 16:53:33.000,31.799,2.497,2054.930120
16 Dec 2019 16:53:34.000,31.968,2.457,2058.857191
16 Dec 2019 16:53:35.000,32.136,2.417,2062.799694
16 Dec 2019 16:53:36.000,32.304,2.376,2066.757539
16 Dec 2019 16:53:37.000,32.471,2.336,2070.730631
16 Dec 2019 16:53:38.000,32.638,2.296,2074.718877
16 Dec 2019 16:53:39.000,32.804,2.256,2078.722189
16 Dec 2019 16:53:40.000,32.969,2.215,2082.740473
16 Dec 2019 16:53:41.000,33.133,2.175,2086.773635
16 Dec 2019 16:53:42.000,33.297,2.134,2090.821590
16 Dec 2019 16:53:43.000,33.461,2.094,2094.884245
16 Dec 2019 16:53:44.000,33.623,2.053,2098.961507
16 Dec 2019 16:53:45.000,33.786,2.012,2103.053291
16 Dec 2019 16:53:46.000,33.947,1.972,2107.159506
16 Dec 2019 16:53:47.000,34.108,1.931,2111.280061
16 Dec 2019 16:53:48.000,34.268,1.890,2115.414870
16 Dec 2019 16:53:49.000,34.428,1.849,2119.563842
16 Dec 2019 16:53:50.000,34.587,1.808,2123.726894
16 Dec 2019 16:53:51.000,34.745,1.767,2127.903935
16 Dec 2019 16:53:52.000,34.903,1.726,2132.094876
16 Dec 2019 16:53:53.000,35.060,1.685,2136.299635
16 Dec 2019 16:53:54.000,35.217,1.644,2140.518122
16 Dec 2019 16:53:55.000,35.373,1.603,2144.750254
16 Dec 2019 16:53:56.000,35.528,1.562,2148.995944
16 Dec 2019 16:53:57.000,35.683,1.520,2153.255105
16 Dec 2019 16:53:58.000,35.837,1.479,2157.527657
16 Dec 2019 16:53:59.000,35.990,1.438,2161.813510
16 Dec 2019 16:54:00.000,36.143,1.396,2166.112585
16 Dec 2019 16:54:01.000,36.295,1.355,2170.424797
16 Dec 2019 16:54:02.000,36.447,1.313,2174.750060
16 Dec 2019 16:54:03.000,36.598,1.272,2179.088295
16 Dec 2019 16:54:04.000,36.749,1.230,2183.439416
16 Dec 2019 16:54:05.000,36.899,1.189,2187.803346
16 Dec 2019 16:54:06.000,37.048,1.147,2192.179998
16 Dec 2019 16:54:07.000,37.197,1.105,2196.569296
16 Dec 2019 16:54:08.000,37.345,1.064,2200.971155
16 Dec 2019 16:54:09.000,37.493,1.022,2205.385498
16 Dec 2019 16:54:10.000,37.640,0.980,2209.812242
16 Dec 2019 16:54:11.000,37.786,0.939,2214.251311
16 Dec 2019 16:54:12.000,37.932,0.897,2218.702622
16 Dec 2019 16:54:13.000,38.077,0.855,2223.166100
16 Dec 2019 16:54:14.000,38.222,0.813,2227.641663
16 Dec 2019 16:54:15.000,38.366,0.771,2232.129237
16 Dec 2019 16:54:16.000,38.510,0.729,2236.628740
16 Dec 2019 16:54:17.000,38.653,0.688,2241.140101
16 Dec 2019 16:54:18.000,38.795,0.646,2245.663236
16 Dec 2019 16:54:19.000,38.937,0.604,2250.198076
16 Dec 2019 16:54:20.000,39.078,0.562,2254.744539
16 Dec 2019 16:54:21.000,39.219,0.520,2259.302555
16 Dec 2019 16:54:22.000,39.359,0.478,2263.872044
16 Dec 2019 16:54:23.000,39.499,0.436,2268.452935
16 Dec 2019 16:54:24.000,39.638,0.394,2273.045151
16 Dec 2019 16:54:25.000,39.777,0.352,2277.648621
16 Dec 2019 16:54:26.000,39.915,0.309,2282.263268
16 Dec 2019 16:54:27.000,40.052,0.267,2286.889024
16 Dec 2019 16:54:28.000,40.189,0.225,2291.525811
16 Dec 2019 16:54:29.000,40.326,0.183,2296.173561
16 Dec 2019 16:54:30.000,40.461,0.141,2300.832199
16 Dec 2019 16:54:31.000,40.597,0.099,2305.501657
16 Dec 2019 16:54:32.000,40.732,0.057,2310.181860
16 Dec 2019 16:54:33.000,40.866,0.015,2314.872739
16 Dec 2019 16:54:34.000,41.000,-0.028,2319.574227
16 Dec 2019 16:54:34.664,41.088,-0.056,2322.699510
16 Dec 2019 18:24:18.965,322.750,-0.055,2322.292958
16 Dec 2019 18:24:19.000,322.755,-0.054,2322.107646
16 Dec 2019 18:24:20.000,322.872,-0.006,2316.834245
16 Dec 2019 18:24:21.000,322.991,0.041,2311.569032
16 Dec 2019 18:24:22.000,323.110,0.088,2306.312068
16 Dec 2019 18:24:23.000,323.229,0.136,2301.063419
16 Dec 2019 18:24:24.000,323.349,0.183,2295.823143
16 Dec 2019 18:24:25.000,323.470,0.230,2290.591307
16 Dec 2019 18:24:26.000,323.591,0.278,2285.367975
16 Dec 2019 18:24:27.000,323.713,0.325,2280.153213
16 Dec 2019 18:24:28.000,323.835,0.373,2274.947083
16 Dec 2019 18:24:29.000,323.957,0.421,2269.749651
16 Dec 2019 18:24:30.000,324.081,0.468,2264.560985
16 Dec 2019 18:24:31.000,324.204,0.516,2259.381153
16 Dec 2019 18:24:32.000,324.329,0.564,2254.210217
16 Dec 2019 18:24:33.000,324.454,0.611,2249.048247
16 Dec 2019 18:24:34.000,324.579,0.659,2243.895312
16 Dec 2019 18:24:35.000,324.705,0.707,2238.751482
16 Dec 2019 18:24:36.000,324.832,0.754,2233.616821
16 Dec 2019 18:24:37.000,324.959,0.802,2228.491402
16 Dec 2019 18:24:38.000,325.087,0.850,2223.375296
16 Dec 2019 18:24:39.000,325.215,0.898,2218.268570
16 Dec 2019 18:24:40.000,325.344,0.946,2213.171297
16 Dec 2019 18:24:41.000,325.474,0.994,2208.083550
16 Dec 2019 18:24:42.000,325.604,1.042,2203.005397
16 Dec 2019 18:24:43.000,325.734,1.090,2197.936914
16 Dec 2019 18:24:44.000,325.866,1.138,2192.878173
16 Dec 2019 18:24:45.000,325.997,1.186,2187.829249
16 Dec 2019 18:24:46.000,326.130,1.234,2182.790213
16 Dec 2019 18:24:47.000,326.263,1.282,2177.761142
16 Dec 2019 18:24:48.000,326.396,1.330,2172.742112
16 Dec 2019 18:24:49.000,326.531,1.378,2167.733196
16 Dec 2019 18:24:50.000,326.666,1.426,2162.734471
16 Dec 2019 18:24:51.000,326.801,1.474,2157.746017
16 Dec 2019 18:24:52.000,326.937,1.523,2152.767906
16 Dec 2019 18:24:53.000,327.074,1.571,2147.800219
16 Dec 2019 18:24:54.000,327.211,1.619,2142.843036
16 Dec 2019 18:24:55.000,327.349,1.667,2137.896432
16 Dec 2019 18:24:56.000,327.488,1.715,2132.960489
16 Dec 2019 18:24:57.000,327.627,1.764,2128.035288
16 Dec 2019 18:24:58.000,327.767,1.812,2123.120907
16 Dec 2019 18:24:59.000,327.907,1.860,2118.217430
16 Dec 2019 18:25:00.000,328.049,1.909,2113.324935
16 Dec 2019 18:25:01.000,328.190,1.957,2108.443507
16 Dec 2019 18:25:02.000,328.333,2.005,2103.573229
16 Dec 2019 18:25:03.000,328.476,2.054,2098.714183
16 Dec 2019 18:25:04.000,328.620,2.102,2093.866454
16 Dec 2019 18:25:05.000,328.764,2.150,2089.030128
16 Dec 2019 18:25:06.000,328.909,2.199,2084.205286
16 Dec 2019 18:25:07.000,329.055,2.247,2079.392019
16 Dec 2019 18:25:08.000,329.201,2.296,2074.590408
16 Dec 2019 18:25:09.000,329.348,2.344,2069.800542
16 Dec 2019 18:25:10.000,329.496,2.392,2065.022512
16 Dec 2019 18:25:11.000,329.645,2.441,2060.256400
16 Dec 2019 18:25:12.000,329.794,2.489,2055.502300
16 Dec 2019 18:25:13.000,329.943,2.538,2050.760297
16 Dec 2019 18:25:14.000,330.094,2.586,2046.030483
16 Dec 2019 18:25:15.000,330.245,2.634,2041.312949
16 Dec 2019 18:25:16.000,330.397,2.683,2036.607783
16 Dec 2019 18:25:17.000,330.550,2.731,2031.915081
16 Dec 2019 18:25:18.000,330.703,2.780,2027.234931
16 Dec 2019 18:25:19.000,330.857,2.828,2022.567428
16 Dec 2019 18:25:20.000,331.011,2.877,2017.912664
16 Dec 2019 18:25:21.000,331.167,2.925,2013.270734
16 Dec 2019 18:25:22.000,331.323,2.973,2008.641733
16 Dec 2019 18:25:23.000,331.480,3.022,2004.025755
16 Dec 2019 18:25:24.000,331.637,3.070,1999.422897
16 Dec 2019 18:25:25.000,331.796,3.119,1994.833253
16 Dec 2019 18:25:26.000,331.955,3.167,1990.256923
16 Dec 2019 18:25:27.000,332.114,3.215,1985.694001
16 Dec 2019 18:25:28.000,332.275,3.264,1981.144589
16 Dec 2019 18:25:29.000,332.436,3.312,1976.608783
16 Dec 2019 18:25:30.000,332.598,3.360,1972.086684
16 Dec 2019 18:25:31.000,332.761,3.409,1967.578389
16 Dec 2019 18:25:32.000,332.924,3.457,1963.084003
16 Dec 2019 18:25:33.000,333.088,3.505,1958.603623
16 Dec 2019 18:25:34.000,333.253,3.553,1954.137354
16 Dec 2019 18:25:35.000,333.419,3.602,1949.685296
16 Dec 2019 18:25:36.000,333.585,3.650,1945.247554
16 Dec 2019 18:25:37.000,333.753,3.698,1940.824228
16 Dec 2019 18:25:38.000,333.921,3.746,1936.415427
16 Dec 2019 18:25:39.000,334.089,3.794,1932.021251
16 Dec 2019 18:25:40.000,334.259,3.842,1927.641810
16 Dec 2019 18:25:41.000,334.429,3.890,1923.277205
16 Dec 2019 18:25:42.000,334.600,3.938,1918.927547
16 Dec 2019 18:25:43.000,334.772,3.986,1914.592941
16 Dec 2019 18:25:44.000,334.945,4.034,1910.273493
16 Dec 2019 18:25:45.000,335.118,4.082,1905.969314
16 Dec 2019 18:25:46.000,335.292,4.130,1901.680511
16 Dec 2019 18:25:47.000,335.467,4.178,1897.407196
16 Dec 2019 18:25:48.000,335.643,4.226,1893.149476
16 Dec 2019 18:25:49.000,335.820,4.273,1888.907464
16 Dec 2019 18:25:50.000,335.997,4.321,1884.681270
16 Dec 2019 18:25:51.000,336.175,4.369,1880.471005
16 Dec 2019 18:25:52.000,336.354,4.416,1876.276783
16 Dec 2019 18:25:53.000,336.534,4.464,1872.098715
16 Dec 2019 18:25:54.000,336.715,4.511,1867.936917
16 Dec 2019 18:25:55.000,336.896,4.559,1863.791502
16 Dec 2019 18:25:56.000,337.078,4.606,1859.662582
16 Dec 2019 18:25:57.000,337.261,4.653,1855.550277
16 Dec 2019 18:25:58.000,337.445,4.701,1851.454697
16 Dec 2019 18:25:59.000,337.630,4.748,1847.375964
16 Dec 2019 18:26:00.000,337.815,4.795,1843.314191
16 Dec 2019 18:26:01.000,338.002,4.842,1839.269495
16 Dec 2019 18:26:02.000,338.189,4.889,1835.241996
16 Dec 2019 18:26:03.000,338.377,4.936,1831.231812
16 Dec 2019 18:26:04.000,338.566,4.983,1827.239060
16 Dec 2019 18:26:05.000,338.755,5.029,1823.263862
16 Dec 2019 18:26:06.000,338.946,5.076,1819.306336
16 Dec 2019 18:26:07.000,339.137,5.123,1815.366602
16 Dec 2019 18:26:08.000,339.330,5.169,1811.444783
16 Dec 2019 18:26:09.000,339.523,5.216,1807.540999
16 Dec 2019 18:26:10.000,339.716,5.262,1803.655371
16 Dec 2019 18:26:11.000,339.911,5.308,1799.788024
16 Dec 2019 18:26:12.000,340.107,5.354,1795.939078
16 Dec 2019 18:26:13.000,340.303,5.400,1792.108658
16 Dec 2019 18:26:14.000,340.501,5.446,1788.296886
16 Dec 2019 18:26:15.000,340.699,5.492,1784.503888
16 Dec 2019 18:26:16.000,340.898,5.538,1780.729788
16 Dec 2019 18:26:17.000,341.098,5.583,1776.974711
16 Dec 2019 18:26:18.000,341.298,5.629,1773.238781
16 Dec 2019 18:26:19.000,341.500,5.674,1769.522127
16 Dec 2019 18:26:20.000,341.702,5.720,1765.824872
16 Dec 2019 18:26:21.000,341.906,5.765,1762.147145
16 Dec 2019 18:26:22.000,342.110,5.810,1758.489070
16 Dec 2019 18:26:23.000,342.315,5.855,1754.850778
16 Dec 2019 18:26:24.000,342.521,5.900,1751.232395
16 Dec 2019 18:26:25.000,342.728,5.944,1747.634049
16 Dec 2019 18:26:26.000,342.935,5.989,1744.055868
16 Dec 2019 18:26:27.000,343.144,6.033,1740.497982
16 Dec 2019 18:26:28.000,343.353,6.078,1736.960520
16 Dec 2019 18:26:29.000,343.564,6.122,1733.443610
16 Dec 2019 18:26:30.000,343.775,6.166,1729.947383
16 Dec 2019 18:26:31.000,343.987,6.210,1726.471968
16 Dec 2019 18:26:32.000,344.200,6.253,1723.017495
16 Dec 2019 18:26:33.000,344.414,6.297,1719.584096
16 Dec 2019 18:26:34.000,344.628,6.340,1716.171901
16 Dec 2019 18:26:35.000,344.844,6.384,1712.781040
16 Dec 2019 18:26:36.000,345.060,6.427,1709.411646
16 Dec 2019 18:26:37.000,345.277,6.470,1706.063848
16 Dec 2019 18:26:38.000,345.496,6.512,1702.737779
16 Dec 2019 18:26:39.000,345.715,6.555,1699.433570
16 Dec 2019 18:26:40.000,345.935,6.597,1696.151353
16 Dec 2019 18:26:41.000,346.155,6.640,1692.891261
16 Dec 2019 18:26:42.000,346.377,6.682,1689.653425
16 Dec 2019 18:26:43.000,346.600,6.724,1686.437977
16 Dec 2019 18:26:44.000,346.823,6.765,1683.245050
16 Dec 2019 18:26:45.000,347.047,6.807,1680.074776
16 Dec 2019 18:26:46.000,347.272,6.848,1676.927288
16 Dec 2019 18:26:47.000,347.498,6.889,1673.802717
16 Dec 2019 18:26:48.000,347.725,6.930,1670.701197
16 Dec 2019 18:26:49.000,347.953,6.971,1667.622859
16 Dec 2019 18:26:50.000,348.182,7.011,1664.567837
16 Dec 2019 18:26:51.000,348.411,7.051,1661.536263
16 Dec 2019 18:26:52.000,348.641,7.092,1658.528268
16 Dec 2019 18:26:53.000,348.873,7.131,1655.543986
16 Dec 2019 18:26:54.000,349.105,7.171,1652.583548
16 Dec 2019 18:26:55.000,349.338,7.210,1649.647086
16 Dec 2019 18:26:56.000,349.571,7.250,1646.734733
16 Dec 2019 18:26:57.000,349.806,7.289,1643.846620
16 Dec 2019 18:26:58.000,350.041,7.327,1640.982879
16 Dec 2019 18:26:59.000,350.278,7.366,1638.143641
16 Dec 2019 18:27:00.000,350.515,7.404,1635.329037
16 Dec 2019 18:27:01.000,350.753,7.442,1632.539199
16 Dec 2019 18:27:02.000,350.992,7.480,1629.774256
16 Dec 2019 18:27:03.000,351.232,7.517,1627.034340
16 Dec 2019 18:27:04.000,351.472,7.554,1624.319580
16 Dec 2019 18:27:05.000,351.713,7.591,1621.630107
16 Dec 2019 18:27:06.000,351.956,7.628,1618.966049
16 Dec 2019 18:27:07.000,352.199,7.664,1616.327536
16 Dec 2019 18:27:08.000,352.442,7.701,1613.714696
16 Dec 2019 18:27:09.000,352.687,7.736,1611.127657
16 Dec 2019 18:27:10.000,352.933,7.772,1608.566547
16 Dec 2019 18:27:11.000,353.179,7.807,1606.031494
16 Dec 2019 18:27:12.000,353.426,7.842,1603.522624
16 Dec 2019 18:27:13.000,353.674,7.877,1601.040064
16 Dec 2019 18:27:14.000,353.922,7.911,1598.583939
16 Dec 2019 18:27:15.000,354.172,7.946,1596.154374
16 Dec 2019 18:27:16.000,354.422,7.979,1593.751494
16 Dec 2019 18:27:17.000,354.673,8.013,1591.375423
16 Dec 2019 18:27:18.000,354.925,8.046,1589.026284
16 Dec 2019 18:27:19.000,355.178,8.079,1586.704200
16 Dec 2019 18:27:20.000,355.431,8.112,1584.409293
16 Dec 2019 18:27:21.000,355.685,8.144,1582.141683
16 Dec 2019 18:27:22.000,355.940,8.176,1579.901492
16 Dec 2019 18:27:23.000,356.196,8.207,1577.688839
16 Dec 2019 18:27:24.000,356.452,8.239,1575.503842
16 Dec 2019 18:27:25.000,356.709,8.270,1573.346621
16 Dec 2019 18:27:26.000,356.967,8.300,1571.217291
16 Dec 2019 18:27:27.000,357.225,8.330,1569.115970
16 Dec 2019 18:27:28.000,357.485,8.360,1567.042773
16 Dec 2019 18:27:29.000,357.745,8.390,1564.997814
16 Dec 2019 18:27:30.000,358.005,8.419,1562.981206
16 Dec 2019 18:27:31.000,358.267,8.448,1560.993063
16 Dec 2019 18:27:32.000,358.529,8.476,1559.033495
16 Dec 2019 18:27:33.000,358.792,8.504,1557.102614
16 Dec 2019 18:27:34.000,359.055,8.532,1555.200528
16 Dec 2019 18:27:35.000,359.319,8.559,1553.327346
16 Dec 2019 18:27:36.000,359.584,8.586,1551.483174
16 Dec 2019 18:27:37.000,359.849,8.613,1549.668120
16 Dec 2019 18:27:38.000,0.115,8.639,1547.882287
16 Dec 2019 18:27:39.000,0.382,8.665,1546.125779
16 Dec 2019 18:27:40.000,0.650,8.690,1544.398699
16 Dec 2019 18:27:41.000,0.918,8.715,1542.701148
16 Dec 2019 18:27:42.000,1.186,8.740,1541.033226
16 Dec 2019 18:27:43.000,1.455,8.764,1539.395031
16 Dec 2019 18:27:44.000,1.725,8.788,1537.786660
16 Dec 2019 18:27:45.000,1.995,8.811,1536.208209
16 Dec 2019 18:27:46.000,2.266,8.834,1534.659773
16 Dec 2019 18:27:47.000,2.538,8.857,1533.141445
16 Dec 2019 18:27:48.000,2.810,8.879,1531.653316
16 Dec 2019 18:27:49.000,3.083,8.901,1530.195476
16 Dec 2019 18:27:50.000,3.356,8.922,1528.768015
16 Dec 2019 18:27:51.000,3.630,8.943,1527.371018
16 Dec 2019 18:27:52.000,3.904,8.964,1526.004572
16 Dec 2019 18:27:53.000,4.178,8.984,1524.668761
16 Dec 2019 18:27:54.000,4.454,9.003,1523.363667
16 Dec 2019 18:27:55.000,4.729,9.022,1522.089372
16 Dec 2019 18:27:56.000,5.006,9.041,1520.845953
16 Dec 2019 18:27:57.000,5.282,9.059,1519.633489
16 Dec 2019 18:27:58.000,5.559,9.077,1518.452056
16 Dec 2019 18:27:59.000,5.837,9.094,1517.301727
16 Dec 2019 18:28:00.000,6.115,9.111,1516.182575
16 Dec 2019 18:28:01.000,6.393,9.128,1515.094672
16 Dec 2019 18:28:02.000,6.672,9.144,1514.038085
16 Dec 2019 18:28:03.000,6.952,9.159,1513.012882
16 Dec 2019 18:28:04.000,7.231,9.174,1512.019128
16 Dec 2019 18:28:05.000,7.511,9.189,1511.056887
16 Dec 2019 18:28:06.000,7.792,9.203,1510.126220
16 Dec 2019 18:28:07.000,8.072,9.217,1509.227187
16 Dec 2019 18:28:08.000,8.354,9.230,1508.359847
16 Dec 2019 18:28:09.000,8.635,9.243,1507.524254
16 Dec 2019 18:28:10.000,8.917,9.255,1506.720464
16 Dec 2019 18:28:11.000,9.199,9.267,1505.948528
16 Dec 2019 18:28:12.000,9.481,9.278,1505.208497
16 Dec 2019 18:28:13.000,9.764,9.289,1504.500418
16 Dec 2019 18:28:14.000,10.047,9.299,1503.824339
16 Dec 2019 18:28:15.000,10.330,9.309,1503.180302
16 Dec 2019 18:28:16.000,10.613,9.318,1502.568352
16 Dec 2019 18:28:17.000,10.897,9.327,1501.988527
16 Dec 2019 18:28:18.000,11.181,9.335,1501.440866
16 Dec 2019 18:28:19.000,11.465,9.343,1500.925405
16 Dec 2019 18:28:20.000,11.749,9.351,1500.442178
16 Dec 2019 18:28:21.000,12.034,9.358,1499.991218
16 Dec 2019 18:28:22.000,12.319,9.364,1499.572555
16 Dec 2019 18:28:23.000,12.603,9.370,1499.186214
16 Dec 2019 18:28:24.000,12.888,9.375,1498.832224
16 Dec 2019 18:28:25.000,13.174,9.380,1498.510607
16 Dec 2019 18:28:26.000,13.459,9.385,1498.221385
16 Dec 2019 18:28:27.000,13.744,9.389,1497.964578
16 Dec 2019 18:28:28.000,14.030,9.392,1497.740202
16 Dec 2019 18:28:29.000,14.315,9.395,1497.548273
16 Dec 2019 18:28:30.000,14.601,9.397,1497.388804
16 Dec 2019 18:28:31.000,14.886,9.399,1497.261806
16 Dec 2019 18:28:32.000,15.172,9.401,1497.167287
16 Dec 2019 18:28:33.000,15.458,9.401,1497.105254
16 Dec 2019 18:28:34.000,15.744,9.402,1497.075711
16 Dec 2019 18:28:35.000,16.029,9.402,1497.078662
16 Dec 2019 18:28:36.000,16.315,9.401,1497.114105
16 Dec 2019 18:28:37.000,16.601,9.400,1497.182038
16 Dec 2019 18:28:38.000,16.887,9.398,1497.282459
16 Dec 2019 18:28:39.000,17.172,9.396,1497.415360
16 Dec 2019 18:28:40.000,17.458,9.394,1497.580732
16 Dec 2019 18:28:41.000,17.743,9.391,1497.778566
16 Dec 2019 18:28:42.000,18.029,9.387,1498.008848
16 Dec 2019 18:28:43.000,18.314,9.383,1498.271563
16 Dec 2019 18:28:44.000,18.599,9.378,1498.566695
16 Dec 2019 18:28:45.000,18.884,9.373,1498.894224
16 Dec 2019 18:28:46.000,19.169,9.368,1499.254129
16 Dec 2019 18:28:47.000,19.454,9.361,1499.646387
16 Dec 2019 18:28:48.000,19.739,9.355,1500.070972
16 Dec 2019 18:28:49.000,20.023,9.348,1500.527855
16 Dec 2019 18:28:50.000,20.308,9.340,1501.017008
16 Dec 2019 18:28:51.000,20.592,9.332,1501.538400
16 Dec 2019 18:28:52.000,20.876,9.323,1502.091996
16 Dec 2019 18:28:53.000,21.159,9.314,1502.677760
16 Dec 2019 18:28:54.000,21.443,9.305,1503.295654
16 Dec 2019 18:28:55.000,21.726,9.295,1503.945637
16 Dec 2019 18:28:56.000,22.009,9.284,1504.627670
16 Dec 2019 18:28:57.000,22.291,9.273,1505.341706
16 Dec 2019 18:28:58.000,22.574,9.262,1506.087701
16 Dec 2019 18:28:59.000,22.856,9.250,1506.865605
16 Dec 2019 18:29:00.000,23.137,9.237,1507.675370
16 Dec 2019 18:29:01.000,23.419,9.225,1508.516943
16 Dec 2019 18:29:02.000,23.700,9.211,1509.390270
16 Dec 2019 18:29:03.000,23.980,9.197,1510.295295
16 Dec 2019 18:29:04.000,24.261,9.183,1511.231962
16 Dec 2019 18:29:05.000,24.541,9.168,1512.200210
16 Dec 2019 18:29:06.000,24.820,9.153,1513.199977
16 Dec 2019 18:29:07.000,25.099,9.137,1514.231202
16 Dec 2019 18:29:08.000,25.378,9.121,1515.293818
16 Dec 2019 18:29:09.000,25.657,9.104,1516.387758
16 Dec 2019 18:29:10.000,25.935,9.087,1517.512955
16 Dec 2019 18:29:11.000,26.212,9.070,1518.669336
16 Dec 2019 18:29:12.000,26.489,9.052,1519.856832
16 Dec 2019 18:29:13.000,26.766,9.033,1521.075367
16 Dec 2019 18:29:14.000,27.042,9.014,1522.324864
16 Dec 2019 18:29:15.000,27.317,8.995,1523.605249
16 Dec 2019 18:29:16.000,27.593,8.975,1524.916441
16 Dec 2019 18:29:17.000,27.867,8.955,1526.258360
16 Dec 2019 18:29:18.000,28.141,8.934,1527.630925
16 Dec 2019 18:29:19.000,28.415,8.913,1529.034048
16 Dec 2019 18:29:20.000,28.688,8.892,1530.467649
16 Dec 2019 18:29:21.000,28.961,8.870,1531.931637
16 Dec 2019 18:29:22.000,29.233,8.847,1533.425926
16 Dec 2019 18:29:23.000,29.504,8.825,1534.950425
16 Dec 2019 18:29:24.000,29.775,8.801,1536.505043
16 Dec 2019 18:29:25.000,30.045,8.778,1538.089687
16 Dec 2019 18:29:26.000,30.315,8.754,1539.704264
16 Dec 2019 18:29:27.000,30.584,8.729,1541.348675
16 Dec 2019 18:29:28.000,30.852,8.705,1543.022826
16 Dec 2019 18:29:29.000,31.120,8.679,1544.726619
16 Dec 2019 18:29:30.000,31.387,8.654,1546.459952
16 Dec 2019 18:29:31.000,31.654,8.628,1548.222728
16 Dec 2019 18:29:32.000,31.920,8.601,1550.014840
16 Dec 2019 18:29:33.000,32.185,8.575,1551.836188
16 Dec 2019 18:29:34.000,32.450,8.548,1553.686666
16 Dec 2019 18:29:35.000,32.714,8.520,1555.566167
16 Dec 2019 18:29:36.000,32.977,8.492,1557.474589
16 Dec 2019 18:29:37.000,33.240,8.464,1559.411817
16 Dec 2019 18:29:38.000,33.502,8.435,1561.377747
16 Dec 2019 18:29:39.000,33.763,8.406,1563.372268
16 Dec 2019 18:29:40.000,34.024,8.377,1565.395266
16 Dec 2019 18:29:41.000,34.283,8.347,1567.446631
16 Dec 2019 18:29:42.000,34.543,8.317,1569.526251
16 Dec 2019 18:29:43.000,34.801,8.287,1571.634008
16 Dec 2019 18:29:44.000,35.059,8.256,1573.769790
16 Dec 2019 18:29:45.000,35.316,8.225,1575.933481
16 Dec 2019 18:29:46.000,35.572,8.193,1578.124960
16 Dec 2019 18:29:47.000,35.827,8.161,1580.344113
16 Dec 2019 18:29:48.000,36.082,8.129,1582.590820
16 Dec 2019 18:29:49.000,36.336,8.097,1584.864964
16 Dec 2019 18:29:50.000,36.589,8.064,1587.166421
16 Dec 2019 18:29:51.000,36.842,8.031,1589.495071
16 Dec 2019 18:29:52.000,37.093,7.998,1591.850793
16 Dec 2019 18:29:53.000,37.344,7.964,1594.233465
16 Dec 2019 18:29:54.000,37.594,7.930,1596.642965
16 Dec 2019 18:29:55.000,37.844,7.896,1599.079165
16 Dec 2019 18:29:56.000,38.092,7.861,1601.541944
16 Dec 2019 18:29:57.000,38.340,7.826,1604.031177
16 Dec 2019 18:29:58.000,38.587,7.791,1606.546737
16 Dec 2019 18:29:59.000,38.833,7.756,1609.088501
16 Dec 2019 18:30:00.000,39.078,7.720,1611.656338
16 Dec 2019 18:30:01.000,39.323,7.684,1614.250123
16 Dec 2019 18:30:02.000,39.566,7.648,1616.869729
16 Dec 2019 18:30:03.000,39.809,7.611,1619.515027
16 Dec 2019 18:30:04.000,40.051,7.574,1622.185889
16 Dec 2019 18:30:05.000,40.292,7.537,1624.882186
16 Dec 2019 18:30:06.000,40.533,7.500,1627.603789
16 Dec 2019 18:30:07.000,40.772,7.462,1630.350569
16 Dec 2019 18:30:08.000,41.011,7.424,1633.122397
16 Dec 2019 18:30:09.000,41.249,7.386,1635.919140
16 Dec 2019 18:30:10.000,41.486,7.348,1638.740668
16 Dec 2019 18:30:11.000,41.722,7.309,1641.586852
16 Dec 2019 18:30:12.000,41.957,7.270,1644.457559
16 Dec 2019 18:30:13.000,42.191,7.231,1647.352659
16 Dec 2019 18:30:14.000,42.425,7.192,1650.272021
16 Dec 2019 18:30:15.000,42.658,7.152,1653.215513
16 Dec 2019 18:30:16.000,42.890,7.112,1656.183002
16 Dec 2019 18:30:17.000,43.121,7.072,1659.174358
16 Dec 2019 18:30:18.000,43.351,7.032,1662.189448
16 Dec 2019 18:30:19.000,43.580,6.992,1665.228140
16 Dec 2019 18:30:20.000,43.808,6.951,1668.290302
16 Dec 2019 18:30:21.000,44.036,6.910,1671.375802
16 Dec 2019 18:30:22.000,44.263,6.869,1674.484507
16 Dec 2019 18:30:23.000,44.488,6.828,1677.616285
16 Dec 2019 18:30:24.000,44.713,6.786,1680.771005
16 Dec 2019 18:30:25.000,44.937,6.745,1683.948532
16 Dec 2019 18:30:26.000,45.161,6.703,1687.148736
16 Dec 2019 18:30:27.000,45.383,6.661,1690.371484
16 Dec 2019 18:30:28.000,45.604,6.619,1693.616642
16 Dec 2019 18:30:29.000,45.825,6.576,1696.884082
16 Dec 2019 18:30:30.000,46.045,6.534,1700.173670
16 Dec 2019 18:30:31.000,46.263,6.491,1703.485274
16 Dec 2019 18:30:32.000,46.481,6.448,1706.818763
16 Dec 2019 18:30:33.000,46.698,6.405,1710.174005
16 Dec 2019 18:30:34.000,46.915,6.362,1713.550869
16 Dec 2019 18:30:35.000,47.130,6.318,1716.949223
16 Dec 2019 18:30:36.000,47.344,6.275,1720.368936
16 Dec 2019 18:30:37.000,47.558,6.231,1723.809876
16 Dec 2019 18:30:38.000,47.771,6.187,1727.271916
16 Dec 2019 18:30:39.000,47.982,6.143,1730.754925
16 Dec 2019 18:30:40.000,48.193,6.099,1734.258771
16 Dec 2019 18:30:41.000,48.403,6.055,1737.783325
16 Dec 2019 18:30:42.000,48.612,6.010,1741.328458
16 Dec 2019 18:30:43.000,48.821,5.966,1744.894037
16 Dec 2019 18:30:44.000,49.028,5.921,1748.479940
16 Dec 2019 18:30:45.000,49.235,5.876,1752.086034
16 Dec 2019 18:30:46.000,49.440,5.831,1755.712192
16 Dec 2019 18:30:47.000,49.645,5.786,1759.358285
16 Dec 2019 18:30:48.000,49.849,5.741,1763.024183
16 Dec 2019 18:30:49.000,50.052,5.696,1766.709764
16 Dec 2019 18:30:50.000,50.255,5.650,1770.414900
16 Dec 2019 18:30:51.000,50.456,5.605,1774.139462
16 Dec 2019 18:30:52.000,50.656,5.559,1777.883323
16 Dec 2019 18:30:53.000,50.856,5.513,1781.646362
16 Dec 2019 18:30:54.000,51.055,5.467,1785.428452
16 Dec 2019 18:30:55.000,51.253,5.421,1789.229466
16 Dec 2019 18:30:56.000,51.450,5.375,1793.049279
16 Dec 2019 18:30:57.000,51.646,5.329,1796.887771
16 Dec 2019 18:30:58.000,51.841,5.283,1800.744816
16 Dec 2019 18:30:59.000,52.036,5.236,1804.620292
16 Dec 2019 18:31:00.000,52.229,5.190,1808.514072
16 Dec 2019 18:31:01.000,52.422,5.143,1812.426040
16 Dec 2019 18:31:02.000,52.614,5.097,1816.356071
16 Dec 2019 18:31:03.000,52.805,5.050,1820.304042
16 Dec 2019 18:31:04.000,52.996,5.003,1824.269837
16 Dec 2019 18:31:05.000,53.185,4.956,1828.253333
16 Dec 2019 18:31:06.000,53.374,4.910,1832.254408
16 Dec 2019 18:31:07.000,53.561,4.862,1836.272948
16 Dec 2019 18:31:08.000,53.748,4.815,1840.308831
16 Dec 2019 18:31:09.000,53.934,4.768,1844.361937
16 Dec 2019 18:31:10.000,54.120,4.721,1848.432153
16 Dec 2019 18:31:11.000,54.304,4.674,1852.519359
16 Dec 2019 18:31:12.000,54.488,4.626,1856.623435
16 Dec 2019 18:31:13.000,54.670,4.579,1860.744273
16 Dec 2019 18:31:14.000,54.852,4.531,1864.881749
16 Dec 2019 18:31:15.000,55.033,4.484,1869.035755
16 Dec 2019 18:31:16.000,55.214,4.436,1873.206173
16 Dec 2019 18:31:17.000,55.393,4.389,1877.392887
16 Dec 2019 18:31:18.000,55.572,4.341,1881.595789
16 Dec 2019 18:31:19.000,55.750,4.293,1885.814764
16 Dec 2019 18:31:20.000,55.927,4.245,1890.049696
16 Dec 2019 18:31:21.000,56.103,4.197,1894.300479
16 Dec 2019 18:31:22.000,56.279,4.150,1898.566997
16 Dec 2019 18:31:23.000,56.454,4.102,1902.849144
16 Dec 2019 18:31:24.000,56.627,4.054,1907.146806
16 Dec 2019 18:31:25.000,56.801,4.006,1911.459878
16 Dec 2019 18:31:26.000,56.973,3.958,1915.788249
16 Dec 2019 18:31:27.000,57.144,3.909,1920.131808
16 Dec 2019 18:31:28.000,57.315,3.861,1924.490452
16 Dec 2019 18:31:29.000,57.485,3.813,1928.864070
16 Dec 2019 18:31:30.000,57.654,3.765,1933.252561
16 Dec 2019 18:31:31.000,57.823,3.717,1937.655812
16 Dec 2019 18:31:32.000,57.991,3.668,1942.073725
16 Dec 2019 18:31:33.000,58.157,3.620,1946.506188
16 Dec 2019 18:31:34.000,58.324,3.572,1950.953105
16 Dec 2019 18:31:35.000,58.489,3.524,1955.414365
16 Dec 2019 18:31:36.000,58.654,3.475,1959.889872
16 Dec 2019 18:31:37.000,58.817,3.427,1964.379516
16 Dec 2019 18:31:38.000,58.981,3.378,1968.883204
16 Dec 2019 18:31:39.000,59.143,3.330,1973.400827
16 Dec 2019 18:31:40.000,59.305,3.282,1977.932291
16 Dec 2019 18:31:41.000,59.466,3.233,1982.477491
16 Dec 2019 18:31:42.000,59.626,3.185,1987.036333
16 Dec 2019 18:31:43.000,59.785,3.136,1991.608711
16 Dec 2019 18:31:44.000,59.944,3.088,1996.194536
16 Dec 2019 18:31:45.000,60.102,3.039,2000.793702
16 Dec 2019 18:31:46.000,60.259,2.991,2005.406119
16 Dec 2019 18:31:47.000,60.416,2.942,2010.031685
16 Dec 2019 18:31:48.000,60.571,2.894,2014.670309
16 Dec 2019 18:31:49.000,60.726,2.845,2019.321892
16 Dec 2019 18:31:50.000,60.881,2.797,2023.986345
16 Dec 2019 18:31:51.000,61.034,2.748,2028.663566
16 Dec 2019 18:31:52.000,61.187,2.700,2033.353468
16 Dec 2019 18:31:53.000,61.340,2.651,2038.055959
16 Dec 2019 18:31:54.000,61.491,2.603,2042.770941
16 Dec 2019 18:31:55.000,61.642,2.554,2047.498330
16 Dec 2019 18:31:56.000,61.792,2.505,2052.238027
16 Dec 2019 18:31:57.000,61.942,2.457,2056.989950
16 Dec 2019 18:31:58.000,62.090,2.408,2061.754001
16 Dec 2019 18:31:59.000,62.239,2.360,2066.530096
16 Dec 2019 18:32:00.000,62.386,2.311,2071.318148
16 Dec 2019 18:32:01.000,62.533,2.263,2076.118063
16 Dec 2019 18:32:02.000,62.679,2.214,2080.929760
16 Dec 2019 18:32:03.000,62.824,2.166,2085.753147
16 Dec 2019 18:32:04.000,62.969,2.117,2090.588139
16 Dec 2019 18:32:05.000,63.113,2.069,2095.434654
16 Dec 2019 18:32:06.000,63.256,2.020,2100.292602
16 Dec 2019 18:32:07.000,63.399,1.972,2105.161900
16 Dec 2019 18:32:08.000,63.541,1.923,2110.042468
16 Dec 2019 18:32:09.000,63.683,1.875,2114.934216
16 Dec 2019 18:32:10.000,63.823,1.827,2119.837068
16 Dec 2019 18:32:11.000,63.964,1.778,2124.750935
16 Dec 2019 18:32:12.000,64.103,1.730,2129.675739
16 Dec 2019 18:32:13.000,64.242,1.681,2134.611401
16 Dec 2019 18:32:14.000,64.380,1.633,2139.557834
16 Dec 2019 18:32:15.000,64.518,1.585,2144.514962
16 Dec 2019 18:32:16.000,64.655,1.536,2149.482709
16 Dec 2019 18:32:17.000,64.791,1.488,2154.460989
16 Dec 2019 18:32:18.000,64.927,1.440,2159.449728
16 Dec 2019 18:32:19.000,65.062,1.392,2164.448849
16 Dec 2019 18:32:20.000,65.197,1.343,2169.458270
16 Dec 2019 18:32:21.000,65.331,1.295,2174.477918
16 Dec 2019 18:32:22.000,65.464,1.247,2179.507718
16 Dec 2019 18:32:23.000,65.597,1.199,2184.547590
16 Dec 2019 18:32:24.000,65.729,1.151,2189.597461
16 Dec 2019 18:32:25.000,65.860,1.103,2194.657259
16 Dec 2019 18:32:26.000,65.991,1.054,2199.726905
16 Dec 2019 18:32:27.000,66.121,1.006,2204.806328
16 Dec 2019 18:32:28.000,66.251,0.958,2209.895458
16 Dec 2019 18:32:29.000,66.380,0.910,2214.994215
16 Dec 2019 18:32:30.000,66.509,0.862,2220.102533
16 Dec 2019 18:32:31.000,66.637,0.814,2225.220337
16 Dec 2019 18:32:32.000,66.764,0.766,2230.347563
16 Dec 2019 18:32:33.000,66.891,0.718,2235.484131
16 Dec 2019 18:32:34.000,67.017,0.671,2240.629975
16 Dec 2019 18:32:35.000,67.143,0.623,2245.785030
16 Dec 2019 18:32:36.000,67.268,0.575,2250.949220
16 Dec 2019 18:32:37.000,67.392,0.527,2256.122478
16 Dec 2019 18:32:38.000,67.516,0.479,2261.304739
16 Dec 2019 18:32:39.000,67.640,0.432,2266.495936
16 Dec 2019 18:32:40.000,67.763,0.384,2271.695998
16 Dec 2019 18:32:41.000,67.885,0.336,2276.904860
16 Dec 2019 18:32:42.000,68.007,0.289,2282.122456
16 Dec 2019 18:32:43.000,68.128,0.241,2287.348724
16 Dec 2019 18:32:44.000,68.249,0.193,2292.583593
16 Dec 2019 18:32:45.000,68.369,0.146,2297.827001
16 Dec 2019 18:32:46.000,68.488,0.098,2303.078888
16 Dec 2019 18:32:47.000,68.608,0.051,2308.339182
16 Dec 2019 18:32:48.000,68.726,0.003,2313.607824
16 Dec 2019 18:32:49.000,68.844,-0.044,2318.884752
16 Dec 2019 18:32:49.242,68.873,-0.056,2320.160961
16 Dec 2019 20:00:32.432,316.157,-0.056,2322.550584
16 Dec 2019 20:00:33.000,316.183,-0.022,2318.741167
16 Dec 2019 20:00:34.000,316.228,0.039,2312.034000
16 Dec 2019 20:00:35.000,316.274,0.099,2305.327923
16 Dec 2019 20:00:36.000,316.320,0.160,2298.622952
16 Dec 2019 20:00:37.000,316.366,0.220,2291.919107
16 Dec 2019 20:00:38.000,316.412,0.281,2285.216403
16 Dec 2019 20:00:39.000,316.459,0.342,2278.514863
16 Dec 2019 20:00:40.000,316.505,0.403,2271.814502
16 Dec 2019 20:00:41.000,316.553,0.465,2265.115339
16 Dec 2019 20:00:42.000,316.600,0.526,2258.417391
16 Dec 2019 20:00:43.000,316.648,0.588,2251.720681
16 Dec 2019 20:00:44.000,316.696,0.650,2245.025227
16 Dec 2019 20:00:45.000,316.744,0.712,2238.331047
16 Dec 2019 20:00:46.000,316.792,0.774,2231.638158
16 Dec 2019 20:00:47.000,316.841,0.836,2224.946586
16 Dec 2019 20:00:48.000,316.890,0.899,2218.256347
16 Dec 2019 20:00:49.000,316.939,0.962,2211.567462
16 Dec 2019 20:00:50.000,316.989,1.025,2204.879952
16 Dec 2019 20:00:51.000,317.038,1.088,2198.193834
16 Dec 2019 20:00:52.000,317.089,1.151,2191.509134
16 Dec 2019 20:00:53.000,317.139,1.215,2184.825871
16 Dec 2019 20:00:54.000,317.190,1.279,2178.144066
16 Dec 2019 20:00:55.000,317.241,1.343,2171.463738
16 Dec 2019 20:00:56.000,317.292,1.407,2164.784915
16 Dec 2019 20:00:57.000,317.344,1.471,2158.107615
16 Dec 2019 20:00:58.000,317.395,1.536,2151.431860
16 Dec 2019 20:00:59.000,317.448,1.600,2144.757671
16 Dec 2019 20:01:00.000,317.500,1.665,2138.085076
16 Dec 2019 20:01:01.000,317.553,1.730,2131.414095
16 Dec 2019 20:01:02.000,317.606,1.796,2124.744751
16 Dec 2019 20:01:03.000,317.659,1.861,2118.077068
16 Dec 2019 20:01:04.000,317.713,1.927,2111.411067
16 Dec 2019 20:01:05.000,317.767,1.993,2104.746777
16 Dec 2019 20:01:06.000,317.822,2.059,2098.084220
16 Dec 2019 20:01:07.000,317.876,2.126,2091.423421
16 Dec 2019 20:01:08.000,317.932,2.192,2084.764402
16 Dec 2019 20:01:09.000,317.987,2.259,2078.107193
16 Dec 2019 20:01:10.000,318.043,2.326,2071.451818
16 Dec 2019 20:01:11.000,318.099,2.393,2064.798301
16 Dec 2019 20:01:12.000,318.155,2.461,2058.146670
16 Dec 2019 20:01:13.000,318.212,2.529,2051.496948
16 Dec 2019 20:01:14.000,318.269,2.597,2044.849166
16 Dec 2019 20:01:15.000,318.327,2.665,2038.203350
16 Dec 2019 20:01:16.000,318.384,2.733,2031.559526
16 Dec 2019 20:01:17.000,318.443,2.802,2024.917720
16 Dec 2019 20:01:18.000,318.501,2.871,2018.277965
16 Dec 2019 20:01:19.000,318.560,2.940,2011.640286
16 Dec 2019 20:01:20.000,318.620,3.010,2005.004713
16 Dec 2019 20:01:21.000,318.679,3.079,1998.371274
16 Dec 2019 20:01:22.000,318.739,3.149,1991.739996
16 Dec 2019 20:01:23.000,318.800,3.219,1985.110914
16 Dec 2019 20:01:24.000,318.861,3.290,1978.484055
16 Dec 2019 20:01:25.000,318.922,3.360,1971.859450
16 Dec 2019 20:01:26.000,318.984,3.431,1965.237130
16 Dec 2019 20:01:27.000,319.046,3.502,1958.617124
16 Dec 2019 20:01:28.000,319.108,3.574,1951.999467
16 Dec 2019 20:01:29.000,319.171,3.645,1945.384190
16 Dec 2019 20:01:30.000,319.234,3.717,1938.771325
16 Dec 2019 20:01:31.000,319.298,3.790,1932.160905
16 Dec 2019 20:01:32.000,319.362,3.862,1925.552960
16 Dec 2019 20:01:33.000,319.427,3.935,1918.947529
16 Dec 2019 20:01:34.000,319.492,4.008,1912.344644
16 Dec 2019 20:01:35.000,319.557,4.081,1905.744339
16 Dec 2019 20:01:36.000,319.623,4.155,1899.146649
16 Dec 2019 20:01:37.000,319.690,4.229,1892.551606
16 Dec 2019 20:01:38.000,319.756,4.303,1885.959253
16 Dec 2019 20:01:39.000,319.824,4.377,1879.369622
16 Dec 2019 20:01:40.000,319.891,4.452,1872.782750
16 Dec 2019 20:01:41.000,319.960,4.527,1866.198674
16 Dec 2019 20:01:42.000,320.028,4.602,1859.617430
16 Dec 2019 20:01:43.000,320.097,4.678,1853.039061
16 Dec 2019 20:01:44.000,320.167,4.754,1846.463603
16 Dec 2019 20:01:45.000,320.237,4.830,1839.891096
16 Dec 2019 20:01:46.000,320.308,4.907,1833.321578
16 Dec 2019 20:01:47.000,320.379,4.984,1826.755088
16 Dec 2019 20:01:48.000,320.450,5.061,1820.191672
16 Dec 2019 20:01:49.000,320.523,5.138,1813.631368
16 Dec 2019 20:01:50.000,320.595,5.216,1807.074218
16 Dec 2019 20:01:51.000,320.668,5.294,1800.520265
16 Dec 2019 20:01:52.000,320.742,5.373,1793.969549
16 Dec 2019 20:01:53.000,320.816,5.451,1787.422119
16 Dec 2019 20:01:54.000,320.891,5.530,1780.878016
16 Dec 2019 20:01:55.000,320.966,5.610,1774.337286
16 Dec 2019 20:01:56.000,321.042,5.690,1767.799973
16 Dec 2019 20:01:57.000,321.119,5.770,1761.266122
16 Dec 2019 20:01:58.000,321.196,5.850,1754.735784
16 Dec 2019 20:01:59.000,321.273,5.931,1748.209003
16 Dec 2019 20:02:00.000,321.351,6.012,1741.685828
16 Dec 2019 20:02:01.000,321.430,6.094,1735.166307
16 Dec 2019 20:02:02.000,321.509,6.176,1728.650490
16 Dec 2019 20:02:03.000,321.589,6.258,1722.138424
16 Dec 2019 20:02:04.000,321.670,6.341,1715.630164
16 Dec 2019 20:02:05.000,321.751,6.424,1709.125760
16 Dec 2019 20:02:06.000,321.833,6.507,1702.625264
16 Dec 2019 20:02:07.000,321.915,6.591,1696.128729
16 Dec 2019 20:02:08.000,321.998,6.675,1689.636208
16 Dec 2019 20:02:09.000,322.082,6.759,1683.147753
16 Dec 2019 20:02:10.000,322.166,6.844,1676.663424
16 Dec 2019 20:02:11.000,322.251,6.929,1670.183275
16 Dec 2019 20:02:12.000,322.337,7.015,1663.707363
16 Dec 2019 20:02:13.000,322.423,7.101,1657.235745
16 Dec 2019 20:02:14.000,322.510,7.188,1650.768479
16 Dec 2019 20:02:15.000,322.598,7.275,1644.305623
16 Dec 2019 20:02:16.000,322.686,7.362,1637.847241
16 Dec 2019 20:02:17.000,322.775,7.450,1631.393392
16 Dec 2019 20:02:18.000,322.865,7.538,1624.944137
16 Dec 2019 20:02:19.000,322.955,7.626,1618.499541
16 Dec 2019 20:02:20.000,323.047,7.715,1612.059666
16 Dec 2019 20:02:21.000,323.139,7.805,1605.624577
16 Dec 2019 20:02:22.000,323.232,7.894,1599.194337
16 Dec 2019 20:02:23.000,323.325,7.985,1592.769018
16 Dec 2019 20:02:24.000,323.419,8.075,1586.348686
16 Dec 2019 20:02:25.000,323.514,8.167,1579.933408
16 Dec 2019 20:02:26.000,323.610,8.258,1573.523254
16 Dec 2019 20:02:27.000,323.707,8.350,1567.118295
16 Dec 2019 20:02:28.000,323.805,8.443,1560.718604
16 Dec 2019 20:02:29.000,323.903,8.536,1554.324250
16 Dec 2019 20:02:30.000,324.002,8.629,1547.935312
16 Dec 2019 20:02:31.000,324.102,8.723,1541.551863
16 Dec 2019 20:02:32.000,324.203,8.818,1535.173980
16 Dec 2019 20:02:33.000,324.305,8.913,1528.801739
16 Dec 2019 20:02:34.000,324.407,9.008,1522.435220
16 Dec 2019 20:02:35.000,324.511,9.104,1516.074502
16 Dec 2019 20:02:36.000,324.615,9.200,1509.719667
16 Dec 2019 20:02:37.000,324.720,9.297,1503.370794
16 Dec 2019 20:02:38.000,324.826,9.395,1497.027973
16 Dec 2019 20:02:39.000,324.934,9.493,1490.691285
16 Dec 2019 20:02:40.000,325.042,9.591,1484.360817
16 Dec 2019 20:02:41.000,325.151,9.690,1478.036656
16 Dec 2019 20:02:42.000,325.261,9.790,1471.718893
16 Dec 2019 20:02:43.000,325.372,9.890,1465.407616
16 Dec 2019 20:02:44.000,325.484,9.990,1459.102919
16 Dec 2019 20:02:45.000,325.597,10.092,1452.804895
16 Dec 2019 20:02:46.000,325.711,10.193,1446.513636
16 Dec 2019 20:02:47.000,325.826,10.296,1440.229244
16 Dec 2019 20:02:48.000,325.942,10.398,1433.951813
16 Dec 2019 20:02:49.000,326.059,10.502,1427.681444
16 Dec 2019 20:02:50.000,326.178,10.606,1421.418238
16 Dec 2019 20:02:51.000,326.297,10.710,1415.162297
16 Dec 2019 20:02:52.000,326.417,10.815,1408.913726
16 Dec 2019 20:02:53.000,326.539,10.921,1402.672632
16 Dec 2019 20:02:54.000,326.662,11.027,1396.439122
16 Dec 2019 20:02:55.000,326.786,11.134,1390.213305
16 Dec 2019 20:02:56.000,326.911,11.242,1383.995295
16 Dec 2019 20:02:57.000,327.037,11.350,1377.785203
16 Dec 2019 20:02:58.000,327.165,11.459,1371.583143
16 Dec 2019 20:02:59.000,327.293,11.568,1365.389237
16 Dec 2019 20:03:00.000,327.423,11.678,1359.203600
16 Dec 2019 20:03:01.000,327.555,11.789,1353.026355
16 Dec 2019 20:03:02.000,327.687,11.900,1346.857625
16 Dec 2019 20:03:03.000,327.821,12.012,1340.697534
16 Dec 2019 20:03:04.000,327.956,12.125,1334.546211
16 Dec 2019 20:03:05.000,328.093,12.238,1328.403783
16 Dec 2019 20:03:06.000,328.230,12.352,1322.270383
16 Dec 2019 20:03:07.000,328.370,12.467,1316.146146
16 Dec 2019 20:03:08.000,328.510,12.582,1310.031206
16 Dec 2019 20:03:09.000,328.652,12.698,1303.925702
16 Dec 2019 20:03:10.000,328.796,12.815,1297.829775
16 Dec 2019 20:03:11.000,328.941,12.932,1291.743568
16 Dec 2019 20:03:12.000,329.087,13.050,1285.667227
16 Dec 2019 20:03:13.000,329.235,13.169,1279.600899
16 Dec 2019 20:03:14.000,329.384,13.289,1273.544736
16 Dec 2019 20:03:15.000,329.535,13.409,1267.498891
16 Dec 2019 20:03:16.000,329.688,13.530,1261.463519
16 Dec 2019 20:03:17.000,329.842,13.652,1255.438779
16 Dec 2019 20:03:18.000,329.997,13.774,1249.424832
16 Dec 2019 20:03:19.000,330.155,13.898,1243.421843
16 Dec 2019 20:03:20.000,330.314,14.022,1237.429978
16 Dec 2019 20:03:21.000,330.475,14.147,1231.449408
16 Dec 2019 20:03:22.000,330.637,14.272,1225.480304
16 Dec 2019 20:03:23.000,330.801,14.398,1219.522843
16 Dec 2019 20:03:24.000,330.967,14.526,1213.577204
16 Dec 2019 20:03:25.000,331.135,14.654,1207.643569
16 Dec 2019 20:03:26.000,331.304,14.782,1201.722123
16 Dec 2019 20:03:27.000,331.476,14.912,1195.813054
16 Dec 2019 20:03:28.000,331.649,15.042,1189.916554
16 Dec 2019 20:03:29.000,331.824,15.173,1184.032819
16 Dec 2019 20:03:30.000,332.001,15.305,1178.162046
16 Dec 2019 20:03:31.000,332.180,15.438,1172.304438
16 Dec 2019 20:03:32.000,332.361,15.572,1166.460202
16 Dec 2019 20:03:33.000,332.544,15.706,1160.629545
16 Dec 2019 20:03:34.000,332.729,15.842,1154.812681
16 Dec 2019 20:03:35.000,332.916,15.978,1149.009826
16 Dec 2019 20:03:36.000,333.106,16.115,1143.221202
16 Dec 2019 20:03:37.000,333.297,16.253,1137.447033
16 Dec 2019 20:03:38.000,333.491,16.392,1131.687547
16 Dec 2019 20:03:39.000,333.687,16.532,1125.942977
16 Dec 2019 20:03:40.000,333.885,16.672,1120.213562
16 Dec 2019 20:03:41.000,334.085,16.814,1114.499538
16 Dec 2019 20:03:42.000,334.288,16.956,1108.801152
16 Dec 2019 20:03:43.000,334.493,17.099,1103.118655
16 Dec 2019 20:03:44.000,334.701,17.243,1097.452300
16 Dec 2019 20:03:45.000,334.911,17.389,1091.802345
16 Dec 2019 20:03:46.000,335.123,17.535,1086.169054
16 Dec 2019 20:03:47.000,335.338,17.681,1080.552695
16 Dec 2019 20:03:48.000,335.556,17.829,1074.953538
16 Dec 2019 20:03:49.000,335.776,17.978,1069.371865
16 Dec 2019 20:03:50.000,335.999,18.128,1063.807953
16 Dec 2019 20:03:51.000,336.224,18.278,1058.262092
16 Dec 2019 20:03:52.000,336.453,18.430,1052.734573
16 Dec 2019 20:03:53.000,336.684,18.583,1047.225695
16 Dec 2019 20:03:54.000,336.918,18.736,1041.735759
16 Dec 2019 20:03:55.000,337.154,18.890,1036.265075
16 Dec 2019 20:03:56.000,337.394,19.046,1030.813955
16 Dec 2019 20:03:57.000,337.636,19.202,1025.382718
16 Dec 2019 20:03:58.000,337.882,19.359,1019.971689
16 Dec 2019 20:03:59.000,338.131,19.518,1014.581197
16 Dec 2019 20:04:00.000,338.382,19.677,1009.211579
16 Dec 2019 20:04:01.000,338.637,19.837,1003.863179
16 Dec 2019 20:04:02.000,338.896,19.998,998.536340
