vcc_sched/network/input/aer_uvags_wj2xmr_vcc-b_44431.csv

"Time (UTCG)","Azimuth (deg)","Elevation (deg)","Range (km)"
1 Dec 2019 17:35:29.435,155.293,-0.124,2318.479793
1 Dec 2019 17:35:30.000,155.205,-0.106,2316.455941
1 Dec 2019 17:35:31.000,155.049,-0.074,2312.888002
1 Dec 2019 17:35:32.000,154.892,-0.042,2309.335645
1 Dec 2019 17:35:33.000,154.734,-0.010,2305.798944
1 Dec 2019 17:35:34.000,154.576,0.022,2302.277978
1 Dec 2019 17:35:35.000,154.418,0.054,2298.772824
1 Dec 2019 17:35:36.000,154.259,0.086,2295.283559
1 Dec 2019 17:35:37.000,154.100,0.118,2291.810262
1 Dec 2019 17:35:38.000,153.940,0.149,2288.353008
1 Dec 2019 17:35:39.000,153.780,0.181,2284.911875
1 Dec 2019 17:35:40.000,153.619,0.212,2281.486941
1 Dec 2019 17:35:41.000,153.458,0.244,2278.078284
1 Dec 2019 17:35:42.000,153.296,0.275,2274.685983
1 Dec 2019 17:35:43.000,153.134,0.306,2271.310114
1 Dec 2019 17:35:44.000,152.971,0.337,2267.950759
1 Dec 2019 17:35:45.000,152.808,0.368,2264.607991
1 Dec 2019 17:35:46.000,152.644,0.399,2261.281890
1 Dec 2019 17:35:47.000,152.480,0.429,2257.972535
1 Dec 2019 17:35:48.000,152.315,0.460,2254.680004
1 Dec 2019 17:35:49.000,152.150,0.490,2251.404375
1 Dec 2019 17:35:50.000,151.984,0.521,2248.145728
1 Dec 2019 17:35:51.000,151.818,0.551,2244.904140
1 Dec 2019 17:35:52.000,151.651,0.581,2241.679690
1 Dec 2019 17:35:53.000,151.484,0.611,2238.472456
1 Dec 2019 17:35:54.000,151.317,0.641,2235.282518
1 Dec 2019 17:35:55.000,151.149,0.671,2232.109953
1 Dec 2019 17:35:56.000,150.980,0.701,2228.954842
1 Dec 2019 17:35:57.000,150.811,0.730,2225.817261
1 Dec 2019 17:35:58.000,150.641,0.760,2222.697289
1 Dec 2019 17:35:59.000,150.471,0.789,2219.595006
1 Dec 2019 17:36:00.000,150.301,0.818,2216.510490
1 Dec 2019 17:36:01.000,150.130,0.847,2213.443819
1 Dec 2019 17:36:02.000,149.958,0.876,2210.395072
1 Dec 2019 17:36:03.000,149.786,0.905,2207.364328
1 Dec 2019 17:36:04.000,149.614,0.934,2204.351666
1 Dec 2019 17:36:05.000,149.441,0.962,2201.357163
1 Dec 2019 17:36:06.000,149.268,0.991,2198.380898
1 Dec 2019 17:36:07.000,149.094,1.019,2195.422950
1 Dec 2019 17:36:08.000,148.919,1.047,2192.483397
1 Dec 2019 17:36:09.000,148.745,1.075,2189.562317
1 Dec 2019 17:36:10.000,148.569,1.103,2186.659789
1 Dec 2019 17:36:11.000,148.394,1.131,2183.775890
1 Dec 2019 17:36:12.000,148.217,1.158,2180.910698
1 Dec 2019 17:36:13.000,148.041,1.186,2178.064292
1 Dec 2019 17:36:14.000,147.864,1.213,2175.236749
1 Dec 2019 17:36:15.000,147.686,1.240,2172.428145
1 Dec 2019 17:36:16.000,147.508,1.267,2169.638562
1 Dec 2019 17:36:17.000,147.329,1.294,2166.868074
1 Dec 2019 17:36:18.000,147.150,1.321,2164.116760
1 Dec 2019 17:36:19.000,146.971,1.348,2161.384696
1 Dec 2019 17:36:20.000,146.791,1.374,2158.671960
1 Dec 2019 17:36:21.000,146.610,1.401,2155.978628
1 Dec 2019 17:36:22.000,146.429,1.427,2153.304777
1 Dec 2019 17:36:23.000,146.248,1.453,2150.650483
1 Dec 2019 17:36:24.000,146.066,1.479,2148.015823
1 Dec 2019 17:36:25.000,145.884,1.504,2145.400874
1 Dec 2019 17:36:26.000,145.701,1.530,2142.805708
1 Dec 2019 17:36:27.000,145.518,1.555,2140.230406
1 Dec 2019 17:36:28.000,145.335,1.580,2137.675041
1 Dec 2019 17:36:29.000,145.151,1.605,2135.139689
1 Dec 2019 17:36:30.000,144.966,1.630,2132.624424
1 Dec 2019 17:36:31.000,144.781,1.655,2130.129322
1 Dec 2019 17:36:32.000,144.596,1.680,2127.654454
1 Dec 2019 17:36:33.000,144.410,1.704,2125.199900
1 Dec 2019 17:36:34.000,144.224,1.728,2122.765732
1 Dec 2019 17:36:35.000,144.037,1.752,2120.352022
1 Dec 2019 17:36:36.000,143.850,1.776,2117.958846
1 Dec 2019 17:36:37.000,143.663,1.800,2115.586273
1 Dec 2019 17:36:38.000,143.475,1.823,2113.234381
1 Dec 2019 17:36:39.000,143.286,1.847,2110.903240
1 Dec 2019 17:36:40.000,143.097,1.870,2108.592923
1 Dec 2019 17:36:41.000,142.908,1.893,2106.303501
1 Dec 2019 17:36:42.000,142.719,1.916,2104.035045
1 Dec 2019 17:36:43.000,142.529,1.938,2101.787629
1 Dec 2019 17:36:44.000,142.338,1.961,2099.561323
1 Dec 2019 17:36:45.000,142.147,1.983,2097.356196
1 Dec 2019 17:36:46.000,141.956,2.005,2095.172318
1 Dec 2019 17:36:47.000,141.764,2.027,2093.009762
1 Dec 2019 17:36:48.000,141.572,2.049,2090.868595
1 Dec 2019 17:36:49.000,141.380,2.070,2088.748884
1 Dec 2019 17:36:50.000,141.187,2.092,2086.650702
1 Dec 2019 17:36:51.000,140.993,2.113,2084.574115
1 Dec 2019 17:36:52.000,140.800,2.134,2082.519191
1 Dec 2019 17:36:53.000,140.606,2.155,2080.485995
1 Dec 2019 17:36:54.000,140.411,2.175,2078.474599
1 Dec 2019 17:36:55.000,140.216,2.196,2076.485065
1 Dec 2019 17:36:56.000,140.021,2.216,2074.517459
1 Dec 2019 17:36:57.000,139.825,2.236,2072.571850
1 Dec 2019 17:36:58.000,139.629,2.255,2070.648301
1 Dec 2019 17:36:59.000,139.433,2.275,2068.746874
1 Dec 2019 17:37:00.000,139.236,2.294,2066.867638
1 Dec 2019 17:37:01.000,139.039,2.313,2065.010651
1 Dec 2019 17:37:02.000,138.842,2.332,2063.175981
1 Dec 2019 17:37:03.000,138.644,2.351,2061.363689
1 Dec 2019 17:37:04.000,138.446,2.370,2059.573833
1 Dec 2019 17:37:05.000,138.247,2.388,2057.806480
1 Dec 2019 17:37:06.000,138.048,2.406,2056.061687
1 Dec 2019 17:37:07.000,137.849,2.424,2054.339517
1 Dec 2019 17:37:08.000,137.650,2.442,2052.640028
1 Dec 2019 17:37:09.000,137.450,2.459,2050.963277
1 Dec 2019 17:37:10.000,137.250,2.476,2049.309328
1 Dec 2019 17:37:11.000,137.049,2.494,2047.678232
1 Dec 2019 17:37:12.000,136.848,2.510,2046.070054
1 Dec 2019 17:37:13.000,136.647,2.527,2044.484843
1 Dec 2019 17:37:14.000,136.445,2.543,2042.922661
1 Dec 2019 17:37:15.000,136.244,2.559,2041.383559
1 Dec 2019 17:37:16.000,136.041,2.575,2039.867597
1 Dec 2019 17:37:17.000,135.839,2.591,2038.374822
1 Dec 2019 17:37:18.000,135.636,2.607,2036.905295
1 Dec 2019 17:37:19.000,135.433,2.622,2035.459062
1 Dec 2019 17:37:20.000,135.230,2.637,2034.036181
1 Dec 2019 17:37:21.000,135.026,2.652,2032.636698
1 Dec 2019 17:37:22.000,134.822,2.666,2031.260668
1 Dec 2019 17:37:23.000,134.618,2.681,2029.908138
1 Dec 2019 17:37:24.000,134.414,2.695,2028.579160
1 Dec 2019 17:37:25.000,134.209,2.709,2027.273780
1 Dec 2019 17:37:26.000,134.004,2.722,2025.992048
1 Dec 2019 17:37:27.000,133.799,2.736,2024.734009
1 Dec 2019 17:37:28.000,133.593,2.749,2023.499709
1 Dec 2019 17:37:29.000,133.387,2.762,2022.289199
1 Dec 2019 17:37:30.000,133.181,2.774,2021.102517
1 Dec 2019 17:37:31.000,132.975,2.787,2019.939712
1 Dec 2019 17:37:32.000,132.768,2.799,2018.800823
1 Dec 2019 17:37:33.000,132.562,2.811,2017.685895
1 Dec 2019 17:37:34.000,132.355,2.823,2016.594972
1 Dec 2019 17:37:35.000,132.147,2.834,2015.528090
1 Dec 2019 17:37:36.000,131.940,2.846,2014.485291
1 Dec 2019 17:37:37.000,131.732,2.857,2013.466619
1 Dec 2019 17:37:38.000,131.524,2.867,2012.472105
1 Dec 2019 17:37:39.000,131.316,2.878,2011.501790
1 Dec 2019 17:37:40.000,131.108,2.888,2010.555714
1 Dec 2019 17:37:41.000,130.900,2.898,2009.633907
1 Dec 2019 17:37:42.000,130.691,2.908,2008.736407
1 Dec 2019 17:37:43.000,130.482,2.917,2007.863252
1 Dec 2019 17:37:44.000,130.273,2.927,2007.014469
1 Dec 2019 17:37:45.000,130.064,2.936,2006.190094
1 Dec 2019 17:37:46.000,129.854,2.944,2005.390161
1 Dec 2019 17:37:47.000,129.645,2.953,2004.614695
1 Dec 2019 17:37:48.000,129.435,2.961,2003.863729
1 Dec 2019 17:37:49.000,129.225,2.969,2003.137293
1 Dec 2019 17:37:50.000,129.015,2.977,2002.435417
1 Dec 2019 17:37:51.000,128.805,2.984,2001.758124
1 Dec 2019 17:37:52.000,128.594,2.992,2001.105441
1 Dec 2019 17:37:53.000,128.384,2.999,2000.477396
1 Dec 2019 17:37:54.000,128.173,3.005,1999.874011
1 Dec 2019 17:37:55.000,127.962,3.012,1999.295315
1 Dec 2019 17:37:56.000,127.752,3.018,1998.741324
1 Dec 2019 17:37:57.000,127.541,3.024,1998.212063
1 Dec 2019 17:37:58.000,127.329,3.030,1997.707553
1 Dec 2019 17:37:59.000,127.118,3.035,1997.227813
1 Dec 2019 17:38:00.000,126.907,3.040,1996.772863
1 Dec 2019 17:38:01.000,126.696,3.045,1996.342725
1 Dec 2019 17:38:02.000,126.484,3.050,1995.937408
1 Dec 2019 17:38:03.000,126.272,3.054,1995.556933
1 Dec 2019 17:38:04.000,126.061,3.059,1995.201314
1 Dec 2019 17:38:05.000,125.849,3.062,1994.870567
1 Dec 2019 17:38:06.000,125.637,3.066,1994.564705
1 Dec 2019 17:38:07.000,125.425,3.069,1994.283739
1 Dec 2019 17:38:08.000,125.213,3.073,1994.027682
1 Dec 2019 17:38:09.000,125.001,3.075,1993.796544
1 Dec 2019 17:38:10.000,124.789,3.078,1993.590337
1 Dec 2019 17:38:11.000,124.577,3.080,1993.409065
1 Dec 2019 17:38:12.000,124.365,3.082,1993.252738
1 Dec 2019 17:38:13.000,124.153,3.084,1993.121363
1 Dec 2019 17:38:14.000,123.941,3.086,1993.014945
1 Dec 2019 17:38:15.000,123.728,3.087,1992.933489
1 Dec 2019 17:38:16.000,123.516,3.088,1992.876999
1 Dec 2019 17:38:17.000,123.304,3.089,1992.845478
1 Dec 2019 17:38:18.000,123.092,3.089,1992.838927
1 Dec 2019 17:38:19.000,122.880,3.089,1992.857348
1 Dec 2019 17:38:20.000,122.667,3.089,1992.900741
1 Dec 2019 17:38:21.000,122.455,3.089,1992.969104
1 Dec 2019 17:38:22.000,122.243,3.088,1993.062436
1 Dec 2019 17:38:23.000,122.031,3.087,1993.180733
1 Dec 2019 17:38:24.000,121.819,3.086,1993.323991
1 Dec 2019 17:38:25.000,121.606,3.085,1993.492206
1 Dec 2019 17:38:26.000,121.394,3.083,1993.685372
1 Dec 2019 17:38:27.000,121.182,3.081,1993.903482
1 Dec 2019 17:38:28.000,120.970,3.079,1994.146524
1 Dec 2019 17:38:29.000,120.758,3.077,1994.414497
1 Dec 2019 17:38:30.000,120.547,3.074,1994.707388
1 Dec 2019 17:38:31.000,120.335,3.071,1995.025185
1 Dec 2019 17:38:32.000,120.123,3.068,1995.367878
1 Dec 2019 17:38:33.000,119.911,3.065,1995.735453
1 Dec 2019 17:38:34.000,119.700,3.061,1996.127897
1 Dec 2019 17:38:35.000,119.488,3.057,1996.545196
1 Dec 2019 17:38:36.000,119.277,3.053,1996.987334
1 Dec 2019 17:38:37.000,119.066,3.048,1997.454291
1 Dec 2019 17:38:38.000,118.855,3.043,1997.946057
1 Dec 2019 17:38:39.000,118.643,3.038,1998.462610
1 Dec 2019 17:38:40.000,118.433,3.033,1999.003931
1 Dec 2019 17:38:41.000,118.222,3.027,1999.570000
1 Dec 2019 17:38:42.000,118.011,3.022,2000.160792
1 Dec 2019 17:38:43.000,117.800,3.015,2000.776292
1 Dec 2019 17:38:44.000,117.590,3.009,2001.416474
1 Dec 2019 17:38:45.000,117.380,3.003,2002.081314
1 Dec 2019 17:38:46.000,117.169,2.996,2002.770787
1 Dec 2019 17:38:47.000,116.959,2.989,2003.484865
1 Dec 2019 17:38:48.000,116.750,2.981,2004.223526
1 Dec 2019 17:38:49.000,116.540,2.974,2004.986742
1 Dec 2019 17:38:50.000,116.330,2.966,2005.774483
1 Dec 2019 17:38:51.000,116.121,2.958,2006.586716
1 Dec 2019 17:38:52.000,115.912,2.949,2007.423419
1 Dec 2019 17:38:53.000,115.703,2.941,2008.284557
1 Dec 2019 17:38:54.000,115.494,2.932,2009.170099
1 Dec 2019 17:38:55.000,115.285,2.923,2010.080007
1 Dec 2019 17:38:56.000,115.077,2.913,2011.014256
1 Dec 2019 17:38:57.000,114.869,2.904,2011.972807
1 Dec 2019 17:38:58.000,114.661,2.894,2012.955622
1 Dec 2019 17:38:59.000,114.453,2.884,2013.962672
1 Dec 2019 17:39:00.000,114.245,2.873,2014.993916
1 Dec 2019 17:39:01.000,114.038,2.863,2016.049314
1 Dec 2019 17:39:02.000,113.831,2.852,2017.128833
1 Dec 2019 17:39:03.000,113.624,2.841,2018.232430
1 Dec 2019 17:39:04.000,113.417,2.830,2019.360062
1 Dec 2019 17:39:05.000,113.211,2.818,2020.511695
1 Dec 2019 17:39:06.000,113.005,2.806,2021.687281
1 Dec 2019 17:39:07.000,112.799,2.794,2022.886782
1 Dec 2019 17:39:08.000,112.593,2.782,2024.110154
1 Dec 2019 17:39:09.000,112.388,2.769,2025.357348
1 Dec 2019 17:39:10.000,112.183,2.756,2026.628326
1 Dec 2019 17:39:11.000,111.978,2.743,2027.923035
1 Dec 2019 17:39:12.000,111.773,2.730,2029.241437
1 Dec 2019 17:39:13.000,111.569,2.717,2030.583477
1 Dec 2019 17:39:14.000,111.365,2.703,2031.949114
1 Dec 2019 17:39:15.000,111.161,2.689,2033.338296
1 Dec 2019 17:39:16.000,110.957,2.675,2034.750970
1 Dec 2019 17:39:17.000,110.754,2.660,2036.187094
1 Dec 2019 17:39:18.000,110.551,2.646,2037.646610
1 Dec 2019 17:39:19.000,110.349,2.631,2039.129473
1 Dec 2019 17:39:20.000,110.146,2.616,2040.635624
1 Dec 2019 17:39:21.000,109.944,2.601,2042.165018
1 Dec 2019 17:39:22.000,109.743,2.585,2043.717593
1 Dec 2019 17:39:23.000,109.541,2.569,2045.293304
1 Dec 2019 17:39:24.000,109.340,2.553,2046.892088
1 Dec 2019 17:39:25.000,109.140,2.537,2048.513897
1 Dec 2019 17:39:26.000,108.939,2.521,2050.158667
1 Dec 2019 17:39:27.000,108.739,2.504,2051.826347
1 Dec 2019 17:39:28.000,108.539,2.487,2053.516882
1 Dec 2019 17:39:29.000,108.340,2.470,2055.230206
1 Dec 2019 17:39:30.000,108.141,2.453,2056.966270
1 Dec 2019 17:39:31.000,107.942,2.435,2058.725007
1 Dec 2019 17:39:32.000,107.744,2.417,2060.506364
1 Dec 2019 17:39:33.000,107.546,2.399,2062.310273
1 Dec 2019 17:39:34.000,107.348,2.381,2064.136679
1 Dec 2019 17:39:35.000,107.151,2.363,2065.985523
1 Dec 2019 17:39:36.000,106.954,2.344,2067.856736
1 Dec 2019 17:39:37.000,106.758,2.326,2069.750260
1 Dec 2019 17:39:38.000,106.561,2.307,2071.666034
1 Dec 2019 17:39:39.000,106.366,2.287,2073.603989
1 Dec 2019 17:39:40.000,106.170,2.268,2075.564068
1 Dec 2019 17:39:41.000,105.975,2.248,2077.546200
1 Dec 2019 17:39:42.000,105.781,2.229,2079.550322
1 Dec 2019 17:39:43.000,105.586,2.209,2081.576374
1 Dec 2019 17:39:44.000,105.392,2.188,2083.624282
1 Dec 2019 17:39:45.000,105.199,2.168,2085.693984
1 Dec 2019 17:39:46.000,105.006,2.147,2087.785416
1 Dec 2019 17:39:47.000,104.813,2.127,2089.898504
1 Dec 2019 17:39:48.000,104.621,2.106,2092.033184
1 Dec 2019 17:39:49.000,104.429,2.084,2094.189388
1 Dec 2019 17:39:50.000,104.237,2.063,2096.367052
1 Dec 2019 17:39:51.000,104.046,2.042,2098.566099
1 Dec 2019 17:39:52.000,103.856,2.020,2100.786463
1 Dec 2019 17:39:53.000,103.666,1.998,2103.028076
1 Dec 2019 17:39:54.000,103.476,1.976,2105.290869
1 Dec 2019 17:39:55.000,103.286,1.953,2107.574767
1 Dec 2019 17:39:56.000,103.097,1.931,2109.879702
1 Dec 2019 17:39:57.000,102.909,1.908,2112.205603
1 Dec 2019 17:39:58.000,102.721,1.886,2114.552401
1 Dec 2019 17:39:59.000,102.533,1.863,2116.920019
1 Dec 2019 17:40:00.000,102.346,1.839,2119.308387
1 Dec 2019 17:40:01.000,102.159,1.816,2121.717433
1 Dec 2019 17:40:02.000,101.972,1.792,2124.147085
1 Dec 2019 17:40:03.000,101.786,1.769,2126.597273
1 Dec 2019 17:40:04.000,101.601,1.745,2129.067916
1 Dec 2019 17:40:05.000,101.416,1.721,2131.558945
1 Dec 2019 17:40:06.000,101.231,1.697,2134.070286
1 Dec 2019 17:40:07.000,101.047,1.672,2136.601865
1 Dec 2019 17:40:08.000,100.863,1.648,2139.153607
1 Dec 2019 17:40:09.000,100.680,1.623,2141.725442
1 Dec 2019 17:40:10.000,100.497,1.598,2144.317287
1 Dec 2019 17:40:11.000,100.315,1.573,2146.929071
1 Dec 2019 17:40:12.000,100.133,1.548,2149.560718
1 Dec 2019 17:40:13.000,99.951,1.522,2152.212154
1 Dec 2019 17:40:14.000,99.770,1.497,2154.883303
1 Dec 2019 17:40:15.000,99.590,1.471,2157.574088
1 Dec 2019 17:40:16.000,99.410,1.445,2160.284434
1 Dec 2019 17:40:17.000,99.230,1.419,2163.014267
1 Dec 2019 17:40:18.000,99.051,1.393,2165.763505
1 Dec 2019 17:40:19.000,98.872,1.367,2168.532075
1 Dec 2019 17:40:20.000,98.694,1.341,2171.319898
1 Dec 2019 17:40:21.000,98.516,1.314,2174.126900
1 Dec 2019 17:40:22.000,98.339,1.287,2176.953003
1 Dec 2019 17:40:23.000,98.162,1.260,2179.798129
1 Dec 2019 17:40:24.000,97.986,1.233,2182.662201
1 Dec 2019 17:40:25.000,97.810,1.206,2185.545142
1 Dec 2019 17:40:26.000,97.634,1.179,2188.446875
1 Dec 2019 17:40:27.000,97.459,1.151,2191.367321
1 Dec 2019 17:40:28.000,97.285,1.124,2194.306404
1 Dec 2019 17:40:29.000,97.111,1.096,2197.264044
1 Dec 2019 17:40:30.000,96.938,1.068,2200.240166
1 Dec 2019 17:40:31.000,96.765,1.040,2203.234690
1 Dec 2019 17:40:32.000,96.592,1.012,2206.247538
1 Dec 2019 17:40:33.000,96.420,0.984,2209.278633
1 Dec 2019 17:40:34.000,96.248,0.956,2212.327896
1 Dec 2019 17:40:35.000,96.077,0.927,2215.395249
1 Dec 2019 17:40:36.000,95.907,0.898,2218.480614
1 Dec 2019 17:40:37.000,95.737,0.870,2221.583914
1 Dec 2019 17:40:38.000,95.567,0.841,2224.705068
1 Dec 2019 17:40:39.000,95.398,0.812,2227.844000
1 Dec 2019 17:40:40.000,95.229,0.783,2231.000631
1 Dec 2019 17:40:41.000,95.061,0.753,2234.174882
1 Dec 2019 17:40:42.000,94.893,0.724,2237.366676
1 Dec 2019 17:40:43.000,94.726,0.694,2240.575934
1 Dec 2019 17:40:44.000,94.559,0.665,2243.802577
1 Dec 2019 17:40:45.000,94.393,0.635,2247.046528
1 Dec 2019 17:40:46.000,94.227,0.605,2250.307705
1 Dec 2019 17:40:47.000,94.062,0.575,2253.586036
1 Dec 2019 17:40:48.000,93.897,0.545,2256.881441
1 Dec 2019 17:40:49.000,93.733,0.515,2260.193840
1 Dec 2019 17:40:50.000,93.569,0.485,2263.523156
1 Dec 2019 17:40:51.000,93.406,0.454,2266.869310
1 Dec 2019 17:40:52.000,93.243,0.424,2270.232225
1 Dec 2019 17:40:53.000,93.081,0.393,2273.611823
1 Dec 2019 17:40:54.000,92.919,0.362,2277.008026
1 Dec 2019 17:40:55.000,92.758,0.332,2280.420753
1 Dec 2019 17:40:56.000,92.597,0.301,2283.849932
1 Dec 2019 17:40:57.000,92.437,0.270,2287.295484
1 Dec 2019 17:40:58.000,92.277,0.238,2290.757330
1 Dec 2019 17:40:59.000,92.118,0.207,2294.235393
1 Dec 2019 17:41:00.000,91.959,0.176,2297.729595
1 Dec 2019 17:41:01.000,91.800,0.144,2301.239860
1 Dec 2019 17:41:02.000,91.643,0.113,2304.766107
1 Dec 2019 17:41:03.000,91.485,0.081,2308.308265
1 Dec 2019 17:41:04.000,91.328,0.049,2311.866255
1 Dec 2019 17:41:05.000,91.172,0.018,2315.440000
1 Dec 2019 17:41:06.000,91.016,-0.014,2319.029422
1 Dec 2019 17:41:07.000,90.861,-0.046,2322.634443
1 Dec 2019 17:41:08.000,90.706,-0.078,2326.254992
1 Dec 2019 17:41:09.000,90.551,-0.111,2329.890990
1 Dec 2019 17:41:09.422,90.486,-0.124,2331.429145
1 Dec 2019 19:08:47.434,218.144,-0.124,2320.205111
1 Dec 2019 19:08:48.000,218.130,-0.089,2316.319560
1 Dec 2019 19:08:49.000,218.106,-0.027,2309.451154
1 Dec 2019 19:08:50.000,218.082,0.035,2302.583179
1 Dec 2019 19:08:51.000,218.057,0.097,2295.715643
1 Dec 2019 19:08:52.000,218.033,0.159,2288.848560
1 Dec 2019 19:08:53.000,218.008,0.222,2281.981940
1 Dec 2019 19:08:54.000,217.983,0.284,2275.115800
1 Dec 2019 19:08:55.000,217.958,0.347,2268.250149
1 Dec 2019 19:08:56.000,217.933,0.411,2261.384998
1 Dec 2019 19:08:57.000,217.907,0.474,2254.520365
1 Dec 2019 19:08:58.000,217.882,0.537,2247.656261
1 Dec 2019 19:08:59.000,217.856,0.601,2240.792695
1 Dec 2019 19:09:00.000,217.830,0.665,2233.929686
1 Dec 2019 19:09:01.000,217.804,0.729,2227.067246
1 Dec 2019 19:09:02.000,217.778,0.793,2220.205387
1 Dec 2019 19:09:03.000,217.751,0.858,2213.344120
1 Dec 2019 19:09:04.000,217.725,0.923,2206.483465
1 Dec 2019 19:09:05.000,217.698,0.988,2199.623433
1 Dec 2019 19:09:06.000,217.671,1.053,2192.764035
1 Dec 2019 19:09:07.000,217.644,1.118,2185.905290
1 Dec 2019 19:09:08.000,217.617,1.184,2179.047211
1 Dec 2019 19:09:09.000,217.589,1.249,2172.189812
1 Dec 2019 19:09:10.000,217.562,1.315,2165.333106
1 Dec 2019 19:09:11.000,217.534,1.382,2158.477111
1 Dec 2019 19:09:12.000,217.506,1.448,2151.621840
1 Dec 2019 19:09:13.000,217.477,1.515,2144.767307
1 Dec 2019 19:09:14.000,217.449,1.581,2137.913531
1 Dec 2019 19:09:15.000,217.420,1.649,2131.060526
1 Dec 2019 19:09:16.000,217.392,1.716,2124.208307
1 Dec 2019 19:09:17.000,217.363,1.783,2117.356888
1 Dec 2019 19:09:18.000,217.333,1.851,2110.506289
1 Dec 2019 19:09:19.000,217.304,1.919,2103.656524
1 Dec 2019 19:09:20.000,217.274,1.988,2096.807607
1 Dec 2019 19:09:21.000,217.244,2.056,2089.959560
1 Dec 2019 19:09:22.000,217.214,2.125,2083.112397
1 Dec 2019 19:09:23.000,217.184,2.194,2076.266135
1 Dec 2019 19:09:24.000,217.154,2.263,2069.420789
1 Dec 2019 19:09:25.000,217.123,2.333,2062.576380
1 Dec 2019 19:09:26.000,217.092,2.402,2055.732924
1 Dec 2019 19:09:27.000,217.061,2.472,2048.890437
1 Dec 2019 19:09:28.000,217.029,2.542,2042.048940
1 Dec 2019 19:09:29.000,216.998,2.613,2035.208451
1 Dec 2019 19:09:30.000,216.966,2.684,2028.368986
1 Dec 2019 19:09:31.000,216.934,2.755,2021.530563
1 Dec 2019 19:09:32.000,216.902,2.826,2014.693205
1 Dec 2019 19:09:33.000,216.869,2.898,2007.856929
1 Dec 2019 19:09:34.000,216.836,2.970,2001.021752
1 Dec 2019 19:09:35.000,216.803,3.042,1994.187697
1 Dec 2019 19:09:36.000,216.770,3.114,1987.354782
1 Dec 2019 19:09:37.000,216.737,3.187,1980.523028
1 Dec 2019 19:09:38.000,216.703,3.260,1973.692452
1 Dec 2019 19:09:39.000,216.669,3.333,1966.863079
1 Dec 2019 19:09:40.000,216.635,3.406,1960.034927
1 Dec 2019 19:09:41.000,216.600,3.480,1953.208019
1 Dec 2019 19:09:42.000,216.566,3.554,1946.382372
1 Dec 2019 19:09:43.000,216.530,3.629,1939.558012
1 Dec 2019 19:09:44.000,216.495,3.703,1932.734960
1 Dec 2019 19:09:45.000,216.460,3.778,1925.913235
1 Dec 2019 19:09:46.000,216.424,3.854,1919.092864
1 Dec 2019 19:09:47.000,216.388,3.929,1912.273867
1 Dec 2019 19:09:48.000,216.351,4.005,1905.456268
1 Dec 2019 19:09:49.000,216.315,4.082,1898.640087
1 Dec 2019 19:09:50.000,216.278,4.158,1891.825351
1 Dec 2019 19:09:51.000,216.240,4.235,1885.012084
1 Dec 2019 19:09:52.000,216.203,4.312,1878.200309
1 Dec 2019 19:09:53.000,216.165,4.390,1871.390047
1 Dec 2019 19:09:54.000,216.127,4.468,1864.581329
1 Dec 2019 19:09:55.000,216.089,4.546,1857.774178
1 Dec 2019 19:09:56.000,216.050,4.625,1850.968616
1 Dec 2019 19:09:57.000,216.011,4.704,1844.164673
1 Dec 2019 19:09:58.000,215.972,4.783,1837.362374
1 Dec 2019 19:09:59.000,215.932,4.862,1830.561745
1 Dec 2019 19:10:00.000,215.892,4.942,1823.762811
1 Dec 2019 19:10:01.000,215.852,5.023,1816.965604
1 Dec 2019 19:10:02.000,215.811,5.103,1810.170147
1 Dec 2019 19:10:03.000,215.770,5.184,1803.376471
1 Dec 2019 19:10:04.000,215.729,5.266,1796.584600
1 Dec 2019 19:10:05.000,215.687,5.348,1789.794568
1 Dec 2019 19:10:06.000,215.645,5.430,1783.006402
1 Dec 2019 19:10:07.000,215.603,5.512,1776.220131
1 Dec 2019 19:10:08.000,215.560,5.595,1769.435783
1 Dec 2019 19:10:09.000,215.517,5.679,1762.653393
1 Dec 2019 19:10:10.000,215.474,5.762,1755.872989
1 Dec 2019 19:10:11.000,215.430,5.847,1749.094601
1 Dec 2019 19:10:12.000,215.386,5.931,1742.318264
1 Dec 2019 19:10:13.000,215.341,6.016,1735.544008
1 Dec 2019 19:10:14.000,215.296,6.101,1728.771867
1 Dec 2019 19:10:15.000,215.251,6.187,1722.001870
1 Dec 2019 19:10:16.000,215.206,6.273,1715.234056
1 Dec 2019 19:10:17.000,215.160,6.360,1708.468456
1 Dec 2019 19:10:18.000,215.113,6.447,1701.705106
1 Dec 2019 19:10:19.000,215.066,6.534,1694.944038
1 Dec 2019 19:10:20.000,215.019,6.622,1688.185291
1 Dec 2019 19:10:21.000,214.971,6.711,1681.428900
1 Dec 2019 19:10:22.000,214.923,6.800,1674.674902
1 Dec 2019 19:10:23.000,214.875,6.889,1667.923330
1 Dec 2019 19:10:24.000,214.826,6.979,1661.174229
1 Dec 2019 19:10:25.000,214.777,7.069,1654.427632
1 Dec 2019 19:10:26.000,214.727,7.159,1647.683580
1 Dec 2019 19:10:27.000,214.677,7.251,1640.942110
1 Dec 2019 19:10:28.000,214.626,7.342,1634.203265
1 Dec 2019 19:10:29.000,214.575,7.434,1627.467085
1 Dec 2019 19:10:30.000,214.523,7.527,1620.733611
1 Dec 2019 19:10:31.000,214.471,7.620,1614.002882
1 Dec 2019 19:10:32.000,214.418,7.714,1607.274946
1 Dec 2019 19:10:33.000,214.365,7.808,1600.549843
1 Dec 2019 19:10:34.000,214.312,7.903,1593.827618
1 Dec 2019 19:10:35.000,214.258,7.998,1587.108312
1 Dec 2019 19:10:36.000,214.203,8.093,1580.391976
1 Dec 2019 19:10:37.000,214.148,8.190,1573.678654
1 Dec 2019 19:10:38.000,214.093,8.287,1566.968391
1 Dec 2019 19:10:39.000,214.037,8.384,1560.261235
1 Dec 2019 19:10:40.000,213.980,8.482,1553.557236
1 Dec 2019 19:10:41.000,213.923,8.580,1546.856443
1 Dec 2019 19:10:42.000,213.865,8.679,1540.158904
1 Dec 2019 19:10:43.000,213.807,8.779,1533.464671
1 Dec 2019 19:10:44.000,213.748,8.879,1526.773793
1 Dec 2019 19:10:45.000,213.689,8.980,1520.086326
1 Dec 2019 19:10:46.000,213.629,9.081,1513.402322
1 Dec 2019 19:10:47.000,213.568,9.183,1506.721835
1 Dec 2019 19:10:48.000,213.507,9.286,1500.044917
1 Dec 2019 19:10:49.000,213.446,9.389,1493.371629
1 Dec 2019 19:10:50.000,213.383,9.493,1486.702025
1 Dec 2019 19:10:51.000,213.320,9.597,1480.036164
1 Dec 2019 19:10:52.000,213.257,9.703,1473.374101
1 Dec 2019 19:10:53.000,213.193,9.808,1466.715901
1 Dec 2019 19:10:54.000,213.128,9.915,1460.061623
1 Dec 2019 19:10:55.000,213.062,10.022,1453.411328
1 Dec 2019 19:10:56.000,212.996,10.130,1446.765080
1 Dec 2019 19:10:57.000,212.929,10.238,1440.122939
1 Dec 2019 19:10:58.000,212.862,10.347,1433.484976
1 Dec 2019 19:10:59.000,212.793,10.457,1426.851255
1 Dec 2019 19:11:00.000,212.724,10.568,1420.221842
1 Dec 2019 19:11:01.000,212.655,10.679,1413.596807
1 Dec 2019 19:11:02.000,212.584,10.791,1406.976217
1 Dec 2019 19:11:03.000,212.513,10.904,1400.360148
1 Dec 2019 19:11:04.000,212.441,11.017,1393.748669
1 Dec 2019 19:11:05.000,212.369,11.131,1387.141854
1 Dec 2019 19:11:06.000,212.295,11.247,1380.539776
1 Dec 2019 19:11:07.000,212.221,11.362,1373.942515
1 Dec 2019 19:11:08.000,212.146,11.479,1367.350147
1 Dec 2019 19:11:09.000,212.070,11.596,1360.762750
1 Dec 2019 19:11:10.000,211.994,11.715,1354.180406
1 Dec 2019 19:11:11.000,211.916,11.834,1347.603194
1 Dec 2019 19:11:12.000,211.838,11.953,1341.031201
1 Dec 2019 19:11:13.000,211.759,12.074,1334.464511
1 Dec 2019 19:11:14.000,211.679,12.196,1327.903210
1 Dec 2019 19:11:15.000,211.598,12.318,1321.347385
1 Dec 2019 19:11:16.000,211.516,12.441,1314.797128
1 Dec 2019 19:11:17.000,211.433,12.565,1308.252527
1 Dec 2019 19:11:18.000,211.349,12.690,1301.713680
1 Dec 2019 19:11:19.000,211.265,12.816,1295.180679
1 Dec 2019 19:11:20.000,211.179,12.943,1288.653621
1 Dec 2019 19:11:21.000,211.093,13.071,1282.132605
1 Dec 2019 19:11:22.000,211.005,13.200,1275.617729
1 Dec 2019 19:11:23.000,210.916,13.330,1269.109100
1 Dec 2019 19:11:24.000,210.827,13.460,1262.606819
1 Dec 2019 19:11:25.000,210.736,13.592,1256.110994
1 Dec 2019 19:11:26.000,210.644,13.725,1249.621733
1 Dec 2019 19:11:27.000,210.551,13.858,1243.139146
1 Dec 2019 19:11:28.000,210.457,13.993,1236.663345
1 Dec 2019 19:11:29.000,210.362,14.129,1230.194447
1 Dec 2019 19:11:30.000,210.266,14.265,1223.732568
1 Dec 2019 19:11:31.000,210.169,14.403,1217.277828
1 Dec 2019 19:11:32.000,210.070,14.542,1210.830349
1 Dec 2019 19:11:33.000,209.970,14.682,1204.390254
1 Dec 2019 19:11:34.000,209.869,14.823,1197.957671
1 Dec 2019 19:11:35.000,209.767,14.966,1191.532727
1 Dec 2019 19:11:36.000,209.664,15.109,1185.115558
1 Dec 2019 19:11:37.000,209.559,15.254,1178.706297
1 Dec 2019 19:11:38.000,209.453,15.399,1172.305081
1 Dec 2019 19:11:39.000,209.345,15.546,1165.912050
1 Dec 2019 19:11:40.000,209.236,15.694,1159.527347
1 Dec 2019 19:11:41.000,209.126,15.844,1153.151118
1 Dec 2019 19:11:42.000,209.014,15.994,1146.783510
1 Dec 2019 19:11:43.000,208.901,16.146,1140.424680
1 Dec 2019 19:11:44.000,208.787,16.299,1134.074779
1 Dec 2019 19:11:45.000,208.671,16.454,1127.733968
1 Dec 2019 19:11:46.000,208.553,16.609,1121.402407
1 Dec 2019 19:11:47.000,208.434,16.766,1115.080262
1 Dec 2019 19:11:48.000,208.313,16.925,1108.767701
1 Dec 2019 19:11:49.000,208.191,17.084,1102.464897
1 Dec 2019 19:11:50.000,208.067,17.246,1096.172025
1 Dec 2019 19:11:51.000,207.941,17.408,1089.889264
1 Dec 2019 19:11:52.000,207.814,17.572,1083.616799
1 Dec 2019 19:11:53.000,207.685,17.737,1077.354817
1 Dec 2019 19:11:54.000,207.554,17.904,1071.103509
1 Dec 2019 19:11:55.000,207.421,18.073,1064.863071
1 Dec 2019 19:11:56.000,207.286,18.242,1058.633701
1 Dec 2019 19:11:57.000,207.150,18.414,1052.415605
1 Dec 2019 19:11:58.000,207.012,18.587,1046.208990
1 Dec 2019 19:11:59.000,206.871,18.761,1040.014070
1 Dec 2019 19:12:00.000,206.729,18.937,1033.831062
1 Dec 2019 19:12:01.000,206.584,19.115,1027.660188
1 Dec 2019 19:12:02.000,206.438,19.294,1021.501677
1 Dec 2019 19:12:03.000,206.289,19.475,1015.355759
1 Dec 2019 19:12:04.000,206.138,19.657,1009.222673
1 Dec 2019 19:12:05.000,205.985,19.841,1003.102661
1 Dec 2019 19:12:06.000,205.830,20.027,996.995970
1 Dec 2019 19:12:07.000,205.672,20.215,990.902857
1 Dec 2019 19:12:08.000,205.512,20.405,984.823578
1 Dec 2019 19:12:09.000,205.350,20.596,978.758400
1 Dec 2019 19:12:10.000,205.185,20.789,972.707594
1 Dec 2019 19:12:11.000,205.018,20.984,966.671435
1 Dec 2019 19:12:12.000,204.848,21.180,960.650208
1 Dec 2019 19:12:13.000,204.675,21.379,954.644203
1 Dec 2019 19:12:14.000,204.500,21.580,948.653715
1 Dec 2019 19:12:15.000,204.322,21.782,942.679048
1 Dec 2019 19:12:16.000,204.141,21.986,936.720511
1 Dec 2019 19:12:17.000,203.957,22.193,930.778422
1 Dec 2019 19:12:18.000,203.770,22.401,924.853104
1 Dec 2019 19:12:19.000,203.581,22.611,918.944890
1 Dec 2019 19:12:20.000,203.388,22.824,913.054117
1 Dec 2019 19:12:21.000,203.192,23.038,907.181134
1 Dec 2019 19:12:22.000,202.993,23.255,901.326295
1 Dec 2019 19:12:23.000,202.790,23.474,895.489961
1 Dec 2019 19:12:24.000,202.585,23.695,889.672505
1 Dec 2019 19:12:25.000,202.375,23.918,883.874307
1 Dec 2019 19:12:26.000,202.162,24.143,878.095754
1 Dec 2019 19:12:27.000,201.946,24.370,872.337244
1 Dec 2019 19:12:28.000,201.726,24.600,866.599184
1 Dec 2019 19:12:29.000,201.502,24.832,860.881989
1 Dec 2019 19:12:30.000,201.274,25.066,855.186085
1 Dec 2019 19:12:31.000,201.042,25.303,849.511906
1 Dec 2019 19:12:32.000,200.807,25.542,843.859897
1 Dec 2019 19:12:33.000,200.566,25.783,838.230515
1 Dec 2019 19:12:34.000,200.322,26.026,832.624225
1 Dec 2019 19:12:35.000,200.073,26.272,827.041502
1 Dec 2019 19:12:36.000,199.820,26.521,821.482833
1 Dec 2019 19:12:37.000,199.563,26.772,815.948718
1 Dec 2019 19:12:38.000,199.300,27.025,810.439665
1 Dec 2019 19:12:39.000,199.033,27.281,804.956196
1 Dec 2019 19:12:40.000,198.760,27.539,799.498843
1 Dec 2019 19:12:41.000,198.483,27.800,794.068154
1 Dec 2019 19:12:42.000,198.201,28.063,788.664682
1 Dec 2019 19:12:43.000,197.913,28.329,783.289000
1 Dec 2019 19:12:44.000,197.619,28.597,777.941688
1 Dec 2019 19:12:45.000,197.320,28.868,772.623343
1 Dec 2019 19:12:46.000,197.015,29.142,767.334574
1 Dec 2019 19:12:47.000,196.705,29.418,762.076002
1 Dec 2019 19:12:48.000,196.388,29.697,756.848262
1 Dec 2019 19:12:49.000,196.065,29.978,751.652005
1 Dec 2019 19:12:50.000,195.735,30.262,746.487895
1 Dec 2019 19:12:51.000,195.399,30.548,741.356608
1 Dec 2019 19:12:52.000,195.057,30.837,736.258838
1 Dec 2019 19:12:53.000,194.707,31.129,731.195292
1 Dec 2019 19:12:54.000,194.350,31.423,726.166691
1 Dec 2019 19:12:55.000,193.986,31.719,721.173772
1 Dec 2019 19:12:56.000,193.615,32.018,716.217289
1 Dec 2019 19:12:57.000,193.236,32.320,711.298007
1 Dec 2019 19:12:58.000,192.849,32.624,706.416710
1 Dec 2019 19:12:59.000,192.453,32.931,701.574198
1 Dec 2019 19:13:00.000,192.050,33.240,696.771283
1 Dec 2019 19:13:01.000,191.638,33.551,692.008798
1 Dec 2019 19:13:02.000,191.217,33.865,687.287586
1 Dec 2019 19:13:03.000,190.787,34.181,682.608511
1 Dec 2019 19:13:04.000,190.348,34.500,677.972452
1 Dec 2019 19:13:05.000,189.900,34.820,673.380300
1 Dec 2019 19:13:06.000,189.441,35.143,668.832967
1 Dec 2019 19:13:07.000,188.973,35.468,664.331378
1 Dec 2019 19:13:08.000,188.494,35.795,659.876474
1 Dec 2019 19:13:09.000,188.005,36.123,655.469214
1 Dec 2019 19:13:10.000,187.505,36.454,651.110569
1 Dec 2019 19:13:11.000,186.994,36.786,646.801527
1 Dec 2019 19:13:12.000,186.472,37.120,642.543092
1 Dec 2019 19:13:13.000,185.938,37.455,638.336282
1 Dec 2019 19:13:14.000,185.392,37.792,634.182128
1 Dec 2019 19:13:15.000,184.834,38.130,630.081677
1 Dec 2019 19:13:16.000,184.263,38.469,626.035990
1 Dec 2019 19:13:17.000,183.679,38.809,622.046139
1 Dec 2019 19:13:18.000,183.082,39.150,618.113211
1 Dec 2019 19:13:19.000,182.471,39.492,614.238303
1 Dec 2019 19:13:20.000,181.847,39.834,610.422525
1 Dec 2019 19:13:21.000,181.208,40.176,606.666998
1 Dec 2019 19:13:22.000,180.555,40.518,602.972851
1 Dec 2019 19:13:23.000,179.887,40.860,599.341225
1 Dec 2019 19:13:24.000,179.204,41.202,595.773266
1 Dec 2019 19:13:25.000,178.506,41.543,592.270129
1 Dec 2019 19:13:26.000,177.791,41.883,588.832976
1 Dec 2019 19:13:27.000,177.061,42.222,585.462972
1 Dec 2019 19:13:28.000,176.314,42.559,582.161288
1 Dec 2019 19:13:29.000,175.551,42.895,578.929097
1 Dec 2019 19:13:30.000,174.770,43.229,575.767572
1 Dec 2019 19:13:31.000,173.973,43.560,572.677889
1 Dec 2019 19:13:32.000,173.158,43.888,569.661218
1 Dec 2019 19:13:33.000,172.325,44.214,566.718731
1 Dec 2019 19:13:34.000,171.474,44.536,563.851591
1 Dec 2019 19:13:35.000,170.605,44.854,561.060958
1 Dec 2019 19:13:36.000,169.718,45.168,558.347980
1 Dec 2019 19:13:37.000,168.812,45.477,555.713801
1 Dec 2019 19:13:38.000,167.888,45.782,553.159547
1 Dec 2019 19:13:39.000,166.945,46.080,550.686335
1 Dec 2019 19:13:40.000,165.984,46.373,548.295263
1 Dec 2019 19:13:41.000,165.004,46.660,545.987414
1 Dec 2019 19:13:42.000,164.005,46.940,543.763850
1 Dec 2019 19:13:43.000,162.988,47.213,541.625612
1 Dec 2019 19:13:44.000,161.952,47.478,539.573716
1 Dec 2019 19:13:45.000,160.898,47.735,537.609154
1 Dec 2019 19:13:46.000,159.826,47.983,535.732889
1 Dec 2019 19:13:47.000,158.737,48.222,533.945854
1 Dec 2019 19:13:48.000,157.630,48.452,532.248948
1 Dec 2019 19:13:49.000,156.507,48.672,530.643041
1 Dec 2019 19:13:50.000,155.367,48.881,529.128960
1 Dec 2019 19:13:51.000,154.211,49.080,527.707500
1 Dec 2019 19:13:52.000,153.040,49.267,526.379411
1 Dec 2019 19:13:53.000,151.855,49.442,525.145405
1 Dec 2019 19:13:54.000,150.656,49.606,524.006145
1 Dec 2019 19:13:55.000,149.445,49.757,522.962255
1 Dec 2019 19:13:56.000,148.221,49.895,522.014306
1 Dec 2019 19:13:57.000,146.986,50.020,521.162822
1 Dec 2019 19:13:58.000,145.742,50.132,520.408280
1 Dec 2019 19:13:59.000,144.489,50.230,519.751103
1 Dec 2019 19:14:00.000,143.227,50.314,519.191658
1 Dec 2019 19:14:01.000,141.960,50.384,518.730265
1 Dec 2019 19:14:02.000,140.687,50.440,518.367185
1 Dec 2019 19:14:03.000,139.409,50.481,518.102626
1 Dec 2019 19:14:04.000,138.129,50.507,517.936738
1 Dec 2019 19:14:05.000,136.847,50.519,517.869618
1 Dec 2019 19:14:06.000,135.565,50.517,517.901302
1 Dec 2019 19:14:07.000,134.284,50.499,518.031773
1 Dec 2019 19:14:08.000,133.005,50.467,518.260957
1 Dec 2019 19:14:09.000,131.729,50.421,518.588721
1 Dec 2019 19:14:10.000,130.459,50.360,519.014880
1 Dec 2019 19:14:11.000,129.194,50.285,519.539189
1 Dec 2019 19:14:12.000,127.936,50.195,520.161352
1 Dec 2019 19:14:13.000,126.687,50.092,520.881015
1 Dec 2019 19:14:14.000,125.447,49.976,521.697778
1 Dec 2019 19:14:15.000,124.218,49.846,522.611182
1 Dec 2019 19:14:16.000,122.999,49.703,523.620721
1 Dec 2019 19:14:17.000,121.794,49.548,524.725836
1 Dec 2019 19:14:18.000,120.601,49.380,525.925928
1 Dec 2019 19:14:19.000,119.423,49.200,527.220342
1 Dec 2019 19:14:20.000,118.259,49.009,528.608389
1 Dec 2019 19:14:21.000,117.111,48.807,530.089328
1 Dec 2019 19:14:22.000,115.979,48.594,531.662380
1 Dec 2019 19:14:23.000,114.863,48.371,533.326732
1 Dec 2019 19:14:24.000,113.765,48.138,535.081525
1 Dec 2019 19:14:25.000,112.684,47.896,536.925873
1 Dec 2019 19:14:26.000,111.620,47.645,538.858857
1 Dec 2019 19:14:27.000,110.575,47.386,540.879519
1 Dec 2019 19:14:28.000,109.548,47.119,542.986879
1 Dec 2019 19:14:29.000,108.540,46.844,545.179933
1 Dec 2019 19:14:30.000,107.550,46.563,547.457644
1 Dec 2019 19:14:31.000,106.578,46.274,549.818958
1 Dec 2019 19:14:32.000,105.626,45.980,552.262801
1 Dec 2019 19:14:33.000,104.692,45.680,554.788078
1 Dec 2019 19:14:34.000,103.777,45.375,557.393683
1 Dec 2019 19:14:35.000,102.880,45.065,560.078486
1 Dec 2019 19:14:36.000,102.001,44.750,562.841354
1 Dec 2019 19:14:37.000,101.141,44.432,565.681138
1 Dec 2019 19:14:38.000,100.299,44.110,568.596683
1 Dec 2019 19:14:39.000,99.475,43.784,571.586827
1 Dec 2019 19:14:40.000,98.668,43.456,574.650401
1 Dec 2019 19:14:41.000,97.879,43.125,577.786233
1 Dec 2019 19:14:42.000,97.107,42.792,580.993149
1 Dec 2019 19:14:43.000,96.351,42.457,584.269976
1 Dec 2019 19:14:44.000,95.612,42.120,587.615540
1 Dec 2019 19:14:45.000,94.890,41.782,591.028668
1 Dec 2019 19:14:46.000,94.183,41.443,594.508192
1 Dec 2019 19:14:47.000,93.492,41.103,598.052953
1 Dec 2019 19:14:48.000,92.816,40.763,601.661791
1 Dec 2019 19:14:49.000,92.156,40.422,605.333555
1 Dec 2019 19:14:50.000,91.509,40.081,609.067104
1 Dec 2019 19:14:51.000,90.878,39.741,612.861301
1 Dec 2019 19:14:52.000,90.260,39.400,616.715027
1 Dec 2019 19:14:53.000,89.656,39.060,620.627166
1 Dec 2019 19:14:54.000,89.065,38.721,624.596613
1 Dec 2019 19:14:55.000,88.488,38.383,628.622283
1 Dec 2019 19:14:56.000,87.923,38.046,632.703095
1 Dec 2019 19:14:57.000,87.371,37.710,636.837982
1 Dec 2019 19:14:58.000,86.831,37.375,641.025898
1 Dec 2019 19:14:59.000,86.302,37.041,645.265802
1 Dec 2019 19:15:00.000,85.785,36.710,649.556668
1 Dec 2019 19:15:01.000,85.280,36.379,653.897494
1 Dec 2019 19:15:02.000,84.785,36.051,658.287281
1 Dec 2019 19:15:03.000,84.301,35.724,662.725056
1 Dec 2019 19:15:04.000,83.828,35.400,667.209850
1 Dec 2019 19:15:05.000,83.365,35.077,671.740722
1 Dec 2019 19:15:06.000,82.911,34.757,676.316734
1 Dec 2019 19:15:07.000,82.467,34.438,680.936978
1 Dec 2019 19:15:08.000,82.033,34.122,685.600546
1 Dec 2019 19:15:09.000,81.608,33.808,690.306563
1 Dec 2019 19:15:10.000,81.191,33.497,695.054153
1 Dec 2019 19:15:11.000,80.783,33.188,699.842468
1 Dec 2019 19:15:12.000,80.384,32.881,704.670675
1 Dec 2019 19:15:13.000,79.993,32.576,709.537947
1 Dec 2019 19:15:14.000,79.610,32.275,714.443488
1 Dec 2019 19:15:15.000,79.235,31.975,719.386501
1 Dec 2019 19:15:16.000,78.867,31.678,724.366217
1 Dec 2019 19:15:17.000,78.507,31.384,729.381881
1 Dec 2019 19:15:18.000,78.153,31.092,734.432744
1 Dec 2019 19:15:19.000,77.807,30.803,739.518083
1 Dec 2019 19:15:20.000,77.468,30.516,744.637187
1 Dec 2019 19:15:21.000,77.135,30.232,749.789354
1 Dec 2019 19:15:22.000,76.809,29.950,754.973902
1 Dec 2019 19:15:23.000,76.490,29.671,760.190164
1 Dec 2019 19:15:24.000,76.176,29.394,765.437487
1 Dec 2019 19:15:25.000,75.868,29.120,770.715226
1 Dec 2019 19:15:26.000,75.567,28.849,776.022755
1 Dec 2019 19:15:27.000,75.270,28.580,781.359462
1 Dec 2019 19:15:28.000,74.980,28.314,786.724749
1 Dec 2019 19:15:29.000,74.695,28.050,792.118024
1 Dec 2019 19:15:30.000,74.415,27.789,797.538715
1 Dec 2019 19:15:31.000,74.140,27.530,802.986260
1 Dec 2019 19:15:32.000,73.871,27.274,808.460110
1 Dec 2019 19:15:33.000,73.606,27.020,813.959731
1 Dec 2019 19:15:34.000,73.346,26.769,819.484591
1 Dec 2019 19:15:35.000,73.091,26.520,825.034179
1 Dec 2019 19:15:36.000,72.840,26.273,830.607994
1 Dec 2019 19:15:37.000,72.594,26.029,836.205544
1 Dec 2019 19:15:38.000,72.352,25.787,841.826349
1 Dec 2019 19:15:39.000,72.114,25.548,847.469939
1 Dec 2019 19:15:40.000,71.880,25.311,853.135857
1 Dec 2019 19:15:41.000,71.651,25.076,858.823655
1 Dec 2019 19:15:42.000,71.425,24.844,864.532889
1 Dec 2019 19:15:43.000,71.203,24.613,870.263135
1 Dec 2019 19:15:44.000,70.985,24.385,876.013971
1 Dec 2019 19:15:45.000,70.771,24.160,881.784989
1 Dec 2019 19:15:46.000,70.560,23.936,887.575788
1 Dec 2019 19:15:47.000,70.353,23.715,893.385977
1 Dec 2019 19:15:48.000,70.149,23.496,899.215173
1 Dec 2019 19:15:49.000,69.949,23.278,905.063001
1 Dec 2019 19:15:50.000,69.751,23.063,910.929096
1 Dec 2019 19:15:51.000,69.557,22.851,916.813099
1 Dec 2019 19:15:52.000,69.366,22.640,922.714663
1 Dec 2019 19:15:53.000,69.178,22.431,928.633444
1 Dec 2019 19:15:54.000,68.993,22.224,934.569108
1 Dec 2019 19:15:55.000,68.811,22.019,940.521329
1 Dec 2019 19:15:56.000,68.632,21.816,946.489787
1 Dec 2019 19:15:57.000,68.456,21.615,952.474169
1 Dec 2019 19:15:58.000,68.282,21.416,958.474172
1 Dec 2019 19:15:59.000,68.111,21.219,964.489494
1 Dec 2019 19:16:00.000,67.943,21.024,970.519846
1 Dec 2019 19:16:01.000,67.777,20.830,976.564941
1 Dec 2019 19:16:02.000,67.614,20.638,982.624499
1 Dec 2019 19:16:03.000,67.453,20.449,988.698248
1 Dec 2019 19:16:04.000,67.294,20.260,994.785920
1 Dec 2019 19:16:05.000,67.138,20.074,1000.887254
1 Dec 2019 19:16:06.000,66.984,19.889,1007.001995
1 Dec 2019 19:16:07.000,66.833,19.706,1013.129892
1 Dec 2019 19:16:08.000,66.683,19.525,1019.270701
1 Dec 2019 19:16:09.000,66.536,19.345,1025.424182
1 Dec 2019 19:16:10.000,66.391,19.167,1031.590102
1 Dec 2019 19:16:11.000,66.248,18.991,1037.768231
1 Dec 2019 19:16:12.000,66.107,18.816,1043.958345
1 Dec 2019 19:16:13.000,65.968,18.643,1050.160225
1 Dec 2019 19:16:14.000,65.831,18.471,1056.373656
1 Dec 2019 19:16:15.000,65.696,18.301,1062.598429
1 Dec 2019 19:16:16.000,65.563,18.132,1068.834337
1 Dec 2019 19:16:17.000,65.431,17.965,1075.081179
1 Dec 2019 19:16:18.000,65.302,17.799,1081.338756
1 Dec 2019 19:16:19.000,65.174,17.635,1087.606880
1 Dec 2019 19:16:20.000,65.048,17.472,1093.885360
1 Dec 2019 19:16:21.000,64.923,17.311,1100.174012
1 Dec 2019 19:16:22.000,64.801,17.150,1106.472653
1 Dec 2019 19:16:23.000,64.679,16.992,1112.781108
1 Dec 2019 19:16:24.000,64.560,16.834,1119.099202
1 Dec 2019 19:16:25.000,64.442,16.678,1125.426766
1 Dec 2019 19:16:26.000,64.326,16.524,1131.763633
1 Dec 2019 19:16:27.000,64.211,16.370,1138.109640
1 Dec 2019 19:16:28.000,64.097,16.218,1144.464625
1 Dec 2019 19:16:29.000,63.985,16.067,1150.828437
1 Dec 2019 19:16:30.000,63.875,15.917,1157.200921
1 Dec 2019 19:16:31.000,63.766,15.769,1163.581926
1 Dec 2019 19:16:32.000,63.658,15.622,1169.971304
1 Dec 2019 19:16:33.000,63.552,15.476,1176.368913
1 Dec 2019 19:16:34.000,63.447,15.331,1182.774611
1 Dec 2019 19:16:35.000,63.343,15.187,1189.188259
1 Dec 2019 19:16:36.000,63.241,15.045,1195.609719
1 Dec 2019 19:16:37.000,63.140,14.903,1202.038864
1 Dec 2019 19:16:38.000,63.040,14.763,1208.475560
1 Dec 2019 19:16:39.000,62.941,14.624,1214.919681
1 Dec 2019 19:16:40.000,62.843,14.485,1221.371101
1 Dec 2019 19:16:41.000,62.747,14.348,1227.829696
1 Dec 2019 19:16:42.000,62.652,14.212,1234.295345
1 Dec 2019 19:16:43.000,62.558,14.077,1240.767934
1 Dec 2019 19:16:44.000,62.465,13.943,1247.247345
1 Dec 2019 19:16:45.000,62.373,13.810,1253.733464
1 Dec 2019 19:16:46.000,62.283,13.679,1260.226181
1 Dec 2019 19:16:47.000,62.193,13.548,1266.725386
1 Dec 2019 19:16:48.000,62.104,13.418,1273.230972
1 Dec 2019 19:16:49.000,62.017,13.289,1279.742831
1 Dec 2019 19:16:50.000,61.930,13.161,1286.260865
1 Dec 2019 19:16:51.000,61.845,13.033,1292.784971
1 Dec 2019 19:16:52.000,61.760,12.907,1299.315050
1 Dec 2019 19:16:53.000,61.676,12.782,1305.851003
1 Dec 2019 19:16:54.000,61.594,12.658,1312.392733
1 Dec 2019 19:16:55.000,61.512,12.534,1318.940152
1 Dec 2019 19:16:56.000,61.431,12.411,1325.493164
1 Dec 2019 19:16:57.000,61.351,12.290,1332.051679
1 Dec 2019 19:16:58.000,61.272,12.169,1338.615610
1 Dec 2019 19:16:59.000,61.194,12.049,1345.184867
1 Dec 2019 19:17:00.000,61.117,11.929,1351.759364
1 Dec 2019 19:17:01.000,61.040,11.811,1358.339021
1 Dec 2019 19:17:02.000,60.965,11.693,1364.923754
1 Dec 2019 19:17:03.000,60.890,11.577,1371.513482
1 Dec 2019 19:17:04.000,60.816,11.461,1378.108125
1 Dec 2019 19:17:05.000,60.743,11.345,1384.707602
1 Dec 2019 19:17:06.000,60.670,11.231,1391.311842
1 Dec 2019 19:17:07.000,60.598,11.117,1397.920768
1 Dec 2019 19:17:08.000,60.528,11.004,1404.534304
1 Dec 2019 19:17:09.000,60.457,10.892,1411.152379
1 Dec 2019 19:17:10.000,60.388,10.781,1417.774918
1 Dec 2019 19:17:11.000,60.319,10.670,1424.401856
1 Dec 2019 19:17:12.000,60.251,10.560,1431.033122
1 Dec 2019 19:17:13.000,60.184,10.450,1437.668648
1 Dec 2019 19:17:14.000,60.118,10.342,1444.308365
1 Dec 2019 19:17:15.000,60.052,10.234,1450.952212
1 Dec 2019 19:17:16.000,59.986,10.127,1457.600123
1 Dec 2019 19:17:17.000,59.922,10.020,1464.252034
1 Dec 2019 19:17:18.000,59.858,9.914,1470.907883
1 Dec 2019 19:17:19.000,59.795,9.809,1477.567605
1 Dec 2019 19:17:20.000,59.732,9.704,1484.231148
1 Dec 2019 19:17:21.000,59.670,9.600,1490.898448
1 Dec 2019 19:17:22.000,59.609,9.497,1497.569448
1 Dec 2019 19:17:23.000,59.548,9.394,1504.244087
1 Dec 2019 19:17:24.000,59.488,9.292,1510.922316
1 Dec 2019 19:17:25.000,59.428,9.190,1517.604075
1 Dec 2019 19:17:26.000,59.369,9.089,1524.289310
1 Dec 2019 19:17:27.000,59.311,8.989,1530.977969
1 Dec 2019 19:17:28.000,59.253,8.889,1537.669995
1 Dec 2019 19:17:29.000,59.196,8.790,1544.365343
1 Dec 2019 19:17:30.000,59.139,8.691,1551.063958
1 Dec 2019 19:17:31.000,59.083,8.593,1557.765790
1 Dec 2019 19:17:32.000,59.027,8.496,1564.470788
1 Dec 2019 19:17:33.000,58.972,8.399,1571.178908
1 Dec 2019 19:17:34.000,58.918,8.302,1577.890100
1 Dec 2019 19:17:35.000,58.863,8.207,1584.604317
1 Dec 2019 19:17:36.000,58.810,8.111,1591.321510
1 Dec 2019 19:17:37.000,58.757,8.016,1598.041638
1 Dec 2019 19:17:38.000,58.704,7.922,1604.764655
1 Dec 2019 19:17:39.000,58.652,7.828,1611.490516
1 Dec 2019 19:17:40.000,58.601,7.735,1618.219174
1 Dec 2019 19:17:41.000,58.549,7.642,1624.950593
1 Dec 2019 19:17:42.000,58.499,7.550,1631.684727
1 Dec 2019 19:17:43.000,58.449,7.458,1638.421536
1 Dec 2019 19:17:44.000,58.399,7.367,1645.160974
1 Dec 2019 19:17:45.000,58.350,7.276,1651.903009
1 Dec 2019 19:17:46.000,58.301,7.186,1658.647597
1 Dec 2019 19:17:47.000,58.252,7.096,1665.394699
1 Dec 2019 19:17:48.000,58.204,7.007,1672.144274
1 Dec 2019 19:17:49.000,58.157,6.918,1678.896290
1 Dec 2019 19:17:50.000,58.110,6.829,1685.650706
1 Dec 2019 19:17:51.000,58.063,6.741,1692.407487
1 Dec 2019 19:17:52.000,58.017,6.654,1699.166591
1 Dec 2019 19:17:53.000,57.971,6.566,1705.927991
1 Dec 2019 19:17:54.000,57.926,6.480,1712.691647
1 Dec 2019 19:17:55.000,57.880,6.393,1719.457525
1 Dec 2019 19:17:56.000,57.836,6.308,1726.225588
1 Dec 2019 19:17:57.000,57.792,6.222,1732.995808
1 Dec 2019 19:17:58.000,57.748,6.137,1739.768149
1 Dec 2019 19:17:59.000,57.704,6.052,1746.542579
1 Dec 2019 19:18:00.000,57.661,5.968,1753.319061
1 Dec 2019 19:18:01.000,57.618,5.884,1760.097570
1 Dec 2019 19:18:02.000,57.576,5.801,1766.878072
1 Dec 2019 19:18:03.000,57.534,5.718,1773.660535
1 Dec 2019 19:18:04.000,57.492,5.635,1780.444927
1 Dec 2019 19:18:05.000,57.451,5.553,1787.231224
1 Dec 2019 19:18:06.000,57.410,5.471,1794.019391
1 Dec 2019 19:18:07.000,57.369,5.390,1800.809402
1 Dec 2019 19:18:08.000,57.329,5.308,1807.601222
1 Dec 2019 19:18:09.000,57.289,5.228,1814.394831
1 Dec 2019 19:18:10.000,57.249,5.147,1821.190197
1 Dec 2019 19:18:11.000,57.210,5.067,1827.987292
1 Dec 2019 19:18:12.000,57.171,4.987,1834.786086
1 Dec 2019 19:18:13.000,57.132,4.908,1841.586558
1 Dec 2019 19:18:14.000,57.094,4.829,1848.388679
1 Dec 2019 19:18:15.000,57.056,4.750,1855.192419
1 Dec 2019 19:18:16.000,57.018,4.672,1861.997758
1 Dec 2019 19:18:17.000,56.981,4.594,1868.804668
1 Dec 2019 19:18:18.000,56.944,4.517,1875.613124
1 Dec 2019 19:18:19.000,56.907,4.439,1882.423098
1 Dec 2019 19:18:20.000,56.870,4.362,1889.234571
1 Dec 2019 19:18:21.000,56.834,4.286,1896.047516
1 Dec 2019 19:18:22.000,56.798,4.209,1902.861909
1 Dec 2019 19:18:23.000,56.763,4.133,1909.677723
1 Dec 2019 19:18:24.000,56.727,4.058,1916.494942
1 Dec 2019 19:18:25.000,56.692,3.982,1923.313539
1 Dec 2019 19:18:26.000,56.657,3.907,1930.133488
1 Dec 2019 19:18:27.000,56.623,3.832,1936.954774
1 Dec 2019 19:18:28.000,56.588,3.758,1943.777370
1 Dec 2019 19:18:29.000,56.554,3.684,1950.601255
1 Dec 2019 19:18:30.000,56.521,3.610,1957.426405
1 Dec 2019 19:18:31.000,56.487,3.536,1964.252803
1 Dec 2019 19:18:32.000,56.454,3.463,1971.080427
1 Dec 2019 19:18:33.000,56.421,3.390,1977.909255
1 Dec 2019 19:18:34.000,56.388,3.317,1984.739264
1 Dec 2019 19:18:35.000,56.356,3.245,1991.570439
1 Dec 2019 19:18:36.000,56.324,3.172,1998.402757
1 Dec 2019 19:18:37.000,56.292,3.100,2005.236196
1 Dec 2019 19:18:38.000,56.260,3.029,2012.070741
1 Dec 2019 19:18:39.000,56.229,2.957,2018.906372
1 Dec 2019 19:18:40.000,56.197,2.886,2025.743067
1 Dec 2019 19:18:41.000,56.166,2.816,2032.580807
1 Dec 2019 19:18:42.000,56.136,2.745,2039.419577
1 Dec 2019 19:18:43.000,56.105,2.675,2046.259357
1 Dec 2019 19:18:44.000,56.075,2.605,2053.100124
1 Dec 2019 19:18:45.000,56.045,2.535,2059.941869
1 Dec 2019 19:18:46.000,56.015,2.465,2066.784568
1 Dec 2019 19:18:47.000,55.985,2.396,2073.628206
1 Dec 2019 19:18:48.000,55.956,2.327,2080.472761
1 Dec 2019 19:18:49.000,55.927,2.258,2087.318222
1 Dec 2019 19:18:50.000,55.898,2.190,2094.164570
1 Dec 2019 19:18:51.000,55.869,2.121,2101.011783
1 Dec 2019 19:18:52.000,55.840,2.053,2107.859853
1 Dec 2019 19:18:53.000,55.812,1.985,2114.708760
1 Dec 2019 19:18:54.000,55.784,1.918,2121.558486
1 Dec 2019 19:18:55.000,55.756,1.850,2128.409013
1 Dec 2019 19:18:56.000,55.728,1.783,2135.260332
1 Dec 2019 19:18:57.000,55.701,1.716,2142.112423
1 Dec 2019 19:18:58.000,55.673,1.650,2148.965269
1 Dec 2019 19:18:59.000,55.646,1.583,2155.818858
1 Dec 2019 19:19:00.000,55.619,1.517,2162.673175
1 Dec 2019 19:19:01.000,55.593,1.451,2169.528202
1 Dec 2019 19:19:02.000,55.566,1.385,2176.383923
1 Dec 2019 19:19:03.000,55.540,1.319,2183.240329
1 Dec 2019 19:19:04.000,55.513,1.254,2190.097402
1 Dec 2019 19:19:05.000,55.487,1.189,2196.955125
1 Dec 2019 19:19:06.000,55.462,1.124,2203.813490
1 Dec 2019 19:19:07.000,55.436,1.059,2210.672479
1 Dec 2019 19:19:08.000,55.410,0.995,2217.532079
1 Dec 2019 19:19:09.000,55.385,0.930,2224.392272
1 Dec 2019 19:19:10.000,55.360,0.866,2231.253051
1 Dec 2019 19:19:11.000,55.335,0.802,2238.114400
1 Dec 2019 19:19:12.000,55.310,0.738,2244.976303
1 Dec 2019 19:19:13.000,55.286,0.675,2251.838751
1 Dec 2019 19:19:14.000,55.261,0.612,2258.701729
1 Dec 2019 19:19:15.000,55.237,0.548,2265.565223
1 Dec 2019 19:19:16.000,55.213,0.485,2272.429219
1 Dec 2019 19:19:17.000,55.189,0.423,2279.293709
1 Dec 2019 19:19:18.000,55.165,0.360,2286.158678
1 Dec 2019 19:19:19.000,55.142,0.298,2293.024110
1 Dec 2019 19:19:20.000,55.118,0.235,2299.889999
1 Dec 2019 19:19:21.000,55.095,0.173,2306.756330
1 Dec 2019 19:19:22.000,55.072,0.111,2313.623090
1 Dec 2019 19:19:23.000,55.049,0.050,2320.490265
1 Dec 2019 19:19:24.000,55.026,-0.012,2327.357849
1 Dec 2019 19:19:25.000,55.004,-0.073,2334.225827
1 Dec 2019 19:19:25.837,54.985,-0.124,2339.971511
1 Dec 2019 20:45:46.945,264.775,-0.124,2330.165444
1 Dec 2019 20:45:47.000,264.779,-0.121,2329.817785
1 Dec 2019 20:45:48.000,264.855,-0.064,2323.520335
1 Dec 2019 20:45:49.000,264.931,-0.008,2317.226237
1 Dec 2019 20:45:50.000,265.007,0.049,2310.935526
1 Dec 2019 20:45:51.000,265.083,0.106,2304.648236
1 Dec 2019 20:45:52.000,265.160,0.163,2298.364403
1 Dec 2019 20:45:53.000,265.238,0.220,2292.084061
1 Dec 2019 20:45:54.000,265.316,0.278,2285.807244
1 Dec 2019 20:45:55.000,265.394,0.335,2279.533995
1 Dec 2019 20:45:56.000,265.473,0.393,2273.264347
1 Dec 2019 20:45:57.000,265.552,0.450,2266.998336
1 Dec 2019 20:45:58.000,265.631,0.508,2260.736000
1 Dec 2019 20:45:59.000,265.711,0.566,2254.477378
1 Dec 2019 20:46:00.000,265.792,0.624,2248.222506
1 Dec 2019 20:46:01.000,265.872,0.682,2241.971423
1 Dec 2019 20:46:02.000,265.954,0.741,2235.724169
1 Dec 2019 20:46:03.000,266.035,0.799,2229.480781
1 Dec 2019 20:46:04.000,266.118,0.858,2223.241301
1 Dec 2019 20:46:05.000,266.200,0.916,2217.005768
1 Dec 2019 20:46:06.000,266.283,0.975,2210.774219
1 Dec 2019 20:46:07.000,266.367,1.034,2204.546702
1 Dec 2019 20:46:08.000,266.451,1.094,2198.323255
1 Dec 2019 20:46:09.000,266.535,1.153,2192.103919
1 Dec 2019 20:46:10.000,266.620,1.212,2185.888736
1 Dec 2019 20:46:11.000,266.705,1.272,2179.677749
1 Dec 2019 20:46:12.000,266.791,1.332,2173.471001
1 Dec 2019 20:46:13.000,266.878,1.391,2167.268536
1 Dec 2019 20:46:14.000,266.964,1.451,2161.070397
1 Dec 2019 20:46:15.000,267.052,1.512,2154.876628
1 Dec 2019 20:46:16.000,267.140,1.572,2148.687275
1 Dec 2019 20:46:17.000,267.228,1.632,2142.502382
1 Dec 2019 20:46:18.000,267.317,1.693,2136.321995
1 Dec 2019 20:46:19.000,267.406,1.754,2130.146161
1 Dec 2019 20:46:20.000,267.496,1.815,2123.974923
1 Dec 2019 20:46:21.000,267.586,1.876,2117.808334
1 Dec 2019 20:46:22.000,267.677,1.937,2111.646439
1 Dec 2019 20:46:23.000,267.768,1.998,2105.489287
1 Dec 2019 20:46:24.000,267.860,2.060,2099.336925
1 Dec 2019 20:46:25.000,267.953,2.121,2093.189403
1 Dec 2019 20:46:26.000,268.046,2.183,2087.046771
1 Dec 2019 20:46:27.000,268.139,2.245,2080.909078
1 Dec 2019 20:46:28.000,268.233,2.307,2074.776376
1 Dec 2019 20:46:29.000,268.328,2.369,2068.648716
1 Dec 2019 20:46:30.000,268.423,2.432,2062.526150
1 Dec 2019 20:46:31.000,268.519,2.494,2056.408730
1 Dec 2019 20:46:32.000,268.615,2.557,2050.296508
1 Dec 2019 20:46:33.000,268.712,2.620,2044.189540
1 Dec 2019 20:46:34.000,268.809,2.683,2038.087877
1 Dec 2019 20:46:35.000,268.907,2.746,2031.991576
1 Dec 2019 20:46:36.000,269.006,2.810,2025.900692
1 Dec 2019 20:46:37.000,269.105,2.873,2019.815280
1 Dec 2019 20:46:38.000,269.205,2.937,2013.735397
1 Dec 2019 20:46:39.000,269.305,3.001,2007.661099
1 Dec 2019 20:46:40.000,269.406,3.065,2001.592445
1 Dec 2019 20:46:41.000,269.508,3.129,1995.529493
1 Dec 2019 20:46:42.000,269.610,3.193,1989.472302
1 Dec 2019 20:46:43.000,269.713,3.258,1983.420931
1 Dec 2019 20:46:44.000,269.816,3.323,1977.375440
1 Dec 2019 20:46:45.000,269.920,3.387,1971.335891
1 Dec 2019 20:46:46.000,270.025,3.453,1965.302345
1 Dec 2019 20:46:47.000,270.131,3.518,1959.274864
1 Dec 2019 20:46:48.000,270.237,3.583,1953.253512
1 Dec 2019 20:46:49.000,270.343,3.649,1947.238351
1 Dec 2019 20:46:50.000,270.451,3.714,1941.229446
1 Dec 2019 20:46:51.000,270.559,3.780,1935.226862
1 Dec 2019 20:46:52.000,270.667,3.846,1929.230664
1 Dec 2019 20:46:53.000,270.777,3.913,1923.240920
1 Dec 2019 20:46:54.000,270.887,3.979,1917.257697
1 Dec 2019 20:46:55.000,270.997,4.046,1911.281061
1 Dec 2019 20:46:56.000,271.109,4.113,1905.311083
1 Dec 2019 20:46:57.000,271.221,4.180,1899.347831
1 Dec 2019 20:46:58.000,271.334,4.247,1893.391376
1 Dec 2019 20:46:59.000,271.447,4.314,1887.441788
1 Dec 2019 20:47:00.000,271.562,4.382,1881.499140
1 Dec 2019 20:47:01.000,271.677,4.449,1875.563504
1 Dec 2019 20:47:02.000,271.792,4.517,1869.634954
1 Dec 2019 20:47:03.000,271.909,4.585,1863.713563
1 Dec 2019 20:47:04.000,272.026,4.654,1857.799407
1 Dec 2019 20:47:05.000,272.144,4.722,1851.892562
1 Dec 2019 20:47:06.000,272.263,4.791,1845.993105
1 Dec 2019 20:47:07.000,272.382,4.860,1840.101112
1 Dec 2019 20:47:08.000,272.502,4.929,1834.216663
1 Dec 2019 20:47:09.000,272.623,4.998,1828.339838
1 Dec 2019 20:47:10.000,272.745,5.067,1822.470715
1 Dec 2019 20:47:11.000,272.868,5.137,1816.609378
1 Dec 2019 20:47:12.000,272.991,5.207,1810.755907
1 Dec 2019 20:47:13.000,273.116,5.277,1804.910386
1 Dec 2019 20:47:14.000,273.241,5.347,1799.072898
1 Dec 2019 20:47:15.000,273.367,5.417,1793.243530
1 Dec 2019 20:47:16.000,273.493,5.488,1787.422366
1 Dec 2019 20:47:17.000,273.621,5.559,1781.609493
1 Dec 2019 20:47:18.000,273.749,5.630,1775.805001
1 Dec 2019 20:47:19.000,273.879,5.701,1770.008976
1 Dec 2019 20:47:20.000,274.009,5.772,1764.221510
1 Dec 2019 20:47:21.000,274.140,5.844,1758.442693
1 Dec 2019 20:47:22.000,274.272,5.916,1752.672621
1 Dec 2019 20:47:23.000,274.404,5.988,1746.911379
1 Dec 2019 20:47:24.000,274.538,6.060,1741.159066
1 Dec 2019 20:47:25.000,274.673,6.132,1735.415776
1 Dec 2019 20:47:26.000,274.808,6.205,1729.681607
1 Dec 2019 20:47:27.000,274.944,6.278,1723.956654
1 Dec 2019 20:47:28.000,275.082,6.351,1718.241017
1 Dec 2019 20:47:29.000,275.220,6.424,1712.534795
1 Dec 2019 20:47:30.000,275.359,6.497,1706.838089
1 Dec 2019 20:47:31.000,275.499,6.571,1701.151001
1 Dec 2019 20:47:32.000,275.641,6.645,1695.473634
1 Dec 2019 20:47:33.000,275.783,6.719,1689.806096
1 Dec 2019 20:47:34.000,275.926,6.793,1684.148486
1 Dec 2019 20:47:35.000,276.070,6.868,1678.500912
1 Dec 2019 20:47:36.000,276.215,6.942,1672.863484
1 Dec 2019 20:47:37.000,276.361,7.017,1667.236311
1 Dec 2019 20:47:38.000,276.508,7.092,1661.619502
1 Dec 2019 20:47:39.000,276.656,7.167,1656.013171
1 Dec 2019 20:47:40.000,276.805,7.243,1650.417428
1 Dec 2019 20:47:41.000,276.955,7.319,1644.832393
1 Dec 2019 20:47:42.000,277.107,7.395,1639.258174
1 Dec 2019 20:47:43.000,277.259,7.471,1633.694892
1 Dec 2019 20:47:44.000,277.412,7.547,1628.142664
1 Dec 2019 20:47:45.000,277.567,7.624,1622.601610
1 Dec 2019 20:47:46.000,277.722,7.700,1617.071851
1 Dec 2019 20:47:47.000,277.879,7.777,1611.553510
1 Dec 2019 20:47:48.000,278.037,7.854,1606.046714
1 Dec 2019 20:47:49.000,278.196,7.932,1600.551580
1 Dec 2019 20:47:50.000,278.356,8.009,1595.068240
1 Dec 2019 20:47:51.000,278.517,8.087,1589.596821
1 Dec 2019 20:47:52.000,278.679,8.165,1584.137453
1 Dec 2019 20:47:53.000,278.843,8.243,1578.690267
1 Dec 2019 20:47:54.000,279.008,8.322,1573.255399
1 Dec 2019 20:47:55.000,279.173,8.400,1567.832975
1 Dec 2019 20:47:56.000,279.340,8.479,1562.423136
1 Dec 2019 20:47:57.000,279.509,8.558,1557.026018
1 Dec 2019 20:47:58.000,279.678,8.637,1551.641759
1 Dec 2019 20:47:59.000,279.849,8.717,1546.270504
1 Dec 2019 20:48:00.000,280.021,8.797,1540.912387
1 Dec 2019 20:48:01.000,280.194,8.876,1535.567556
1 Dec 2019 20:48:02.000,280.369,8.957,1530.236155
1 Dec 2019 20:48:03.000,280.544,9.037,1524.918334
1 Dec 2019 20:48:04.000,280.721,9.117,1519.614236
1 Dec 2019 20:48:05.000,280.900,9.198,1514.324013
1 Dec 2019 20:48:06.000,281.079,9.279,1509.047817
1 Dec 2019 20:48:07.000,281.260,9.360,1503.785802
1 Dec 2019 20:48:08.000,281.443,9.441,1498.538126
1 Dec 2019 20:48:09.000,281.626,9.523,1493.304939
1 Dec 2019 20:48:10.000,281.811,9.604,1488.086404
1 Dec 2019 20:48:11.000,281.998,9.686,1482.882680
1 Dec 2019 20:48:12.000,282.186,9.768,1477.693934
1 Dec 2019 20:48:13.000,282.375,9.850,1472.520321
1 Dec 2019 20:48:14.000,282.565,9.933,1467.362013
1 Dec 2019 20:48:15.000,282.757,10.015,1462.219179
1 Dec 2019 20:48:16.000,282.951,10.098,1457.091982
1 Dec 2019 20:48:17.000,283.146,10.181,1451.980597
1 Dec 2019 20:48:18.000,283.342,10.264,1446.885197
1 Dec 2019 20:48:19.000,283.540,10.348,1441.805960
1 Dec 2019 20:48:20.000,283.739,10.431,1436.743057
1 Dec 2019 20:48:21.000,283.940,10.515,1431.696669
1 Dec 2019 20:48:22.000,284.142,10.599,1426.666981
1 Dec 2019 20:48:23.000,284.346,10.683,1421.654169
1 Dec 2019 20:48:24.000,284.551,10.767,1416.658421
1 Dec 2019 20:48:25.000,284.758,10.852,1411.679927
1 Dec 2019 20:48:26.000,284.966,10.936,1406.718868
1 Dec 2019 20:48:27.000,285.176,11.021,1401.775438
1 Dec 2019 20:48:28.000,285.388,11.106,1396.849834
1 Dec 2019 20:48:29.000,285.601,11.191,1391.942243
1 Dec 2019 20:48:30.000,285.816,11.276,1387.052864
1 Dec 2019 20:48:31.000,286.032,11.361,1382.181901
1 Dec 2019 20:48:32.000,286.250,11.447,1377.329547
1 Dec 2019 20:48:33.000,286.470,11.532,1372.496010
1 Dec 2019 20:48:34.000,286.691,11.618,1367.681490
1 Dec 2019 20:48:35.000,286.915,11.704,1362.886196
1 Dec 2019 20:48:36.000,287.139,11.790,1358.110341
1 Dec 2019 20:48:37.000,287.366,11.876,1353.354128
1 Dec 2019 20:48:38.000,287.594,11.962,1348.617777
1 Dec 2019 20:48:39.000,287.824,12.049,1343.901498
1 Dec 2019 20:48:40.000,288.055,12.135,1339.205509
1 Dec 2019 20:48:41.000,288.289,12.222,1334.530034
1 Dec 2019 20:48:42.000,288.524,12.308,1329.875287
1 Dec 2019 20:48:43.000,288.761,12.395,1325.241499
1 Dec 2019 20:48:44.000,289.000,12.482,1320.628889
1 Dec 2019 20:48:45.000,289.240,12.569,1316.037690
1 Dec 2019 20:48:46.000,289.482,12.656,1311.468126
1 Dec 2019 20:48:47.000,289.727,12.743,1306.920435
1 Dec 2019 20:48:48.000,289.973,12.830,1302.394845
1 Dec 2019 20:48:49.000,290.221,12.918,1297.891598
1 Dec 2019 20:48:50.000,290.470,13.005,1293.410926
1 Dec 2019 20:48:51.000,290.722,13.092,1288.953076
1 Dec 2019 20:48:52.000,290.976,13.180,1284.518283
1 Dec 2019 20:48:53.000,291.231,13.267,1280.106798
1 Dec 2019 20:48:54.000,291.488,13.354,1275.718862
1 Dec 2019 20:48:55.000,291.748,13.442,1271.354728
1 Dec 2019 20:48:56.000,292.009,13.529,1267.014643
1 Dec 2019 20:48:57.000,292.272,13.617,1262.698863
1 Dec 2019 20:48:58.000,292.538,13.704,1258.407639
1 Dec 2019 20:48:59.000,292.805,13.792,1254.141232
1 Dec 2019 20:49:00.000,293.074,13.879,1249.899898
1 Dec 2019 20:49:01.000,293.345,13.967,1245.683894
1 Dec 2019 20:49:02.000,293.619,14.054,1241.493490
1 Dec 2019 20:49:03.000,293.894,14.141,1237.328943
1 Dec 2019 20:49:04.000,294.171,14.229,1233.190526
1 Dec 2019 20:49:05.000,294.451,14.316,1229.078505
1 Dec 2019 20:49:06.000,294.732,14.403,1224.993146
1 Dec 2019 20:49:07.000,295.016,14.490,1220.934727
1 Dec 2019 20:49:08.000,295.301,14.577,1216.903520
1 Dec 2019 20:49:09.000,295.589,14.664,1212.899796
1 Dec 2019 20:49:10.000,295.879,14.750,1208.923839
1 Dec 2019 20:49:11.000,296.171,14.837,1204.975925
1 Dec 2019 20:49:12.000,296.465,14.923,1201.056331
1 Dec 2019 20:49:13.000,296.761,15.010,1197.165346
1 Dec 2019 20:49:14.000,297.059,15.096,1193.303251
1 Dec 2019 20:49:15.000,297.360,15.182,1189.470328
1 Dec 2019 20:49:16.000,297.663,15.267,1185.666870
1 Dec 2019 20:49:17.000,297.967,15.353,1181.893162
1 Dec 2019 20:49:18.000,298.274,15.438,1178.149495
1 Dec 2019 20:49:19.000,298.584,15.524,1174.436156
1 Dec 2019 20:49:20.000,298.895,15.608,1170.753443
1 Dec 2019 20:49:21.000,299.209,15.693,1167.101648
1 Dec 2019 20:49:22.000,299.524,15.777,1163.481065
1 Dec 2019 20:49:23.000,299.842,15.861,1159.891988
1 Dec 2019 20:49:24.000,300.162,15.945,1156.334719
