vcc_sched/network/input/aer_wff_wff_vcc-c_44430.csv

"Time (UTCG)","Azimuth (deg)","Elevation (deg)","Range (km)"
3 Feb 2020 17:17:52.100,213.426,-0.078,2306.920268
3 Feb 2020 17:17:53.000,213.395,-0.023,2300.799175
3 Feb 2020 17:17:54.000,213.359,0.038,2293.996458
3 Feb 2020 17:17:55.000,213.324,0.100,2287.194611
3 Feb 2020 17:17:56.000,213.288,0.161,2280.393648
3 Feb 2020 17:17:57.000,213.252,0.223,2273.593583
3 Feb 2020 17:17:58.000,213.215,0.285,2266.794436
3 Feb 2020 17:17:59.000,213.179,0.348,2259.996222
3 Feb 2020 17:18:00.000,213.142,0.410,2253.198958
3 Feb 2020 17:18:01.000,213.105,0.473,2246.402659
3 Feb 2020 17:18:02.000,213.067,0.535,2239.607345
3 Feb 2020 17:18:03.000,213.030,0.598,2232.813031
3 Feb 2020 17:18:04.000,212.992,0.662,2226.019736
3 Feb 2020 17:18:05.000,212.954,0.725,2219.227475
3 Feb 2020 17:18:06.000,212.916,0.789,2212.436269
3 Feb 2020 17:18:07.000,212.877,0.852,2205.646134
3 Feb 2020 17:18:08.000,212.839,0.916,2198.857087
3 Feb 2020 17:18:09.000,212.800,0.981,2192.069150
3 Feb 2020 17:18:10.000,212.760,1.045,2185.282340
3 Feb 2020 17:18:11.000,212.721,1.109,2178.496675
3 Feb 2020 17:18:12.000,212.681,1.174,2171.712173
3 Feb 2020 17:18:13.000,212.641,1.239,2164.928855
3 Feb 2020 17:18:14.000,212.601,1.304,2158.146741
3 Feb 2020 17:18:15.000,212.560,1.370,2151.365849
3 Feb 2020 17:18:16.000,212.520,1.435,2144.586198
3 Feb 2020 17:18:17.000,212.478,1.501,2137.807810
3 Feb 2020 17:18:18.000,212.437,1.567,2131.030706
3 Feb 2020 17:18:19.000,212.395,1.633,2124.254904
3 Feb 2020 17:18:20.000,212.353,1.700,2117.480424
3 Feb 2020 17:18:21.000,212.311,1.767,2110.707291
3 Feb 2020 17:18:22.000,212.269,1.834,2103.935524
3 Feb 2020 17:18:23.000,212.226,1.901,2097.165145
3 Feb 2020 17:18:24.000,212.183,1.968,2090.396172
3 Feb 2020 17:18:25.000,212.140,2.036,2083.628633
3 Feb 2020 17:18:26.000,212.096,2.103,2076.862547
3 Feb 2020 17:18:27.000,212.052,2.171,2070.097937
3 Feb 2020 17:18:28.000,212.008,2.240,2063.334823
3 Feb 2020 17:18:29.000,211.963,2.308,2056.573233
3 Feb 2020 17:18:30.000,211.918,2.377,2049.813187
3 Feb 2020 17:18:31.000,211.873,2.446,2043.054710
3 Feb 2020 17:18:32.000,211.827,2.515,2036.297822
3 Feb 2020 17:18:33.000,211.782,2.585,2029.542553
3 Feb 2020 17:18:34.000,211.736,2.654,2022.788925
3 Feb 2020 17:18:35.000,211.689,2.724,2016.036962
3 Feb 2020 17:18:36.000,211.642,2.795,2009.286687
3 Feb 2020 17:18:37.000,211.595,2.865,2002.538129
3 Feb 2020 17:18:38.000,211.548,2.936,1995.791313
3 Feb 2020 17:18:39.000,211.500,3.007,1989.046262
3 Feb 2020 17:18:40.000,211.452,3.078,1982.303006
3 Feb 2020 17:18:41.000,211.403,3.150,1975.561570
3 Feb 2020 17:18:42.000,211.354,3.222,1968.821980
3 Feb 2020 17:18:43.000,211.305,3.294,1962.084265
3 Feb 2020 17:18:44.000,211.255,3.366,1955.348449
3 Feb 2020 17:18:45.000,211.206,3.439,1948.614564
3 Feb 2020 17:18:46.000,211.155,3.512,1941.882637
3 Feb 2020 17:18:47.000,211.105,3.585,1935.152696
3 Feb 2020 17:18:48.000,211.054,3.658,1928.424769
3 Feb 2020 17:18:49.000,211.002,3.732,1921.698887
3 Feb 2020 17:18:50.000,210.950,3.806,1914.975080
3 Feb 2020 17:18:51.000,210.898,3.880,1908.253378
3 Feb 2020 17:18:52.000,210.846,3.955,1901.533808
3 Feb 2020 17:18:53.000,210.793,4.030,1894.816406
3 Feb 2020 17:18:54.000,210.739,4.105,1888.101201
3 Feb 2020 17:18:55.000,210.685,4.181,1881.388224
3 Feb 2020 17:18:56.000,210.631,4.256,1874.677507
3 Feb 2020 17:18:57.000,210.577,4.333,1867.969084
3 Feb 2020 17:18:58.000,210.522,4.409,1861.262988
3 Feb 2020 17:18:59.000,210.466,4.486,1854.559251
3 Feb 2020 17:19:00.000,210.410,4.563,1847.857906
3 Feb 2020 17:19:01.000,210.354,4.640,1841.158990
3 Feb 2020 17:19:02.000,210.297,4.718,1834.462537
3 Feb 2020 17:19:03.000,210.240,4.796,1827.768581
3 Feb 2020 17:19:04.000,210.182,4.874,1821.077157
3 Feb 2020 17:19:05.000,210.124,4.953,1814.388304
3 Feb 2020 17:19:06.000,210.066,5.032,1807.702057
3 Feb 2020 17:19:07.000,210.007,5.112,1801.018453
3 Feb 2020 17:19:08.000,209.947,5.191,1794.337531
3 Feb 2020 17:19:09.000,209.887,5.271,1787.659325
3 Feb 2020 17:19:10.000,209.827,5.352,1780.983879
3 Feb 2020 17:19:11.000,209.766,5.433,1774.311231
3 Feb 2020 17:19:12.000,209.705,5.514,1767.641419
3 Feb 2020 17:19:13.000,209.643,5.595,1760.974482
3 Feb 2020 17:19:14.000,209.581,5.677,1754.310465
3 Feb 2020 17:19:15.000,209.518,5.760,1747.649408
3 Feb 2020 17:19:16.000,209.454,5.842,1740.991353
3 Feb 2020 17:19:17.000,209.390,5.925,1734.336342
3 Feb 2020 17:19:18.000,209.326,6.009,1727.684416
3 Feb 2020 17:19:19.000,209.261,6.092,1721.035624
3 Feb 2020 17:19:20.000,209.195,6.177,1714.390008
3 Feb 2020 17:19:21.000,209.129,6.261,1707.747612
3 Feb 2020 17:19:22.000,209.063,6.346,1701.108482
3 Feb 2020 17:19:23.000,208.995,6.431,1694.472668
3 Feb 2020 17:19:24.000,208.928,6.517,1687.840213
3 Feb 2020 17:19:25.000,208.859,6.603,1681.211168
3 Feb 2020 17:19:26.000,208.791,6.690,1674.585579
3 Feb 2020 17:19:27.000,208.721,6.777,1667.963494
3 Feb 2020 17:19:28.000,208.651,6.865,1661.344968
3 Feb 2020 17:19:29.000,208.580,6.952,1654.730048
3 Feb 2020 17:19:30.000,208.509,7.041,1648.118787
3 Feb 2020 17:19:31.000,208.437,7.129,1641.511236
3 Feb 2020 17:19:32.000,208.365,7.219,1634.907447
3 Feb 2020 17:19:33.000,208.291,7.308,1628.307478
3 Feb 2020 17:19:34.000,208.218,7.398,1621.711381
3 Feb 2020 17:19:35.000,208.143,7.489,1615.119211
3 Feb 2020 17:19:36.000,208.068,7.580,1608.531025
3 Feb 2020 17:19:37.000,207.992,7.671,1601.946878
3 Feb 2020 17:19:38.000,207.916,7.763,1595.366833
3 Feb 2020 17:19:39.000,207.839,7.856,1588.790945
3 Feb 2020 17:19:40.000,207.761,7.949,1582.219275
3 Feb 2020 17:19:41.000,207.682,8.042,1575.651884
3 Feb 2020 17:19:42.000,207.603,8.136,1569.088832
3 Feb 2020 17:19:43.000,207.523,8.230,1562.530184
3 Feb 2020 17:19:44.000,207.442,8.325,1555.976003
3 Feb 2020 17:19:45.000,207.361,8.420,1549.426354
3 Feb 2020 17:19:46.000,207.279,8.516,1542.881302
3 Feb 2020 17:19:47.000,207.196,8.613,1536.340911
3 Feb 2020 17:19:48.000,207.112,8.710,1529.805254
3 Feb 2020 17:19:49.000,207.028,8.807,1523.274398
3 Feb 2020 17:19:50.000,206.942,8.905,1516.748412
3 Feb 2020 17:19:51.000,206.856,9.004,1510.227367
3 Feb 2020 17:19:52.000,206.769,9.103,1503.711336
3 Feb 2020 17:19:53.000,206.682,9.202,1497.200391
3 Feb 2020 17:19:54.000,206.593,9.303,1490.694609
3 Feb 2020 17:19:55.000,206.504,9.403,1484.194065
3 Feb 2020 17:19:56.000,206.414,9.505,1477.698835
3 Feb 2020 17:19:57.000,206.323,9.607,1471.208998
3 Feb 2020 17:19:58.000,206.231,9.709,1464.724633
3 Feb 2020 17:19:59.000,206.138,9.812,1458.245821
3 Feb 2020 17:20:00.000,206.044,9.916,1451.772645
3 Feb 2020 17:20:01.000,205.949,10.020,1445.305189
3 Feb 2020 17:20:02.000,205.854,10.125,1438.843537
3 Feb 2020 17:20:03.000,205.757,10.231,1432.387775
3 Feb 2020 17:20:04.000,205.659,10.337,1425.937993
3 Feb 2020 17:20:05.000,205.561,10.444,1419.494276
3 Feb 2020 17:20:06.000,205.461,10.551,1413.056720
3 Feb 2020 17:20:07.000,205.361,10.659,1406.625415
3 Feb 2020 17:20:08.000,205.259,10.768,1400.200455
3 Feb 2020 17:20:09.000,205.157,10.877,1393.781936
3 Feb 2020 17:20:10.000,205.053,10.987,1387.369955
3 Feb 2020 17:20:11.000,204.949,11.098,1380.964610
3 Feb 2020 17:20:12.000,204.843,11.210,1374.566002
3 Feb 2020 17:20:13.000,204.736,11.322,1368.174235
3 Feb 2020 17:20:14.000,204.628,11.434,1361.789411
3 Feb 2020 17:20:15.000,204.519,11.548,1355.411638
3 Feb 2020 17:20:16.000,204.409,11.662,1349.041022
3 Feb 2020 17:20:17.000,204.298,11.777,1342.677673
3 Feb 2020 17:20:18.000,204.185,11.893,1336.321703
3 Feb 2020 17:20:19.000,204.071,12.009,1329.973225
3 Feb 2020 17:20:20.000,203.957,12.126,1323.632354
3 Feb 2020 17:20:21.000,203.840,12.244,1317.299210
3 Feb 2020 17:20:22.000,203.723,12.363,1310.973911
3 Feb 2020 17:20:23.000,203.604,12.483,1304.656579
3 Feb 2020 17:20:24.000,203.484,12.603,1298.347338
3 Feb 2020 17:20:25.000,203.363,12.724,1292.046314
3 Feb 2020 17:20:26.000,203.241,12.846,1285.753636
3 Feb 2020 17:20:27.000,203.117,12.968,1279.469435
3 Feb 2020 17:20:28.000,202.991,13.092,1273.193843
3 Feb 2020 17:20:29.000,202.865,13.216,1266.926997
3 Feb 2020 17:20:30.000,202.737,13.341,1260.669033
3 Feb 2020 17:20:31.000,202.607,13.467,1254.420094
3 Feb 2020 17:20:32.000,202.476,13.594,1248.180323
3 Feb 2020 17:20:33.000,202.344,13.722,1241.949864
3 Feb 2020 17:20:34.000,202.210,13.850,1235.728867
3 Feb 2020 17:20:35.000,202.074,13.980,1229.517483
3 Feb 2020 17:20:36.000,201.937,14.110,1223.315865
3 Feb 2020 17:20:37.000,201.799,14.241,1217.124172
3 Feb 2020 17:20:38.000,201.659,14.373,1210.942561
3 Feb 2020 17:20:39.000,201.517,14.506,1204.771197
3 Feb 2020 17:20:40.000,201.373,14.640,1198.610244
3 Feb 2020 17:20:41.000,201.228,14.775,1192.459873
3 Feb 2020 17:20:42.000,201.081,14.911,1186.320254
3 Feb 2020 17:20:43.000,200.932,15.048,1180.191564
3 Feb 2020 17:20:44.000,200.782,15.186,1174.073981
3 Feb 2020 17:20:45.000,200.630,15.325,1167.967687
3 Feb 2020 17:20:46.000,200.476,15.464,1161.872866
3 Feb 2020 17:20:47.000,200.320,15.605,1155.789709
3 Feb 2020 17:20:48.000,200.162,15.747,1149.718409
3 Feb 2020 17:20:49.000,200.003,15.890,1143.659161
3 Feb 2020 17:20:50.000,199.841,16.033,1137.612165
3 Feb 2020 17:20:51.000,199.677,16.178,1131.577625
3 Feb 2020 17:20:52.000,199.512,16.324,1125.555748
3 Feb 2020 17:20:53.000,199.344,16.471,1119.546748
3 Feb 2020 17:20:54.000,199.174,16.619,1113.550838
3 Feb 2020 17:20:55.000,199.002,16.768,1107.568240
3 Feb 2020 17:20:56.000,198.828,16.919,1101.599178
3 Feb 2020 17:20:57.000,198.652,17.070,1095.643879
3 Feb 2020 17:20:58.000,198.473,17.222,1089.702577
3 Feb 2020 17:20:59.000,198.292,17.376,1083.775510
3 Feb 2020 17:21:00.000,198.109,17.531,1077.862919
3 Feb 2020 17:21:01.000,197.924,17.687,1071.965052
3 Feb 2020 17:21:02.000,197.736,17.844,1066.082159
3 Feb 2020 17:21:03.000,197.546,18.002,1060.214499
3 Feb 2020 17:21:04.000,197.353,18.161,1054.362331
3 Feb 2020 17:21:05.000,197.157,18.322,1048.525922
3 Feb 2020 17:21:06.000,196.959,18.483,1042.705544
3 Feb 2020 17:21:07.000,196.759,18.646,1036.901475
3 Feb 2020 17:21:08.000,196.556,18.810,1031.113997
3 Feb 2020 17:21:09.000,196.350,18.976,1025.343397
3 Feb 2020 17:21:10.000,196.141,19.142,1019.589971
3 Feb 2020 17:21:11.000,195.929,19.310,1013.854016
3 Feb 2020 17:21:12.000,195.715,19.479,1008.135838
3 Feb 2020 17:21:13.000,195.497,19.649,1002.435749
3 Feb 2020 17:21:14.000,195.277,19.821,996.754066
3 Feb 2020 17:21:15.000,195.054,19.994,991.091112
3 Feb 2020 17:21:16.000,194.827,20.168,985.447218
3 Feb 2020 17:21:17.000,194.598,20.343,979.822719
3 Feb 2020 17:21:18.000,194.365,20.520,974.217958
3 Feb 2020 17:21:19.000,194.129,20.698,968.633286
3 Feb 2020 17:21:20.000,193.889,20.877,963.069057
3 Feb 2020 17:21:21.000,193.646,21.058,957.525635
3 Feb 2020 17:21:22.000,193.400,21.240,952.003392
3 Feb 2020 17:21:23.000,193.150,21.423,946.502704
3 Feb 2020 17:21:24.000,192.897,21.608,941.023956
3 Feb 2020 17:21:25.000,192.640,21.794,935.567540
3 Feb 2020 17:21:26.000,192.379,21.981,930.133855
3 Feb 2020 17:21:27.000,192.115,22.169,924.723310
3 Feb 2020 17:21:28.000,191.846,22.359,919.336320
3 Feb 2020 17:21:29.000,191.574,22.550,913.973307
3 Feb 2020 17:21:30.000,191.298,22.743,908.634703
3 Feb 2020 17:21:31.000,191.017,22.937,903.320947
3 Feb 2020 17:21:32.000,190.733,23.132,898.032487
3 Feb 2020 17:21:33.000,190.444,23.329,892.769779
3 Feb 2020 17:21:34.000,190.151,23.527,887.533287
3 Feb 2020 17:21:35.000,189.854,23.726,882.323485
3 Feb 2020 17:21:36.000,189.552,23.926,877.140854
3 Feb 2020 17:21:37.000,189.245,24.128,871.985887
3 Feb 2020 17:21:38.000,188.934,24.331,866.859081
3 Feb 2020 17:21:39.000,188.618,24.536,861.760946
3 Feb 2020 17:21:40.000,188.297,24.742,856.692002
3 Feb 2020 17:21:41.000,187.971,24.949,851.652774
3 Feb 2020 17:21:42.000,187.641,25.157,846.643800
3 Feb 2020 17:21:43.000,187.305,25.366,841.665626
3 Feb 2020 17:21:44.000,186.964,25.577,836.718809
3 Feb 2020 17:21:45.000,186.618,25.789,831.803912
3 Feb 2020 17:21:46.000,186.266,26.002,826.921513
3 Feb 2020 17:21:47.000,185.909,26.217,822.072196
3 Feb 2020 17:21:48.000,185.546,26.432,817.256555
3 Feb 2020 17:21:49.000,185.177,26.649,812.475196
3 Feb 2020 17:21:50.000,184.803,26.866,807.728734
3 Feb 2020 17:21:51.000,184.423,27.085,803.017792
3 Feb 2020 17:21:52.000,184.037,27.305,798.343006
3 Feb 2020 17:21:53.000,183.644,27.525,793.705021
3 Feb 2020 17:21:54.000,183.246,27.747,789.104490
3 Feb 2020 17:21:55.000,182.841,27.970,784.542079
3 Feb 2020 17:21:56.000,182.430,28.193,780.018462
3 Feb 2020 17:21:57.000,182.012,28.418,775.534323
3 Feb 2020 17:21:58.000,181.587,28.643,771.090358
3 Feb 2020 17:21:59.000,181.156,28.869,766.687269
3 Feb 2020 17:22:00.000,180.717,29.095,762.325771
3 Feb 2020 17:22:01.000,180.272,29.322,758.006588
3 Feb 2020 17:22:02.000,179.820,29.550,753.730451
3 Feb 2020 17:22:03.000,179.360,29.778,749.498103
3 Feb 2020 17:22:04.000,178.893,30.007,745.310296
3 Feb 2020 17:22:05.000,178.419,30.236,741.167789
3 Feb 2020 17:22:06.000,177.937,30.465,737.071352
3 Feb 2020 17:22:07.000,177.447,30.695,733.021761
3 Feb 2020 17:22:08.000,176.949,30.924,729.019803
3 Feb 2020 17:22:09.000,176.444,31.154,725.066272
3 Feb 2020 17:22:10.000,175.930,31.384,721.161969
3 Feb 2020 17:22:11.000,175.409,31.613,717.307702
3 Feb 2020 17:22:12.000,174.879,31.843,713.504287
3 Feb 2020 17:22:13.000,174.341,32.071,709.752547
3 Feb 2020 17:22:14.000,173.794,32.300,706.053310
3 Feb 2020 17:22:15.000,173.239,32.528,702.407410
3 Feb 2020 17:22:16.000,172.675,32.755,698.815686
3 Feb 2020 17:22:17.000,172.102,32.982,695.278984
3 Feb 2020 17:22:18.000,171.521,33.207,691.798150
3 Feb 2020 17:22:19.000,170.931,33.432,688.374037
3 Feb 2020 17:22:20.000,170.331,33.655,685.007500
3 Feb 2020 17:22:21.000,169.723,33.877,681.699397
3 Feb 2020 17:22:22.000,169.106,34.097,678.450585
3 Feb 2020 17:22:23.000,168.479,34.316,675.261925
3 Feb 2020 17:22:24.000,167.843,34.534,672.134277
3 Feb 2020 17:22:25.000,167.198,34.749,669.068500
3 Feb 2020 17:22:26.000,166.544,34.962,666.065454
3 Feb 2020 17:22:27.000,165.880,35.173,663.125994
3 Feb 2020 17:22:28.000,165.208,35.382,660.250972
3 Feb 2020 17:22:29.000,164.525,35.588,657.441239
3 Feb 2020 17:22:30.000,163.834,35.791,654.697638
3 Feb 2020 17:22:31.000,163.132,35.991,652.021007
3 Feb 2020 17:22:32.000,162.422,36.189,649.412178
3 Feb 2020 17:22:33.000,161.703,36.383,646.871975
3 Feb 2020 17:22:34.000,160.974,36.573,644.401213
3 Feb 2020 17:22:35.000,160.236,36.760,642.000697
3 Feb 2020 17:22:36.000,159.489,36.944,639.671218
3 Feb 2020 17:22:37.000,158.733,37.123,637.413562
3 Feb 2020 17:22:38.000,157.968,37.298,635.228496
3 Feb 2020 17:22:39.000,157.194,37.468,633.116775
3 Feb 2020 17:22:40.000,156.412,37.634,631.079136
3 Feb 2020 17:22:41.000,155.621,37.795,629.116304
3 Feb 2020 17:22:42.000,154.822,37.952,627.228984
3 Feb 2020 17:22:43.000,154.015,38.103,625.417859
3 Feb 2020 17:22:44.000,153.200,38.249,623.683598
3 Feb 2020 17:22:45.000,152.377,38.389,622.026845
3 Feb 2020 17:22:46.000,151.546,38.524,620.448224
3 Feb 2020 17:22:47.000,150.709,38.652,618.948334
3 Feb 2020 17:22:48.000,149.864,38.775,617.527753
3 Feb 2020 17:22:49.000,149.013,38.892,616.187027
3 Feb 2020 17:22:50.000,148.156,39.002,614.926685
3 Feb 2020 17:22:51.000,147.292,39.106,613.747221
3 Feb 2020 17:22:52.000,146.423,39.203,612.649106
3 Feb 2020 17:22:53.000,145.549,39.294,611.632776
3 Feb 2020 17:22:54.000,144.669,39.377,610.698644
3 Feb 2020 17:22:55.000,143.785,39.454,609.847089
3 Feb 2020 17:22:56.000,142.896,39.523,609.078457
3 Feb 2020 17:22:57.000,142.004,39.586,608.393064
3 Feb 2020 17:22:58.000,141.109,39.640,607.791193
3 Feb 2020 17:22:59.000,140.210,39.688,607.273093
3 Feb 2020 17:23:00.000,139.309,39.728,606.838982
3 Feb 2020 17:23:01.000,138.406,39.761,606.489036
3 Feb 2020 17:23:02.000,137.501,39.785,606.223405
3 Feb 2020 17:23:03.000,136.594,39.803,606.042200
3 Feb 2020 17:23:04.000,135.687,39.813,605.945497
3 Feb 2020 17:23:05.000,134.780,39.815,605.933336
3 Feb 2020 17:23:06.000,133.873,39.809,606.005723
3 Feb 2020 17:23:07.000,132.966,39.796,606.162628
3 Feb 2020 17:23:08.000,132.061,39.775,606.403986
3 Feb 2020 17:23:09.000,131.157,39.746,606.729695
3 Feb 2020 17:23:10.000,130.255,39.710,607.139620
3 Feb 2020 17:23:11.000,129.355,39.667,607.633590
3 Feb 2020 17:23:12.000,128.458,39.616,608.211397
3 Feb 2020 17:23:13.000,127.565,39.558,608.872808
3 Feb 2020 17:23:14.000,126.675,39.492,609.617546
3 Feb 2020 17:23:15.000,125.789,39.420,610.445307
3 Feb 2020 17:23:16.000,124.907,39.340,611.355750
3 Feb 2020 17:23:17.000,124.031,39.253,612.348510
3 Feb 2020 17:23:18.000,123.160,39.160,613.423184
3 Feb 2020 17:23:19.000,122.294,39.060,614.579340
3 Feb 2020 17:23:20.000,121.434,38.953,615.816521
3 Feb 2020 17:23:21.000,120.580,38.840,617.134234
3 Feb 2020 17:23:22.000,119.733,38.720,618.531969
3 Feb 2020 17:23:23.000,118.893,38.595,620.009180
3 Feb 2020 17:23:24.000,118.059,38.464,621.565296
3 Feb 2020 17:23:25.000,117.234,38.327,623.199731
3 Feb 2020 17:23:26.000,116.415,38.184,624.911861
3 Feb 2020 17:23:27.000,115.605,38.036,626.701052
3 Feb 2020 17:23:28.000,114.803,37.883,628.566647
3 Feb 2020 17:23:29.000,114.009,37.724,630.507959
3 Feb 2020 17:23:30.000,113.223,37.561,632.524292
3 Feb 2020 17:23:31.000,112.446,37.394,634.614931
3 Feb 2020 17:23:32.000,111.677,37.221,636.779137
3 Feb 2020 17:23:33.000,110.918,37.045,639.016163
3 Feb 2020 17:23:34.000,110.167,36.864,641.325247
3 Feb 2020 17:23:35.000,109.426,36.680,643.705606
3 Feb 2020 17:23:36.000,108.693,36.492,646.156452
3 Feb 2020 17:23:37.000,107.970,36.300,648.676983
3 Feb 2020 17:23:38.000,107.256,36.105,651.266388
3 Feb 2020 17:23:39.000,106.551,35.907,653.923845
3 Feb 2020 17:23:40.000,105.856,35.705,656.648528
3 Feb 2020 17:23:41.000,105.170,35.501,659.439595
3 Feb 2020 17:23:42.000,104.493,35.295,662.296207
3 Feb 2020 17:23:43.000,103.826,35.085,665.217516
3 Feb 2020 17:23:44.000,103.168,34.874,668.202670
3 Feb 2020 17:23:45.000,102.519,34.660,671.250814
3 Feb 2020 17:23:46.000,101.880,34.445,674.361090
3 Feb 2020 17:23:47.000,101.250,34.228,677.532639
3 Feb 2020 17:23:48.000,100.629,34.009,680.764602
3 Feb 2020 17:23:49.000,100.017,33.788,684.056115
3 Feb 2020 17:23:50.000,99.414,33.566,687.406325
3 Feb 2020 17:23:51.000,98.821,33.343,690.814372
3 Feb 2020 17:23:52.000,98.236,33.119,694.279399
3 Feb 2020 17:23:53.000,97.660,32.893,697.800555
3 Feb 2020 17:23:54.000,97.093,32.667,701.376989
3 Feb 2020 17:23:55.000,96.534,32.440,705.007856
3 Feb 2020 17:23:56.000,95.984,32.213,708.692313
3 Feb 2020 17:23:57.000,95.443,31.985,712.429529
3 Feb 2020 17:23:58.000,94.910,31.757,716.218673
3 Feb 2020 17:23:59.000,94.385,31.528,720.058919
3 Feb 2020 17:24:00.000,93.868,31.299,723.949447
3 Feb 2020 17:24:01.000,93.360,31.070,727.889453
3 Feb 2020 17:24:02.000,92.859,30.841,731.878129
3 Feb 2020 17:24:03.000,92.366,30.613,735.914677
3 Feb 2020 17:24:04.000,91.881,30.384,739.998315
3 Feb 2020 17:24:05.000,91.404,30.155,744.128259
3 Feb 2020 17:24:06.000,90.934,29.927,748.303736
3 Feb 2020 17:24:07.000,90.472,29.700,752.523988
3 Feb 2020 17:24:08.000,90.017,29.472,756.788256
3 Feb 2020 17:24:09.000,89.569,29.246,761.095802
3 Feb 2020 17:24:10.000,89.128,29.020,765.445885
3 Feb 2020 17:24:11.000,88.694,28.794,769.837778
3 Feb 2020 17:24:12.000,88.267,28.569,774.270769
3 Feb 2020 17:24:13.000,87.847,28.345,778.744146
3 Feb 2020 17:24:14.000,87.433,28.122,783.257218
3 Feb 2020 17:24:15.000,87.026,27.900,787.809291
3 Feb 2020 17:24:16.000,86.625,27.679,792.399694
3 Feb 2020 17:24:17.000,86.230,27.458,797.027753
3 Feb 2020 17:24:18.000,85.842,27.239,801.692814
3 Feb 2020 17:24:19.000,85.459,27.020,806.394232
3 Feb 2020 17:24:20.000,85.083,26.802,811.131364
3 Feb 2020 17:24:21.000,84.712,26.586,815.903588
3 Feb 2020 17:24:22.000,84.347,26.371,820.710279
3 Feb 2020 17:24:23.000,83.988,26.157,825.550838
3 Feb 2020 17:24:24.000,83.635,25.944,830.424660
3 Feb 2020 17:24:25.000,83.286,25.732,835.331160
3 Feb 2020 17:24:26.000,82.944,25.521,840.269762
3 Feb 2020 17:24:27.000,82.606,25.312,845.239893
3 Feb 2020 17:24:28.000,82.273,25.103,850.240997
3 Feb 2020 17:24:29.000,81.946,24.896,855.272527
3 Feb 2020 17:24:30.000,81.624,24.691,860.333939
3 Feb 2020 17:24:31.000,81.306,24.486,865.424704
3 Feb 2020 17:24:32.000,80.993,24.283,870.544305
3 Feb 2020 17:24:33.000,80.685,24.081,875.692224
3 Feb 2020 17:24:34.000,80.382,23.881,880.867962
3 Feb 2020 17:24:35.000,80.083,23.681,886.071026
3 Feb 2020 17:24:36.000,79.788,23.483,891.300933
3 Feb 2020 17:24:37.000,79.498,23.287,896.557202
3 Feb 2020 17:24:38.000,79.212,23.092,901.839369
3 Feb 2020 17:24:39.000,78.930,22.898,907.146974
3 Feb 2020 17:24:40.000,78.652,22.705,912.479573
3 Feb 2020 17:24:41.000,78.379,22.514,917.836715
3 Feb 2020 17:24:42.000,78.109,22.324,923.217971
3 Feb 2020 17:24:43.000,77.844,22.135,928.622916
3 Feb 2020 17:24:44.000,77.582,21.948,934.051131
3 Feb 2020 17:24:45.000,77.323,21.762,939.502211
3 Feb 2020 17:24:46.000,77.069,21.577,944.975747
3 Feb 2020 17:24:47.000,76.818,21.394,950.471347
3 Feb 2020 17:24:48.000,76.571,21.211,955.988625
3 Feb 2020 17:24:49.000,76.327,21.031,961.527202
3 Feb 2020 17:24:50.000,76.087,20.851,967.086704
3 Feb 2020 17:24:51.000,75.850,20.673,972.666771
3 Feb 2020 17:24:52.000,75.616,20.496,978.267036
3 Feb 2020 17:24:53.000,75.385,20.321,983.887152
3 Feb 2020 17:24:54.000,75.158,20.147,989.526774
3 Feb 2020 17:24:55.000,74.934,19.974,995.185563
3 Feb 2020 17:24:56.000,74.712,19.802,1000.863189
3 Feb 2020 17:24:57.000,74.494,19.631,1006.559325
3 Feb 2020 17:24:58.000,74.279,19.462,1012.273653
3 Feb 2020 17:24:59.000,74.067,19.294,1018.005859
3 Feb 2020 17:25:00.000,73.857,19.127,1023.755640
3 Feb 2020 17:25:01.000,73.651,18.962,1029.522688
3 Feb 2020 17:25:02.000,73.447,18.798,1035.306711
3 Feb 2020 17:25:03.000,73.245,18.635,1041.107419
3 Feb 2020 17:25:04.000,73.047,18.473,1046.924529
3 Feb 2020 17:25:05.000,72.851,18.312,1052.757761
3 Feb 2020 17:25:06.000,72.657,18.153,1058.606842
3 Feb 2020 17:25:07.000,72.466,17.994,1064.471505
3 Feb 2020 17:25:08.000,72.278,17.837,1070.351485
3 Feb 2020 17:25:09.000,72.092,17.681,1076.246526
3 Feb 2020 17:25:10.000,71.908,17.526,1082.156373
3 Feb 2020 17:25:11.000,71.727,17.373,1088.080780
3 Feb 2020 17:25:12.000,71.548,17.220,1094.019502
3 Feb 2020 17:25:13.000,71.371,17.068,1099.972301
3 Feb 2020 17:25:14.000,71.197,16.918,1105.938942
3 Feb 2020 17:25:15.000,71.024,16.769,1111.919196
3 Feb 2020 17:25:16.000,70.854,16.621,1117.912837
3 Feb 2020 17:25:17.000,70.686,16.473,1123.919644
3 Feb 2020 17:25:18.000,70.520,16.327,1129.939400
3 Feb 2020 17:25:19.000,70.356,16.182,1135.971892
3 Feb 2020 17:25:20.000,70.194,16.038,1142.016911
3 Feb 2020 17:25:21.000,70.034,15.895,1148.074252
3 Feb 2020 17:25:22.000,69.876,15.753,1154.143714
3 Feb 2020 17:25:23.000,69.720,15.612,1160.225100
3 Feb 2020 17:25:24.000,69.565,15.473,1166.318216
3 Feb 2020 17:25:25.000,69.413,15.334,1172.422872
3 Feb 2020 17:25:26.000,69.262,15.196,1178.538881
3 Feb 2020 17:25:27.000,69.114,15.059,1184.666061
3 Feb 2020 17:25:28.000,68.966,14.923,1190.804232
3 Feb 2020 17:25:29.000,68.821,14.788,1196.953218
3 Feb 2020 17:25:30.000,68.677,14.653,1203.112845
3 Feb 2020 17:25:31.000,68.535,14.520,1209.282945
3 Feb 2020 17:25:32.000,68.395,14.388,1215.463349
3 Feb 2020 17:25:33.000,68.256,14.257,1221.653894
3 Feb 2020 17:25:34.000,68.119,14.126,1227.854421
3 Feb 2020 17:25:35.000,67.984,13.997,1234.064770
3 Feb 2020 17:25:36.000,67.850,13.868,1240.284784
3 Feb 2020 17:25:37.000,67.717,13.740,1246.514318
3 Feb 2020 17:25:38.000,67.586,13.613,1252.753219
3 Feb 2020 17:25:39.000,67.456,13.487,1259.001340
3 Feb 2020 17:25:40.000,67.328,13.362,1265.258537
3 Feb 2020 17:25:41.000,67.202,13.237,1271.524669
3 Feb 2020 17:25:42.000,67.076,13.114,1277.799598
3 Feb 2020 17:25:43.000,66.952,12.991,1284.083187
3 Feb 2020 17:25:44.000,66.830,12.869,1290.375301
3 Feb 2020 17:25:45.000,66.709,12.748,1296.675810
3 Feb 2020 17:25:46.000,66.589,12.627,1302.984585
3 Feb 2020 17:25:47.000,66.470,12.508,1309.301494
3 Feb 2020 17:25:48.000,66.353,12.389,1315.626421
3 Feb 2020 17:25:49.000,66.237,12.271,1321.959239
3 Feb 2020 17:25:50.000,66.122,12.153,1328.299828
3 Feb 2020 17:25:51.000,66.008,12.037,1334.648070
3 Feb 2020 17:25:52.000,65.896,11.921,1341.003849
3 Feb 2020 17:25:53.000,65.785,11.806,1347.367050
3 Feb 2020 17:25:54.000,65.675,11.692,1353.737562
3 Feb 2020 17:25:55.000,65.566,11.578,1360.115271
3 Feb 2020 17:25:56.000,65.458,11.465,1366.500074
3 Feb 2020 17:25:57.000,65.351,11.353,1372.891864
3 Feb 2020 17:25:58.000,65.246,11.241,1379.290534
3 Feb 2020 17:25:59.000,65.141,11.130,1385.695982
3 Feb 2020 17:26:00.000,65.038,11.020,1392.108107
3 Feb 2020 17:26:01.000,64.936,10.911,1398.526809
3 Feb 2020 17:26:02.000,64.834,10.802,1404.951992
3 Feb 2020 17:26:03.000,64.734,10.694,1411.383554
3 Feb 2020 17:26:04.000,64.635,10.586,1417.821410
3 Feb 2020 17:26:05.000,64.537,10.479,1424.265462
3 Feb 2020 17:26:06.000,64.439,10.373,1430.715619
3 Feb 2020 17:26:07.000,64.343,10.267,1437.171791
3 Feb 2020 17:26:08.000,64.248,10.162,1443.633891
3 Feb 2020 17:26:09.000,64.153,10.058,1450.101827
3 Feb 2020 17:26:10.000,64.060,9.954,1456.575521
3 Feb 2020 17:26:11.000,63.967,9.851,1463.054887
3 Feb 2020 17:26:12.000,63.875,9.748,1469.539840
3 Feb 2020 17:26:13.000,63.785,9.646,1476.030300
3 Feb 2020 17:26:14.000,63.695,9.545,1482.526188
3 Feb 2020 17:26:15.000,63.606,9.444,1489.027423
3 Feb 2020 17:26:16.000,63.517,9.343,1495.533926
3 Feb 2020 17:26:17.000,63.430,9.244,1502.045627
3 Feb 2020 17:26:18.000,63.343,9.144,1508.562448
3 Feb 2020 17:26:19.000,63.258,9.046,1515.084315
3 Feb 2020 17:26:20.000,63.173,8.948,1521.611155
3 Feb 2020 17:26:21.000,63.089,8.850,1528.142894
3 Feb 2020 17:26:22.000,63.005,8.753,1534.679468
3 Feb 2020 17:26:23.000,62.923,8.656,1541.220805
3 Feb 2020 17:26:24.000,62.841,8.561,1547.766836
3 Feb 2020 17:26:25.000,62.760,8.465,1554.317495
3 Feb 2020 17:26:26.000,62.680,8.370,1560.872715
3 Feb 2020 17:26:27.000,62.600,8.276,1567.432428
3 Feb 2020 17:26:28.000,62.521,8.182,1573.996578
3 Feb 2020 17:26:29.000,62.443,8.088,1580.565097
3 Feb 2020 17:26:30.000,62.366,7.995,1587.137923
3 Feb 2020 17:26:31.000,62.289,7.903,1593.714996
3 Feb 2020 17:26:32.000,62.213,7.811,1600.296253
3 Feb 2020 17:26:33.000,62.138,7.719,1606.881640
3 Feb 2020 17:26:34.000,62.063,7.628,1613.471096
3 Feb 2020 17:26:35.000,61.989,7.537,1620.064564
3 Feb 2020 17:26:36.000,61.916,7.447,1626.661986
3 Feb 2020 17:26:37.000,61.843,7.357,1633.263305
3 Feb 2020 17:26:38.000,61.771,7.268,1639.868472
3 Feb 2020 17:26:39.000,61.700,7.179,1646.477429
3 Feb 2020 17:26:40.000,61.629,7.091,1653.090123
3 Feb 2020 17:26:41.000,61.559,7.003,1659.706502
3 Feb 2020 17:26:42.000,61.489,6.916,1666.326510
3 Feb 2020 17:26:43.000,61.420,6.828,1672.950104
3 Feb 2020 17:26:44.000,61.352,6.742,1679.577230
3 Feb 2020 17:26:45.000,61.284,6.655,1686.207839
3 Feb 2020 17:26:46.000,61.217,6.570,1692.841880
3 Feb 2020 17:26:47.000,61.150,6.484,1699.479305
3 Feb 2020 17:26:48.000,61.084,6.399,1706.120071
3 Feb 2020 17:26:49.000,61.019,6.314,1712.764129
3 Feb 2020 17:26:50.000,60.954,6.230,1719.411432
3 Feb 2020 17:26:51.000,60.889,6.146,1726.061932
3 Feb 2020 17:26:52.000,60.826,6.063,1732.715592
3 Feb 2020 17:26:53.000,60.762,5.980,1739.372363
3 Feb 2020 17:26:54.000,60.699,5.897,1746.032202
3 Feb 2020 17:26:55.000,60.637,5.815,1752.695066
3 Feb 2020 17:26:56.000,60.575,5.733,1759.360910
3 Feb 2020 17:26:57.000,60.514,5.651,1766.029699
3 Feb 2020 17:26:58.000,60.453,5.570,1772.701388
3 Feb 2020 17:26:59.000,60.393,5.489,1779.375938
3 Feb 2020 17:27:00.000,60.333,5.409,1786.053303
3 Feb 2020 17:27:01.000,60.274,5.328,1792.733453
3 Feb 2020 17:27:02.000,60.215,5.249,1799.416344
3 Feb 2020 17:27:03.000,60.157,5.169,1806.101939
3 Feb 2020 17:27:04.000,60.099,5.090,1812.790200
3 Feb 2020 17:27:05.000,60.042,5.011,1819.481085
3 Feb 2020 17:27:06.000,59.985,4.933,1826.174565
3 Feb 2020 17:27:07.000,59.928,4.855,1832.870601
3 Feb 2020 17:27:08.000,59.872,4.777,1839.569155
3 Feb 2020 17:27:09.000,59.816,4.699,1846.270191
3 Feb 2020 17:27:10.000,59.761,4.622,1852.973679
3 Feb 2020 17:27:11.000,59.707,4.545,1859.679582
3 Feb 2020 17:27:12.000,59.652,4.469,1866.387866
3 Feb 2020 17:27:13.000,59.598,4.393,1873.098494
3 Feb 2020 17:27:14.000,59.545,4.317,1879.811440
3 Feb 2020 17:27:15.000,59.492,4.241,1886.526667
3 Feb 2020 17:27:16.000,59.439,4.166,1893.244144
3 Feb 2020 17:27:17.000,59.387,4.091,1899.963836
3 Feb 2020 17:27:18.000,59.335,4.016,1906.685717
3 Feb 2020 17:27:19.000,59.284,3.942,1913.409753
3 Feb 2020 17:27:20.000,59.233,3.868,1920.135914
3 Feb 2020 17:27:21.000,59.182,3.794,1926.864170
3 Feb 2020 17:27:22.000,59.132,3.720,1933.594487
3 Feb 2020 17:27:23.000,59.082,3.647,1940.326843
3 Feb 2020 17:27:24.000,59.032,3.574,1947.061205
3 Feb 2020 17:27:25.000,58.983,3.501,1953.797544
3 Feb 2020 17:27:26.000,58.934,3.429,1960.535830
3 Feb 2020 17:27:27.000,58.886,3.357,1967.276040
3 Feb 2020 17:27:28.000,58.838,3.285,1974.018144
3 Feb 2020 17:27:29.000,58.790,3.213,1980.762114
3 Feb 2020 17:27:30.000,58.743,3.142,1987.507920
3 Feb 2020 17:27:31.000,58.696,3.071,1994.255542
3 Feb 2020 17:27:32.000,58.649,3.000,2001.004951
3 Feb 2020 17:27:33.000,58.603,2.930,2007.756119
3 Feb 2020 17:27:34.000,58.557,2.859,2014.509020
3 Feb 2020 17:27:35.000,58.511,2.789,2021.263633
3 Feb 2020 17:27:36.000,58.466,2.720,2028.019931
3 Feb 2020 17:27:37.000,58.421,2.650,2034.777888
3 Feb 2020 17:27:38.000,58.376,2.581,2041.537476
3 Feb 2020 17:27:39.000,58.332,2.512,2048.298680
3 Feb 2020 17:27:40.000,58.288,2.443,2055.061470
3 Feb 2020 17:27:41.000,58.244,2.374,2061.825820
3 Feb 2020 17:27:42.000,58.200,2.306,2068.591714
3 Feb 2020 17:27:43.000,58.157,2.238,2075.359124
3 Feb 2020 17:27:44.000,58.114,2.170,2082.128029
3 Feb 2020 17:27:45.000,58.072,2.102,2088.898403
3 Feb 2020 17:27:46.000,58.030,2.035,2095.670229
3 Feb 2020 17:27:47.000,57.988,1.968,2102.443483
3 Feb 2020 17:27:48.000,57.946,1.901,2109.218142
3 Feb 2020 17:27:49.000,57.905,1.834,2115.994183
3 Feb 2020 17:27:50.000,57.864,1.768,2122.771589
3 Feb 2020 17:27:51.000,57.823,1.701,2129.550338
3 Feb 2020 17:27:52.000,57.783,1.635,2136.330407
3 Feb 2020 17:27:53.000,57.743,1.569,2143.111774
3 Feb 2020 17:27:54.000,57.703,1.504,2149.894425
3 Feb 2020 17:27:55.000,57.663,1.438,2156.678336
3 Feb 2020 17:27:56.000,57.624,1.373,2163.463487
3 Feb 2020 17:27:57.000,57.585,1.308,2170.249855
3 Feb 2020 17:27:58.000,57.546,1.243,2177.037428
3 Feb 2020 17:27:59.000,57.507,1.179,2183.826183
3 Feb 2020 17:28:00.000,57.469,1.114,2190.616100
3 Feb 2020 17:28:01.000,57.431,1.050,2197.407159
3 Feb 2020 17:28:02.000,57.393,0.986,2204.199347
3 Feb 2020 17:28:03.000,57.355,0.922,2210.992642
3 Feb 2020 17:28:04.000,57.318,0.858,2217.787022
3 Feb 2020 17:28:05.000,57.281,0.795,2224.582477
3 Feb 2020 17:28:06.000,57.244,0.732,2231.378985
3 Feb 2020 17:28:07.000,57.208,0.669,2238.176528
3 Feb 2020 17:28:08.000,57.171,0.606,2244.975086
3 Feb 2020 17:28:09.000,57.135,0.543,2251.774648
3 Feb 2020 17:28:10.000,57.100,0.481,2258.575194
3 Feb 2020 17:28:11.000,57.064,0.418,2265.376707
3 Feb 2020 17:28:12.000,57.029,0.356,2272.179166
3 Feb 2020 17:28:13.000,56.993,0.294,2278.982563
3 Feb 2020 17:28:14.000,56.959,0.233,2285.786876
3 Feb 2020 17:28:15.000,56.924,0.171,2292.592091
3 Feb 2020 17:28:16.000,56.889,0.110,2299.398187
3 Feb 2020 17:28:17.000,56.855,0.048,2306.205156
3 Feb 2020 17:28:18.000,56.821,-0.013,2313.012977
3 Feb 2020 17:28:19.000,56.787,-0.074,2319.821634
3 Feb 2020 17:28:19.078,56.785,-0.078,2320.351383
3 Feb 2020 18:54:32.232,260.975,-0.079,2314.409701
3 Feb 2020 18:54:33.000,261.028,-0.034,2309.493885
3 Feb 2020 18:54:34.000,261.099,0.023,2303.091814
3 Feb 2020 18:54:35.000,261.169,0.081,2296.692615
3 Feb 2020 18:54:36.000,261.240,0.139,2290.296317
3 Feb 2020 18:54:37.000,261.311,0.197,2283.902954
3 Feb 2020 18:54:38.000,261.383,0.255,2277.512556
3 Feb 2020 18:54:39.000,261.455,0.314,2271.125157
3 Feb 2020 18:54:40.000,261.527,0.372,2264.740786
3 Feb 2020 18:54:41.000,261.600,0.431,2258.359482
3 Feb 2020 18:54:42.000,261.673,0.489,2251.981275
3 Feb 2020 18:54:43.000,261.747,0.548,2245.606199
3 Feb 2020 18:54:44.000,261.821,0.607,2239.234288
3 Feb 2020 18:54:45.000,261.895,0.666,2232.865577
3 Feb 2020 18:54:46.000,261.970,0.726,2226.500100
3 Feb 2020 18:54:47.000,262.045,0.785,2220.137892
3 Feb 2020 18:54:48.000,262.121,0.845,2213.778985
3 Feb 2020 18:54:49.000,262.197,0.905,2207.423422
3 Feb 2020 18:54:50.000,262.273,0.965,2201.071235
3 Feb 2020 18:54:51.000,262.350,1.025,2194.722462
3 Feb 2020 18:54:52.000,262.428,1.085,2188.377139
3 Feb 2020 18:54:53.000,262.505,1.145,2182.035303
3 Feb 2020 18:54:54.000,262.584,1.206,2175.696993
3 Feb 2020 18:54:55.000,262.662,1.266,2169.362246
3 Feb 2020 18:54:56.000,262.742,1.327,2163.031100
3 Feb 2020 18:54:57.000,262.821,1.388,2156.703592
3 Feb 2020 18:54:58.000,262.901,1.449,2150.379768
3 Feb 2020 18:54:59.000,262.982,1.511,2144.059663
3 Feb 2020 18:55:00.000,263.063,1.572,2137.743319
3 Feb 2020 18:55:01.000,263.144,1.634,2131.430775
3 Feb 2020 18:55:02.000,263.226,1.695,2125.122073
3 Feb 2020 18:55:03.000,263.309,1.757,2118.817254
3 Feb 2020 18:55:04.000,263.392,1.820,2112.516360
3 Feb 2020 18:55:05.000,263.475,1.882,2106.219434
3 Feb 2020 18:55:06.000,263.559,1.944,2099.926515
3 Feb 2020 18:55:07.000,263.643,2.007,2093.637654
3 Feb 2020 18:55:08.000,263.728,2.070,2087.352890
3 Feb 2020 18:55:09.000,263.813,2.133,2081.072267
3 Feb 2020 18:55:10.000,263.899,2.196,2074.795832
3 Feb 2020 18:55:11.000,263.986,2.259,2068.523628
3 Feb 2020 18:55:12.000,264.073,2.322,2062.255702
3 Feb 2020 18:55:13.000,264.160,2.386,2055.992099
3 Feb 2020 18:55:14.000,264.248,2.450,2049.732868
3 Feb 2020 18:55:15.000,264.337,2.514,2043.478054
3 Feb 2020 18:55:16.000,264.426,2.578,2037.227706
3 Feb 2020 18:55:17.000,264.515,2.642,2030.981868
3 Feb 2020 18:55:18.000,264.605,2.707,2024.740597
3 Feb 2020 18:55:19.000,264.696,2.772,2018.503938
3 Feb 2020 18:55:20.000,264.787,2.837,2012.271942
3 Feb 2020 18:55:21.000,264.879,2.902,2006.044658
3 Feb 2020 18:55:22.000,264.971,2.967,1999.822138
3 Feb 2020 18:55:23.000,265.064,3.032,1993.604434
3 Feb 2020 18:55:24.000,265.158,3.098,1987.391598
3 Feb 2020 18:55:25.000,265.252,3.164,1981.183682
3 Feb 2020 18:55:26.000,265.347,3.230,1974.980741
3 Feb 2020 18:55:27.000,265.442,3.296,1968.782827
3 Feb 2020 18:55:28.000,265.538,3.362,1962.589997
3 Feb 2020 18:55:29.000,265.634,3.429,1956.402305
3 Feb 2020 18:55:30.000,265.731,3.496,1950.219807
3 Feb 2020 18:55:31.000,265.829,3.563,1944.042556
3 Feb 2020 18:55:32.000,265.927,3.630,1937.870616
3 Feb 2020 18:55:33.000,266.026,3.697,1931.704042
3 Feb 2020 18:55:34.000,266.126,3.765,1925.542893
3 Feb 2020 18:55:35.000,266.226,3.832,1919.387227
3 Feb 2020 18:55:36.000,266.327,3.900,1913.237104
3 Feb 2020 18:55:37.000,266.428,3.969,1907.092586
3 Feb 2020 18:55:38.000,266.531,4.037,1900.953732
3 Feb 2020 18:55:39.000,266.633,4.106,1894.820606
3 Feb 2020 18:55:40.000,266.737,4.174,1888.693271
3 Feb 2020 18:55:41.000,266.841,4.243,1882.571788
3 Feb 2020 18:55:42.000,266.946,4.313,1876.456224
3 Feb 2020 18:55:43.000,267.051,4.382,1870.346642
3 Feb 2020 18:55:44.000,267.158,4.452,1864.243109
3 Feb 2020 18:55:45.000,267.265,4.521,1858.145690
3 Feb 2020 18:55:46.000,267.372,4.591,1852.054454
3 Feb 2020 18:55:47.000,267.481,4.662,1845.969469
3 Feb 2020 18:55:48.000,267.590,4.732,1839.890802
3 Feb 2020 18:55:49.000,267.699,4.803,1833.818525
3 Feb 2020 18:55:50.000,267.810,4.874,1827.752707
3 Feb 2020 18:55:51.000,267.921,4.945,1821.693420
3 Feb 2020 18:55:52.000,268.033,5.016,1815.640736
3 Feb 2020 18:55:53.000,268.146,5.088,1809.594728
3 Feb 2020 18:55:54.000,268.260,5.160,1803.555471
3 Feb 2020 18:55:55.000,268.374,5.232,1797.523038
3 Feb 2020 18:55:56.000,268.489,5.304,1791.497507
3 Feb 2020 18:55:57.000,268.605,5.377,1785.478952
3 Feb 2020 18:55:58.000,268.722,5.449,1779.467453
3 Feb 2020 18:55:59.000,268.839,5.522,1773.463088
3 Feb 2020 18:56:00.000,268.957,5.595,1767.465936
3 Feb 2020 18:56:01.000,269.077,5.669,1761.476077
3 Feb 2020 18:56:02.000,269.196,5.742,1755.493593
3 Feb 2020 18:56:03.000,269.317,5.816,1749.518566
3 Feb 2020 18:56:04.000,269.439,5.891,1743.551080
3 Feb 2020 18:56:05.000,269.561,5.965,1737.591220
3 Feb 2020 18:56:06.000,269.685,6.039,1731.639069
3 Feb 2020 18:56:07.000,269.809,6.114,1725.694716
3 Feb 2020 18:56:08.000,269.934,6.189,1719.758248
3 Feb 2020 18:56:09.000,270.060,6.265,1713.829753
3 Feb 2020 18:56:10.000,270.187,6.340,1707.909321
3 Feb 2020 18:56:11.000,270.314,6.416,1701.997042
3 Feb 2020 18:56:12.000,270.443,6.492,1696.093009
3 Feb 2020 18:56:13.000,270.573,6.569,1690.197315
3 Feb 2020 18:56:14.000,270.703,6.645,1684.310054
3 Feb 2020 18:56:15.000,270.834,6.722,1678.431322
3 Feb 2020 18:56:16.000,270.967,6.799,1672.561214
3 Feb 2020 18:56:17.000,271.100,6.876,1666.699828
3 Feb 2020 18:56:18.000,271.234,6.954,1660.847264
3 Feb 2020 18:56:19.000,271.370,7.032,1655.003622
3 Feb 2020 18:56:20.000,271.506,7.110,1649.169003
3 Feb 2020 18:56:21.000,271.643,7.188,1643.343509
3 Feb 2020 18:56:22.000,271.781,7.267,1637.527246
3 Feb 2020 18:56:23.000,271.921,7.346,1631.720317
3 Feb 2020 18:56:24.000,272.061,7.425,1625.922829
3 Feb 2020 18:56:25.000,272.202,7.504,1620.134891
3 Feb 2020 18:56:26.000,272.345,7.584,1614.356611
3 Feb 2020 18:56:27.000,272.488,7.664,1608.588100
3 Feb 2020 18:56:28.000,272.632,7.744,1602.829474
3 Feb 2020 18:56:29.000,272.778,7.824,1597.080838
3 Feb 2020 18:56:30.000,272.925,7.905,1591.342312
3 Feb 2020 18:56:31.000,273.072,7.986,1585.614011
3 Feb 2020 18:56:32.000,273.221,8.067,1579.896052
3 Feb 2020 18:56:33.000,273.371,8.149,1574.188556
3 Feb 2020 18:56:34.000,273.522,8.231,1568.491642
3 Feb 2020 18:56:35.000,273.675,8.313,1562.805433
3 Feb 2020 18:56:36.000,273.828,8.395,1557.130053
3 Feb 2020 18:56:37.000,273.983,8.478,1551.465625
3 Feb 2020 18:56:38.000,274.138,8.561,1545.812282
3 Feb 2020 18:56:39.000,274.295,8.644,1540.170143
3 Feb 2020 18:56:40.000,274.453,8.727,1534.539344
3 Feb 2020 18:56:41.000,274.613,8.811,1528.920014
3 Feb 2020 18:56:42.000,274.773,8.895,1523.312287
3 Feb 2020 18:56:43.000,274.935,8.979,1517.716299
3 Feb 2020 18:56:44.000,275.098,9.064,1512.132185
3 Feb 2020 18:56:45.000,275.263,9.148,1506.560084
3 Feb 2020 18:56:46.000,275.428,9.233,1501.000140
3 Feb 2020 18:56:47.000,275.595,9.319,1495.452487
3 Feb 2020 18:56:48.000,275.763,9.404,1489.917272
3 Feb 2020 18:56:49.000,275.933,9.490,1484.394641
3 Feb 2020 18:56:50.000,276.104,9.576,1478.884740
3 Feb 2020 18:56:51.000,276.276,9.663,1473.387719
3 Feb 2020 18:56:52.000,276.449,9.750,1467.903732
3 Feb 2020 18:56:53.000,276.624,9.837,1462.432925
3 Feb 2020 18:56:54.000,276.801,9.924,1456.975455
3 Feb 2020 18:56:55.000,276.978,10.011,1451.531480
3 Feb 2020 18:56:56.000,277.157,10.099,1446.101157
3 Feb 2020 18:56:57.000,277.338,10.187,1440.684647
3 Feb 2020 18:56:58.000,277.520,10.276,1435.282117
3 Feb 2020 18:56:59.000,277.703,10.364,1429.893722
3 Feb 2020 18:57:00.000,277.888,10.453,1424.519634
3 Feb 2020 18:57:01.000,278.075,10.542,1419.160021
3 Feb 2020 18:57:02.000,278.263,10.632,1413.815053
3 Feb 2020 18:57:03.000,278.452,10.722,1408.484907
3 Feb 2020 18:57:04.000,278.643,10.812,1403.169750
3 Feb 2020 18:57:05.000,278.835,10.902,1397.869763
3 Feb 2020 18:57:06.000,279.029,10.992,1392.585124
3 Feb 2020 18:57:07.000,279.225,11.083,1387.316019
3 Feb 2020 18:57:08.000,279.422,11.174,1382.062624
3 Feb 2020 18:57:09.000,279.621,11.266,1376.825128
3 Feb 2020 18:57:10.000,279.821,11.357,1371.603719
3 Feb 2020 18:57:11.000,280.024,11.449,1366.398591
3 Feb 2020 18:57:12.000,280.227,11.541,1361.209929
3 Feb 2020 18:57:13.000,280.433,11.633,1356.037931
3 Feb 2020 18:57:14.000,280.640,11.726,1350.882795
3 Feb 2020 18:57:15.000,280.848,11.819,1345.744723
3 Feb 2020 18:57:16.000,281.059,11.912,1340.623911
3 Feb 2020 18:57:17.000,281.271,12.005,1335.520566
3 Feb 2020 18:57:18.000,281.485,12.099,1330.434899
3 Feb 2020 18:57:19.000,281.701,12.193,1325.367110
3 Feb 2020 18:57:20.000,281.918,12.287,1320.317416
3 Feb 2020 18:57:21.000,282.138,12.381,1315.286033
3 Feb 2020 18:57:22.000,282.359,12.476,1310.273171
3 Feb 2020 18:57:23.000,282.582,12.570,1305.279053
3 Feb 2020 18:57:24.000,282.807,12.665,1300.303904
3 Feb 2020 18:57:25.000,283.033,12.761,1295.347940
3 Feb 2020 18:57:26.000,283.262,12.856,1290.411391
3 Feb 2020 18:57:27.000,283.492,12.952,1285.494491
3 Feb 2020 18:57:28.000,283.725,13.048,1280.597463
3 Feb 2020 18:57:29.000,283.959,13.144,1275.720545
3 Feb 2020 18:57:30.000,284.195,13.240,1270.863979
3 Feb 2020 18:57:31.000,284.434,13.336,1266.027996
3 Feb 2020 18:57:32.000,284.674,13.433,1261.212841
3 Feb 2020 18:57:33.000,284.916,13.530,1256.418764
3 Feb 2020 18:57:34.000,285.161,13.627,1251.646004
3 Feb 2020 18:57:35.000,285.407,13.724,1246.894819
3 Feb 2020 18:57:36.000,285.655,13.821,1242.165454
3 Feb 2020 18:57:37.000,285.906,13.919,1237.458172
3 Feb 2020 18:57:38.000,286.158,14.016,1232.773223
3 Feb 2020 18:57:39.000,286.413,14.114,1228.110872
3 Feb 2020 18:57:40.000,286.670,14.212,1223.471386
3 Feb 2020 18:57:41.000,286.929,14.310,1218.855023
3 Feb 2020 18:57:42.000,287.190,14.408,1214.262061
3 Feb 2020 18:57:43.000,287.454,14.507,1209.692762
3 Feb 2020 18:57:44.000,287.719,14.605,1205.147408
3 Feb 2020 18:57:45.000,287.987,14.704,1200.626270
3 Feb 2020 18:57:46.000,288.257,14.802,1196.129633
3 Feb 2020 18:57:47.000,288.529,14.901,1191.657773
3 Feb 2020 18:57:48.000,288.804,15.000,1187.210982
3 Feb 2020 18:57:49.000,289.081,15.099,1182.789540
3 Feb 2020 18:57:50.000,289.360,15.197,1178.393744
3 Feb 2020 18:57:51.000,289.641,15.296,1174.023880
3 Feb 2020 18:57:52.000,289.925,15.395,1169.680250
3 Feb 2020 18:57:53.000,290.211,15.494,1165.363146
3 Feb 2020 18:57:54.000,290.500,15.593,1161.072875
3 Feb 2020 18:57:55.000,290.791,15.692,1156.809736
3 Feb 2020 18:57:56.000,291.084,15.791,1152.574032
3 Feb 2020 18:57:57.000,291.380,15.890,1148.366077
3 Feb 2020 18:57:58.000,291.678,15.989,1144.186177
3 Feb 2020 18:57:59.000,291.979,16.088,1140.034649
3 Feb 2020 18:58:00.000,292.282,16.187,1135.911807
3 Feb 2020 18:58:01.000,292.587,16.286,1131.817966
3 Feb 2020 18:58:02.000,292.896,16.385,1127.753451
3 Feb 2020 18:58:03.000,293.206,16.483,1123.718578
3 Feb 2020 18:58:04.000,293.519,16.582,1119.713680
3 Feb 2020 18:58:05.000,293.835,16.680,1115.739080
3 Feb 2020 18:58:06.000,294.153,16.778,1111.795104
3 Feb 2020 18:58:07.000,294.474,16.876,1107.882089
3 Feb 2020 18:58:08.000,294.797,16.974,1104.000366
3 Feb 2020 18:58:09.000,295.123,17.072,1100.150269
3 Feb 2020 18:58:10.000,295.452,17.169,1096.332134
3 Feb 2020 18:58:11.000,295.783,17.267,1092.546305
3 Feb 2020 18:58:12.000,296.117,17.364,1088.793120
3 Feb 2020 18:58:13.000,296.453,17.460,1085.072923
3 Feb 2020 18:58:14.000,296.793,17.557,1081.386053
3 Feb 2020 18:58:15.000,297.134,17.653,1077.732864
3 Feb 2020 18:58:16.000,297.479,17.749,1074.113699
3 Feb 2020 18:58:17.000,297.826,17.845,1070.528908
3 Feb 2020 18:58:18.000,298.175,17.940,1066.978838
3 Feb 2020 18:58:19.000,298.528,18.035,1063.463846
3 Feb 2020 18:58:20.000,298.883,18.129,1059.984281
3 Feb 2020 18:58:21.000,299.241,18.223,1056.540498
3 Feb 2020 18:58:22.000,299.601,18.317,1053.132851
3 Feb 2020 18:58:23.000,299.964,18.410,1049.761695
3 Feb 2020 18:58:24.000,300.330,18.502,1046.427386
3 Feb 2020 18:58:25.000,300.699,18.595,1043.130279
3 Feb 2020 18:58:26.000,301.070,18.686,1039.870737
3 Feb 2020 18:58:27.000,301.444,18.777,1036.649113
3 Feb 2020 18:58:28.000,301.821,18.868,1033.465767
3 Feb 2020 18:58:29.000,302.200,18.958,1030.321056
3 Feb 2020 18:58:30.000,302.582,19.047,1027.215338
3 Feb 2020 18:58:31.000,302.967,19.136,1024.148971
3 Feb 2020 18:58:32.000,303.355,19.224,1021.122313
3 Feb 2020 18:58:33.000,303.745,19.311,1018.135721
3 Feb 2020 18:58:34.000,304.138,19.398,1015.189551
3 Feb 2020 18:58:35.000,304.533,19.484,1012.284160
3 Feb 2020 18:58:36.000,304.931,19.569,1009.419902
3 Feb 2020 18:58:37.000,305.332,19.653,1006.597131
3 Feb 2020 18:58:38.000,305.736,19.737,1003.816201
3 Feb 2020 18:58:39.000,306.142,19.819,1001.077462
3 Feb 2020 18:58:40.000,306.550,19.901,998.381265
3 Feb 2020 18:58:41.000,306.962,19.982,995.727961
3 Feb 2020 18:58:42.000,307.376,20.062,993.117890
3 Feb 2020 18:58:43.000,307.792,20.141,990.551399
3 Feb 2020 18:58:44.000,308.211,20.219,988.028831
3 Feb 2020 18:58:45.000,308.633,20.296,985.550525
3 Feb 2020 18:58:46.000,309.057,20.373,983.116819
3 Feb 2020 18:58:47.000,309.483,20.448,980.728047
3 Feb 2020 18:58:48.000,309.912,20.521,978.384543
3 Feb 2020 18:58:49.000,310.344,20.594,976.086629
3 Feb 2020 18:58:50.000,310.778,20.666,973.834634
3 Feb 2020 18:58:51.000,311.214,20.737,971.628879
3 Feb 2020 18:58:52.000,311.652,20.806,969.469684
3 Feb 2020 18:58:53.000,312.093,20.874,967.357358
3 Feb 2020 18:58:54.000,312.536,20.941,965.292212
3 Feb 2020 18:58:55.000,312.982,21.007,963.274556
3 Feb 2020 18:58:56.000,313.430,21.071,961.304684
3 Feb 2020 18:58:57.000,313.879,21.134,959.382896
3 Feb 2020 18:58:58.000,314.331,21.196,957.509484
3 Feb 2020 18:58:59.000,314.786,21.256,955.684731
3 Feb 2020 18:59:00.000,315.242,21.315,953.908920
3 Feb 2020 18:59:01.000,315.700,21.372,952.182328
3 Feb 2020 18:59:02.000,316.160,21.428,950.505220
3 Feb 2020 18:59:03.000,316.622,21.483,948.877865
3 Feb 2020 18:59:04.000,317.086,21.536,947.300516
3 Feb 2020 18:59:05.000,317.552,21.587,945.773429
3 Feb 2020 18:59:06.000,318.020,21.637,944.296845
3 Feb 2020 18:59:07.000,318.489,21.686,942.871006
3 Feb 2020 18:59:08.000,318.960,21.733,941.496141
3 Feb 2020 18:59:09.000,319.433,21.778,940.172477
3 Feb 2020 18:59:10.000,319.908,21.822,938.900229
3 Feb 2020 18:59:11.000,320.384,21.864,937.679610
3 Feb 2020 18:59:12.000,320.861,21.904,936.510822
3 Feb 2020 18:59:13.000,321.340,21.942,935.394057
3 Feb 2020 18:59:14.000,321.820,21.979,934.329507
3 Feb 2020 18:59:15.000,322.301,22.014,933.317347
3 Feb 2020 18:59:16.000,322.784,22.048,932.357753
3 Feb 2020 18:59:17.000,323.268,22.080,931.450885
3 Feb 2020 18:59:18.000,323.753,22.109,930.596899
3 Feb 2020 18:59:19.000,324.239,22.138,929.795938
3 Feb 2020 18:59:20.000,324.726,22.164,929.048143
3 Feb 2020 18:59:21.000,325.214,22.188,928.353643
3 Feb 2020 18:59:22.000,325.703,22.211,927.712556
3 Feb 2020 18:59:23.000,326.193,22.232,927.124992
3 Feb 2020 18:59:24.000,326.683,22.251,926.591057
3 Feb 2020 18:59:25.000,327.174,22.268,926.110841
3 Feb 2020 18:59:26.000,327.666,22.283,925.684429
3 Feb 2020 18:59:27.000,328.158,22.296,925.311894
3 Feb 2020 18:59:28.000,328.650,22.308,924.993301
3 Feb 2020 18:59:29.000,329.143,22.317,924.728705
3 Feb 2020 18:59:30.000,329.637,22.325,924.518155
3 Feb 2020 18:59:31.000,330.130,22.331,924.361686
3 Feb 2020 18:59:32.000,330.624,22.335,924.259325
3 Feb 2020 18:59:33.000,331.118,22.337,924.211089
3 Feb 2020 18:59:34.000,331.612,22.337,924.216987
3 Feb 2020 18:59:35.000,332.105,22.335,924.277017
3 Feb 2020 18:59:36.000,332.599,22.331,924.391168
3 Feb 2020 18:59:37.000,333.093,22.325,924.559419
3 Feb 2020 18:59:38.000,333.586,22.318,924.781739
3 Feb 2020 18:59:39.000,334.079,22.308,925.058090
3 Feb 2020 18:59:40.000,334.571,22.297,925.388423
3 Feb 2020 18:59:41.000,335.063,22.284,925.772677
3 Feb 2020 18:59:42.000,335.555,22.269,926.210785
3 Feb 2020 18:59:43.000,336.046,22.252,926.702670
3 Feb 2020 18:59:44.000,336.536,22.233,927.248244
3 Feb 2020 18:59:45.000,337.026,22.212,927.847413
3 Feb 2020 18:59:46.000,337.514,22.190,928.500071
3 Feb 2020 18:59:47.000,338.002,22.165,929.206104
3 Feb 2020 18:59:48.000,338.489,22.139,929.965389
3 Feb 2020 18:59:49.000,338.975,22.111,930.777794
3 Feb 2020 18:59:50.000,339.460,22.081,931.643180
3 Feb 2020 18:59:51.000,339.943,22.050,932.561396
3 Feb 2020 18:59:52.000,340.426,22.017,933.532285
3 Feb 2020 18:59:53.000,340.907,21.982,934.555683
3 Feb 2020 18:59:54.000,341.387,21.945,935.631414
3 Feb 2020 18:59:55.000,341.866,21.906,936.759296
3 Feb 2020 18:59:56.000,342.343,21.866,937.939140
3 Feb 2020 18:59:57.000,342.818,21.824,939.170748
3 Feb 2020 18:59:58.000,343.293,21.781,940.453914
3 Feb 2020 18:59:59.000,343.765,21.736,941.788426
3 Feb 2020 19:00:00.000,344.236,21.689,943.174063
3 Feb 2020 19:00:01.000,344.705,21.641,944.610600
3 Feb 2020 19:00:02.000,345.172,21.591,946.097800
3 Feb 2020 19:00:03.000,345.638,21.540,947.635425
3 Feb 2020 19:00:04.000,346.102,21.487,949.223225
3 Feb 2020 19:00:05.000,346.564,21.432,950.860949
3 Feb 2020 19:00:06.000,347.023,21.377,952.548334
3 Feb 2020 19:00:07.000,347.481,21.319,954.285117
3 Feb 2020 19:00:08.000,347.937,21.261,956.071025
3 Feb 2020 19:00:09.000,348.391,21.200,957.905780
3 Feb 2020 19:00:10.000,348.843,21.139,959.789101
3 Feb 2020 19:00:11.000,349.292,21.076,961.720697
3 Feb 2020 19:00:12.000,349.739,21.012,963.700278
3 Feb 2020 19:00:13.000,350.185,20.946,965.727545
3 Feb 2020 19:00:14.000,350.627,20.880,967.802195
3 Feb 2020 19:00:15.000,351.068,20.812,969.923921
3 Feb 2020 19:00:16.000,351.506,20.743,972.092413
3 Feb 2020 19:00:17.000,351.942,20.672,974.307354
3 Feb 2020 19:00:18.000,352.375,20.601,976.568426
3 Feb 2020 19:00:19.000,352.806,20.528,978.875306
3 Feb 2020 19:00:20.000,353.235,20.455,981.227668
3 Feb 2020 19:00:21.000,353.661,20.380,983.625181
3 Feb 2020 19:00:22.000,354.085,20.304,986.067514
3 Feb 2020 19:00:23.000,354.506,20.227,988.554331
3 Feb 2020 19:00:24.000,354.925,20.149,991.085293
3 Feb 2020 19:00:25.000,355.341,20.070,993.660060
3 Feb 2020 19:00:26.000,355.754,19.990,996.278289
3 Feb 2020 19:00:27.000,356.165,19.910,998.939634
3 Feb 2020 19:00:28.000,356.573,19.828,1001.643749
3 Feb 2020 19:00:29.000,356.979,19.746,1004.390283
3 Feb 2020 19:00:30.000,357.382,19.662,1007.178887
3 Feb 2020 19:00:31.000,357.783,19.578,1010.009208
3 Feb 2020 19:00:32.000,358.180,19.493,1012.880892
3 Feb 2020 19:00:33.000,358.575,19.408,1015.793586
3 Feb 2020 19:00:34.000,358.968,19.321,1018.746933
3 Feb 2020 19:00:35.000,359.358,19.234,1021.740577
3 Feb 2020 19:00:36.000,359.745,19.147,1024.774160
3 Feb 2020 19:00:37.000,0.129,19.058,1027.847326
3 Feb 2020 19:00:38.000,0.511,18.969,1030.959716
3 Feb 2020 19:00:39.000,0.890,18.879,1034.110971
3 Feb 2020 19:00:40.000,1.266,18.789,1037.300735
3 Feb 2020 19:00:41.000,1.640,18.698,1040.528647
3 Feb 2020 19:00:42.000,2.011,18.607,1043.794350
3 Feb 2020 19:00:43.000,2.379,18.515,1047.097486
3 Feb 2020 19:00:44.000,2.744,18.423,1050.437699
3 Feb 2020 19:00:45.000,3.107,18.330,1053.814629
3 Feb 2020 19:00:46.000,3.467,18.237,1057.227923
3 Feb 2020 19:00:47.000,3.825,18.143,1060.677223
3 Feb 2020 19:00:48.000,4.179,18.049,1064.162176
3 Feb 2020 19:00:49.000,4.531,17.954,1067.682427
3 Feb 2020 19:00:50.000,4.881,17.859,1071.237625
3 Feb 2020 19:00:51.000,5.228,17.764,1074.827417
3 Feb 2020 19:00:52.000,5.572,17.668,1078.451455
3 Feb 2020 19:00:53.000,5.913,17.572,1082.109388
3 Feb 2020 19:00:54.000,6.252,17.476,1085.800870
3 Feb 2020 19:00:55.000,6.588,17.380,1089.525555
3 Feb 2020 19:00:56.000,6.921,17.283,1093.283099
3 Feb 2020 19:00:57.000,7.252,17.186,1097.073159
3 Feb 2020 19:00:58.000,7.580,17.089,1100.895394
3 Feb 2020 19:00:59.000,7.906,16.992,1104.749467
3 Feb 2020 19:01:00.000,8.229,16.894,1108.635040
3 Feb 2020 19:01:01.000,8.550,16.796,1112.551777
3 Feb 2020 19:01:02.000,8.867,16.698,1116.499346
3 Feb 2020 19:01:03.000,9.183,16.600,1120.477416
3 Feb 2020 19:01:04.000,9.496,16.502,1124.485658
3 Feb 2020 19:01:05.000,9.806,16.404,1128.523746
3 Feb 2020 19:01:06.000,10.114,16.305,1132.591355
3 Feb 2020 19:01:07.000,10.419,16.207,1136.688163
3 Feb 2020 19:01:08.000,10.722,16.108,1140.813850
3 Feb 2020 19:01:09.000,11.022,16.010,1144.968099
3 Feb 2020 19:01:10.000,11.320,15.911,1149.150595
3 Feb 2020 19:01:11.000,11.616,15.812,1153.361025
3 Feb 2020 19:01:12.000,11.909,15.714,1157.599080
3 Feb 2020 19:01:13.000,12.200,15.615,1161.864451
3 Feb 2020 19:01:14.000,12.488,15.516,1166.156833
3 Feb 2020 19:01:15.000,12.774,15.417,1170.475924
3 Feb 2020 19:01:16.000,13.057,15.319,1174.821424
3 Feb 2020 19:01:17.000,13.339,15.220,1179.193035
3 Feb 2020 19:01:18.000,13.618,15.122,1183.590463
3 Feb 2020 19:01:19.000,13.894,15.023,1188.013416
3 Feb 2020 19:01:20.000,14.169,14.925,1192.461602
3 Feb 2020 19:01:21.000,14.441,14.826,1196.934737
3 Feb 2020 19:01:22.000,14.710,14.728,1201.432534
3 Feb 2020 19:01:23.000,14.978,14.630,1205.954715
3 Feb 2020 19:01:24.000,15.243,14.532,1210.500997
3 Feb 2020 19:01:25.000,15.507,14.434,1215.071107
3 Feb 2020 19:01:26.000,15.768,14.336,1219.664770
3 Feb 2020 19:01:27.000,16.026,14.238,1224.281714
3 Feb 2020 19:01:28.000,16.283,14.140,1228.921674
3 Feb 2020 19:01:29.000,16.538,14.043,1233.584381
3 Feb 2020 19:01:30.000,16.790,13.945,1238.269576
3 Feb 2020 19:01:31.000,17.040,13.848,1242.976995
3 Feb 2020 19:01:32.000,17.289,13.751,1247.706383
3 Feb 2020 19:01:33.000,17.535,13.654,1252.457484
3 Feb 2020 19:01:34.000,17.779,13.558,1257.230046
3 Feb 2020 19:01:35.000,18.021,13.461,1262.023821
3 Feb 2020 19:01:36.000,18.261,13.365,1266.838561
3 Feb 2020 19:01:37.000,18.500,13.269,1271.674022
3 Feb 2020 19:01:38.000,18.736,13.173,1276.529963
3 Feb 2020 19:01:39.000,18.970,13.077,1281.406144
3 Feb 2020 19:01:40.000,19.202,12.981,1286.302330
3 Feb 2020 19:01:41.000,19.433,12.886,1291.218287
3 Feb 2020 19:01:42.000,19.661,12.791,1296.153784
3 Feb 2020 19:01:43.000,19.888,12.696,1301.108592
3 Feb 2020 19:01:44.000,20.113,12.601,1306.082485
3 Feb 2020 19:01:45.000,20.336,12.507,1311.075242
3 Feb 2020 19:01:46.000,20.557,12.412,1316.086638
3 Feb 2020 19:01:47.000,20.776,12.318,1321.116457
3 Feb 2020 19:01:48.000,20.993,12.225,1326.164485
3 Feb 2020 19:01:49.000,21.209,12.131,1331.230505
3 Feb 2020 19:01:50.000,21.423,12.038,1336.314308
3 Feb 2020 19:01:51.000,21.635,11.945,1341.415685
3 Feb 2020 19:01:52.000,21.846,11.852,1346.534432
3 Feb 2020 19:01:53.000,22.054,11.759,1351.670342
3 Feb 2020 19:01:54.000,22.261,11.667,1356.823215
3 Feb 2020 19:01:55.000,22.467,11.575,1361.992854
3 Feb 2020 19:01:56.000,22.671,11.483,1367.179060
3 Feb 2020 19:01:57.000,22.873,11.391,1372.381640
3 Feb 2020 19:01:58.000,23.073,11.300,1377.600401
3 Feb 2020 19:01:59.000,23.272,11.209,1382.835156
3 Feb 2020 19:02:00.000,23.469,11.118,1388.085715
3 Feb 2020 19:02:01.000,23.665,11.028,1393.351893
3 Feb 2020 19:02:02.000,23.859,10.937,1398.633508
3 Feb 2020 19:02:03.000,24.051,10.847,1403.930380
3 Feb 2020 19:02:04.000,24.242,10.758,1409.242329
3 Feb 2020 19:02:05.000,24.432,10.668,1414.569179
3 Feb 2020 19:02:06.000,24.620,10.579,1419.910755
3 Feb 2020 19:02:07.000,24.806,10.490,1425.266888
3 Feb 2020 19:02:08.000,24.991,10.401,1430.637405
3 Feb 2020 19:02:09.000,25.175,10.313,1436.022137
3 Feb 2020 19:02:10.000,25.357,10.225,1441.420921
3 Feb 2020 19:02:11.000,25.537,10.137,1446.833592
3 Feb 2020 19:02:12.000,25.716,10.049,1452.259989
3 Feb 2020 19:02:13.000,25.894,9.962,1457.699950
3 Feb 2020 19:02:14.000,26.071,9.875,1463.153318
3 Feb 2020 19:02:15.000,26.246,9.788,1468.619937
3 Feb 2020 19:02:16.000,26.419,9.702,1474.099653
3 Feb 2020 19:02:17.000,26.592,9.616,1479.592314
3 Feb 2020 19:02:18.000,26.763,9.530,1485.097771
3 Feb 2020 19:02:19.000,26.932,9.444,1490.615872
3 Feb 2020 19:02:20.000,27.101,9.359,1496.146473
3 Feb 2020 19:02:21.000,27.268,9.274,1501.689428
3 Feb 2020 19:02:22.000,27.433,9.189,1507.244594
3 Feb 2020 19:02:23.000,27.598,9.104,1512.811830
3 Feb 2020 19:02:24.000,27.761,9.020,1518.390997
3 Feb 2020 19:02:25.000,27.923,8.936,1523.981958
3 Feb 2020 19:02:26.000,28.084,8.852,1529.584575
3 Feb 2020 19:02:27.000,28.243,8.769,1535.198713
3 Feb 2020 19:02:28.000,28.402,8.685,1540.824240
3 Feb 2020 19:02:29.000,28.559,8.603,1546.461026
3 Feb 2020 19:02:30.000,28.715,8.520,1552.108940
3 Feb 2020 19:02:31.000,28.869,8.438,1557.767855
3 Feb 2020 19:02:32.000,29.023,8.355,1563.437644
3 Feb 2020 19:02:33.000,29.175,8.274,1569.118185
3 Feb 2020 19:02:34.000,29.327,8.192,1574.809350
3 Feb 2020 19:02:35.000,29.477,8.111,1580.511019
3 Feb 2020 19:02:36.000,29.626,8.030,1586.223074
3 Feb 2020 19:02:37.000,29.774,7.949,1591.945393
3 Feb 2020 19:02:38.000,29.921,7.868,1597.677862
3 Feb 2020 19:02:39.000,30.067,7.788,1603.420363
3 Feb 2020 19:02:40.000,30.211,7.708,1609.172782
3 Feb 2020 19:02:41.000,30.355,7.629,1614.935006
3 Feb 2020 19:02:42.000,30.498,7.549,1620.706924
3 Feb 2020 19:02:43.000,30.639,7.470,1626.488425
3 Feb 2020 19:02:44.000,30.780,7.391,1632.279403
3 Feb 2020 19:02:45.000,30.919,7.312,1638.079746
3 Feb 2020 19:02:46.000,31.058,7.234,1643.889350
3 Feb 2020 19:02:47.000,31.195,7.156,1649.708111
3 Feb 2020 19:02:48.000,31.332,7.078,1655.535923
3 Feb 2020 19:02:49.000,31.467,7.000,1661.372686
3 Feb 2020 19:02:50.000,31.602,6.923,1667.218297
3 Feb 2020 19:02:51.000,31.735,6.846,1673.072658
3 Feb 2020 19:02:52.000,31.868,6.769,1678.935669
3 Feb 2020 19:02:53.000,32.000,6.692,1684.807234
3 Feb 2020 19:02:54.000,32.130,6.616,1690.687255
3 Feb 2020 19:02:55.000,32.260,6.540,1696.575638
3 Feb 2020 19:02:56.000,32.389,6.464,1702.472290
3 Feb 2020 19:02:57.000,32.517,6.388,1708.377116
3 Feb 2020 19:02:58.000,32.644,6.313,1714.290026
3 Feb 2020 19:02:59.000,32.771,6.238,1720.210929
3 Feb 2020 19:03:00.000,32.896,6.163,1726.139736
3 Feb 2020 19:03:01.000,33.020,6.088,1732.076358
3 Feb 2020 19:03:02.000,33.144,6.014,1738.020708
3 Feb 2020 19:03:03.000,33.267,5.940,1743.972700
3 Feb 2020 19:03:04.000,33.389,5.866,1749.932249
3 Feb 2020 19:03:05.000,33.510,5.792,1755.899271
3 Feb 2020 19:03:06.000,33.630,5.718,1761.873681
3 Feb 2020 19:03:07.000,33.750,5.645,1767.855399
3 Feb 2020 19:03:08.000,33.868,5.572,1773.844344
3 Feb 2020 19:03:09.000,33.986,5.499,1779.840434
3 Feb 2020 19:03:10.000,34.103,5.427,1785.843591
3 Feb 2020 19:03:11.000,34.219,5.355,1791.853736
3 Feb 2020 19:03:12.000,34.335,5.283,1797.870793
3 Feb 2020 19:03:13.000,34.450,5.211,1803.894684
3 Feb 2020 19:03:14.000,34.563,5.139,1809.925334
3 Feb 2020 19:03:15.000,34.677,5.068,1815.962669
3 Feb 2020 19:03:16.000,34.789,4.996,1822.006615
3 Feb 2020 19:03:17.000,34.901,4.925,1828.057099
3 Feb 2020 19:03:18.000,35.012,4.855,1834.114049
3 Feb 2020 19:03:19.000,35.122,4.784,1840.177394
3 Feb 2020 19:03:20.000,35.231,4.714,1846.247063
3 Feb 2020 19:03:21.000,35.340,4.644,1852.322987
3 Feb 2020 19:03:22.000,35.448,4.574,1858.405098
3 Feb 2020 19:03:23.000,35.555,4.504,1864.493327
3 Feb 2020 19:03:24.000,35.662,4.435,1870.587608
3 Feb 2020 19:03:25.000,35.768,4.366,1876.687873
3 Feb 2020 19:03:26.000,35.873,4.297,1882.794059
3 Feb 2020 19:03:27.000,35.978,4.228,1888.906099
3 Feb 2020 19:03:28.000,36.082,4.159,1895.023930
3 Feb 2020 19:03:29.000,36.185,4.091,1901.147489
3 Feb 2020 19:03:30.000,36.288,4.023,1907.276713
3 Feb 2020 19:03:31.000,36.390,3.955,1913.411540
3 Feb 2020 19:03:32.000,36.491,3.887,1919.551909
3 Feb 2020 19:03:33.000,36.592,3.819,1925.697760
3 Feb 2020 19:03:34.000,36.692,3.752,1931.849032
3 Feb 2020 19:03:35.000,36.791,3.685,1938.005668
3 Feb 2020 19:03:36.000,36.890,3.618,1944.167609
3 Feb 2020 19:03:37.000,36.988,3.551,1950.334796
3 Feb 2020 19:03:38.000,37.085,3.484,1956.507171
3 Feb 2020 19:03:39.000,37.182,3.418,1962.684682
3 Feb 2020 19:03:40.000,37.279,3.351,1968.867271
3 Feb 2020 19:03:41.000,37.374,3.285,1975.054883
3 Feb 2020 19:03:42.000,37.470,3.220,1981.247462
3 Feb 2020 19:03:43.000,37.564,3.154,1987.444956
3 Feb 2020 19:03:44.000,37.658,3.089,1993.647311
3 Feb 2020 19:03:45.000,37.752,3.023,1999.854475
3 Feb 2020 19:03:46.000,37.844,2.958,2006.066394
3 Feb 2020 19:03:47.000,37.937,2.893,2012.283019
3 Feb 2020 19:03:48.000,38.028,2.828,2018.504297
3 Feb 2020 19:03:49.000,38.120,2.764,2024.730179
3 Feb 2020 19:03:50.000,38.210,2.700,2030.960615
3 Feb 2020 19:03:51.000,38.300,2.635,2037.195555
3 Feb 2020 19:03:52.000,38.390,2.571,2043.434948
3 Feb 2020 19:03:53.000,38.479,2.508,2049.678751
3 Feb 2020 19:03:54.000,38.567,2.444,2055.926914
3 Feb 2020 19:03:55.000,38.655,2.380,2062.179390
3 Feb 2020 19:03:56.000,38.743,2.317,2068.436132
3 Feb 2020 19:03:57.000,38.830,2.254,2074.697094
3 Feb 2020 19:03:58.000,38.916,2.191,2080.962231
3 Feb 2020 19:03:59.000,39.002,2.128,2087.231497
3 Feb 2020 19:04:00.000,39.087,2.066,2093.504847
3 Feb 2020 19:04:01.000,39.172,2.003,2099.782239
3 Feb 2020 19:04:02.000,39.257,1.941,2106.063627
3 Feb 2020 19:04:03.000,39.341,1.879,2112.348967
