vcc_sched/network/input/aer_vtgs_wj2xms_vcc-c_44430.csv

"Time (UTCG)","Azimuth (deg)","Elevation (deg)","Range (km)"
1 Dec 2019 18:38:07.242,199.010,-0.056,2303.788798
1 Dec 2019 18:38:08.000,198.957,-0.012,2298.918147
1 Dec 2019 18:38:09.000,198.888,0.046,2292.499010
1 Dec 2019 18:38:10.000,198.818,0.104,2286.083020
1 Dec 2019 18:38:11.000,198.747,0.163,2279.670210
1 Dec 2019 18:38:12.000,198.677,0.221,2273.260619
1 Dec 2019 18:38:13.000,198.605,0.280,2266.854279
1 Dec 2019 18:38:14.000,198.534,0.338,2260.451226
1 Dec 2019 18:38:15.000,198.462,0.397,2254.051497
1 Dec 2019 18:38:16.000,198.389,0.456,2247.655127
1 Dec 2019 18:38:17.000,198.317,0.515,2241.262154
1 Dec 2019 18:38:18.000,198.243,0.575,2234.872614
1 Dec 2019 18:38:19.000,198.170,0.634,2228.486543
1 Dec 2019 18:38:20.000,198.096,0.694,2222.103982
1 Dec 2019 18:38:21.000,198.021,0.753,2215.724968
1 Dec 2019 18:38:22.000,197.946,0.813,2209.349540
1 Dec 2019 18:38:23.000,197.871,0.873,2202.977735
1 Dec 2019 18:38:24.000,197.795,0.933,2196.609595
1 Dec 2019 18:38:25.000,197.718,0.994,2190.245159
1 Dec 2019 18:38:26.000,197.642,1.054,2183.884465
1 Dec 2019 18:38:27.000,197.564,1.115,2177.527557
1 Dec 2019 18:38:28.000,197.487,1.175,2171.174474
1 Dec 2019 18:38:29.000,197.408,1.236,2164.825259
1 Dec 2019 18:38:30.000,197.330,1.297,2158.479954
1 Dec 2019 18:38:31.000,197.251,1.359,2152.138600
1 Dec 2019 18:38:32.000,197.171,1.420,2145.801240
1 Dec 2019 18:38:33.000,197.091,1.482,2139.467919
1 Dec 2019 18:38:34.000,197.010,1.543,2133.138680
1 Dec 2019 18:38:35.000,196.929,1.605,2126.813565
1 Dec 2019 18:38:36.000,196.848,1.667,2120.492622
1 Dec 2019 18:38:37.000,196.765,1.729,2114.175895
1 Dec 2019 18:38:38.000,196.683,1.792,2107.863430
1 Dec 2019 18:38:39.000,196.600,1.854,2101.555274
1 Dec 2019 18:38:40.000,196.516,1.917,2095.251471
1 Dec 2019 18:38:41.000,196.432,1.980,2088.952071
1 Dec 2019 18:38:42.000,196.347,2.043,2082.657121
1 Dec 2019 18:38:43.000,196.262,2.106,2076.366668
1 Dec 2019 18:38:44.000,196.176,2.169,2070.080763
1 Dec 2019 18:38:45.000,196.090,2.233,2063.799452
1 Dec 2019 18:38:46.000,196.003,2.296,2057.522788
1 Dec 2019 18:38:47.000,195.916,2.360,2051.250821
1 Dec 2019 18:38:48.000,195.828,2.424,2044.983602
1 Dec 2019 18:38:49.000,195.740,2.488,2038.721181
1 Dec 2019 18:38:50.000,195.651,2.553,2032.463612
1 Dec 2019 18:38:51.000,195.561,2.617,2026.210946
1 Dec 2019 18:38:52.000,195.471,2.682,2019.963237
1 Dec 2019 18:38:53.000,195.380,2.747,2013.720540
1 Dec 2019 18:38:54.000,195.289,2.812,2007.482908
1 Dec 2019 18:38:55.000,195.197,2.877,2001.250396
1 Dec 2019 18:38:56.000,195.104,2.943,1995.023060
1 Dec 2019 18:38:57.000,195.011,3.008,1988.800958
1 Dec 2019 18:38:58.000,194.918,3.074,1982.584145
1 Dec 2019 18:38:59.000,194.823,3.140,1976.372680
1 Dec 2019 18:39:00.000,194.728,3.206,1970.166620
1 Dec 2019 18:39:01.000,194.633,3.273,1963.966025
1 Dec 2019 18:39:02.000,194.537,3.339,1957.770954
1 Dec 2019 18:39:03.000,194.440,3.406,1951.581468
1 Dec 2019 18:39:04.000,194.342,3.473,1945.397627
1 Dec 2019 18:39:05.000,194.244,3.540,1939.219493
1 Dec 2019 18:39:06.000,194.145,3.607,1933.047129
1 Dec 2019 18:39:07.000,194.046,3.675,1926.880597
1 Dec 2019 18:39:08.000,193.946,3.742,1920.719962
1 Dec 2019 18:39:09.000,193.845,3.810,1914.565288
1 Dec 2019 18:39:10.000,193.744,3.878,1908.416640
1 Dec 2019 18:39:11.000,193.642,3.947,1902.274085
1 Dec 2019 18:39:12.000,193.539,4.015,1896.137689
1 Dec 2019 18:39:13.000,193.435,4.084,1890.007520
1 Dec 2019 18:39:14.000,193.331,4.153,1883.883647
1 Dec 2019 18:39:15.000,193.226,4.222,1877.766138
1 Dec 2019 18:39:16.000,193.121,4.291,1871.655064
1 Dec 2019 18:39:17.000,193.014,4.361,1865.550495
1 Dec 2019 18:39:18.000,192.907,4.431,1859.452503
1 Dec 2019 18:39:19.000,192.799,4.501,1853.361161
1 Dec 2019 18:39:20.000,192.691,4.571,1847.276542
1 Dec 2019 18:39:21.000,192.582,4.641,1841.198720
1 Dec 2019 18:39:22.000,192.471,4.712,1835.127770
1 Dec 2019 18:39:23.000,192.361,4.782,1829.063769
1 Dec 2019 18:39:24.000,192.249,4.853,1823.006793
1 Dec 2019 18:39:25.000,192.137,4.925,1816.956919
1 Dec 2019 18:39:26.000,192.024,4.996,1810.914228
1 Dec 2019 18:39:27.000,191.910,5.068,1804.878798
1 Dec 2019 18:39:28.000,191.795,5.140,1798.850709
1 Dec 2019 18:39:29.000,191.679,5.212,1792.830044
1 Dec 2019 18:39:30.000,191.563,5.284,1786.816886
1 Dec 2019 18:39:31.000,191.446,5.357,1780.811317
1 Dec 2019 18:39:32.000,191.328,5.429,1774.813421
1 Dec 2019 18:39:33.000,191.209,5.502,1768.823286
1 Dec 2019 18:39:34.000,191.089,5.576,1762.840997
1 Dec 2019 18:39:35.000,190.969,5.649,1756.866641
1 Dec 2019 18:39:36.000,190.847,5.723,1750.900308
1 Dec 2019 18:39:37.000,190.725,5.797,1744.942088
1 Dec 2019 18:39:38.000,190.602,5.871,1738.992070
1 Dec 2019 18:39:39.000,190.478,5.945,1733.050347
1 Dec 2019 18:39:40.000,190.353,6.020,1727.117012
1 Dec 2019 18:39:41.000,190.227,6.095,1721.192160
1 Dec 2019 18:39:42.000,190.100,6.170,1715.275885
1 Dec 2019 18:39:43.000,189.972,6.245,1709.368283
1 Dec 2019 18:39:44.000,189.843,6.320,1703.469453
1 Dec 2019 18:39:45.000,189.714,6.396,1697.579493
1 Dec 2019 18:39:46.000,189.583,6.472,1691.698504
1 Dec 2019 18:39:47.000,189.452,6.548,1685.826586
1 Dec 2019 18:39:48.000,189.319,6.625,1679.963842
1 Dec 2019 18:39:49.000,189.186,6.702,1674.110375
1 Dec 2019 18:39:50.000,189.051,6.779,1668.266291
1 Dec 2019 18:39:51.000,188.916,6.856,1662.431696
1 Dec 2019 18:39:52.000,188.779,6.933,1656.606698
1 Dec 2019 18:39:53.000,188.642,7.011,1650.791405
1 Dec 2019 18:39:54.000,188.503,7.089,1644.985927
1 Dec 2019 18:39:55.000,188.364,7.167,1639.190377
1 Dec 2019 18:39:56.000,188.223,7.245,1633.404866
1 Dec 2019 18:39:57.000,188.082,7.324,1627.629509
1 Dec 2019 18:39:58.000,187.939,7.403,1621.864422
1 Dec 2019 18:39:59.000,187.795,7.482,1616.109723
1 Dec 2019 18:40:00.000,187.650,7.562,1610.365529
1 Dec 2019 18:40:01.000,187.504,7.641,1604.631960
1 Dec 2019 18:40:02.000,187.357,7.721,1598.909139
1 Dec 2019 18:40:03.000,187.209,7.801,1593.197188
1 Dec 2019 18:40:04.000,187.059,7.882,1587.496231
1 Dec 2019 18:40:05.000,186.909,7.963,1581.806395
1 Dec 2019 18:40:06.000,186.757,8.043,1576.127807
1 Dec 2019 18:40:07.000,186.604,8.125,1570.460597
1 Dec 2019 18:40:08.000,186.450,8.206,1564.804894
1 Dec 2019 18:40:09.000,186.295,8.288,1559.160832
1 Dec 2019 18:40:10.000,186.138,8.370,1553.528544
1 Dec 2019 18:40:11.000,185.981,8.452,1547.908165
1 Dec 2019 18:40:12.000,185.822,8.534,1542.299834
1 Dec 2019 18:40:13.000,185.662,8.617,1536.703689
1 Dec 2019 18:40:14.000,185.500,8.700,1531.119871
1 Dec 2019 18:40:15.000,185.337,8.783,1525.548521
1 Dec 2019 18:40:16.000,185.173,8.867,1519.989785
1 Dec 2019 18:40:17.000,185.008,8.950,1514.443807
1 Dec 2019 18:40:18.000,184.842,9.034,1508.910737
1 Dec 2019 18:40:19.000,184.674,9.119,1503.390722
1 Dec 2019 18:40:20.000,184.505,9.203,1497.883915
1 Dec 2019 18:40:21.000,184.334,9.288,1492.390468
1 Dec 2019 18:40:22.000,184.162,9.373,1486.910537
1 Dec 2019 18:40:23.000,183.989,9.458,1481.444278
1 Dec 2019 18:40:24.000,183.814,9.544,1475.991850
1 Dec 2019 18:40:25.000,183.638,9.629,1470.553414
1 Dec 2019 18:40:26.000,183.461,9.715,1465.129133
1 Dec 2019 18:40:27.000,183.282,9.802,1459.719170
1 Dec 2019 18:40:28.000,183.102,9.888,1454.323693
1 Dec 2019 18:40:29.000,182.920,9.975,1448.942871
1 Dec 2019 18:40:30.000,182.737,10.062,1443.576873
1 Dec 2019 18:40:31.000,182.552,10.149,1438.225873
1 Dec 2019 18:40:32.000,182.366,10.237,1432.890046
1 Dec 2019 18:40:33.000,182.178,10.324,1427.569567
1 Dec 2019 18:40:34.000,181.989,10.412,1422.264617
1 Dec 2019 18:40:35.000,181.798,10.500,1416.975376
1 Dec 2019 18:40:36.000,181.606,10.589,1411.702028
1 Dec 2019 18:40:37.000,181.412,10.678,1406.444758
1 Dec 2019 18:40:38.000,181.216,10.767,1401.203753
1 Dec 2019 18:40:39.000,181.019,10.856,1395.979204
1 Dec 2019 18:40:40.000,180.821,10.945,1390.771302
1 Dec 2019 18:40:41.000,180.620,11.035,1385.580241
1 Dec 2019 18:40:42.000,180.419,11.125,1380.406219
1 Dec 2019 18:40:43.000,180.215,11.215,1375.249434
1 Dec 2019 18:40:44.000,180.010,11.305,1370.110087
1 Dec 2019 18:40:45.000,179.803,11.395,1364.988382
1 Dec 2019 18:40:46.000,179.594,11.486,1359.884525
1 Dec 2019 18:40:47.000,179.384,11.577,1354.798723
1 Dec 2019 18:40:48.000,179.172,11.668,1349.731187
1 Dec 2019 18:40:49.000,178.958,11.760,1344.682131
1 Dec 2019 18:40:50.000,178.742,11.851,1339.651768
1 Dec 2019 18:40:51.000,178.525,11.943,1334.640319
1 Dec 2019 18:40:52.000,178.305,12.035,1329.648001
1 Dec 2019 18:40:53.000,178.084,12.127,1324.675038
1 Dec 2019 18:40:54.000,177.861,12.220,1319.721656
1 Dec 2019 18:40:55.000,177.637,12.312,1314.788081
1 Dec 2019 18:40:56.000,177.410,12.405,1309.874544
1 Dec 2019 18:40:57.000,177.182,12.498,1304.981278
1 Dec 2019 18:40:58.000,176.951,12.591,1300.108517
1 Dec 2019 18:40:59.000,176.719,12.684,1295.256498
1 Dec 2019 18:41:00.000,176.485,12.777,1290.425464
1 Dec 2019 18:41:01.000,176.249,12.871,1285.615654
1 Dec 2019 18:41:02.000,176.011,12.965,1280.827317
1 Dec 2019 18:41:03.000,175.771,13.059,1276.060698
1 Dec 2019 18:41:04.000,175.528,13.153,1271.316048
1 Dec 2019 18:41:05.000,175.284,13.247,1266.593620
1 Dec 2019 18:41:06.000,175.038,13.341,1261.893670
1 Dec 2019 18:41:07.000,174.790,13.435,1257.216456
1 Dec 2019 18:41:08.000,174.540,13.530,1252.562238
1 Dec 2019 18:41:09.000,174.287,13.625,1247.931280
1 Dec 2019 18:41:10.000,174.033,13.719,1243.323848
1 Dec 2019 18:41:11.000,173.777,13.814,1238.740209
1 Dec 2019 18:41:12.000,173.518,13.909,1234.180635
1 Dec 2019 18:41:13.000,173.257,14.004,1229.645399
1 Dec 2019 18:41:14.000,172.994,14.099,1225.134778
1 Dec 2019 18:41:15.000,172.729,14.194,1220.649049
1 Dec 2019 18:41:16.000,172.462,14.289,1216.188495
1 Dec 2019 18:41:17.000,172.192,14.385,1211.753398
1 Dec 2019 18:41:18.000,171.920,14.480,1207.344047
1 Dec 2019 18:41:19.000,171.646,14.575,1202.960727
1 Dec 2019 18:41:20.000,171.370,14.670,1198.603732
1 Dec 2019 18:41:21.000,171.092,14.766,1194.273354
1 Dec 2019 18:41:22.000,170.811,14.861,1189.969891
1 Dec 2019 18:41:23.000,170.528,14.956,1185.693640
1 Dec 2019 18:41:24.000,170.242,15.051,1181.444902
1 Dec 2019 18:41:25.000,169.955,15.147,1177.223982
1 Dec 2019 18:41:26.000,169.665,15.242,1173.031183
1 Dec 2019 18:41:27.000,169.372,15.337,1168.866815
1 Dec 2019 18:41:28.000,169.077,15.432,1164.731189
1 Dec 2019 18:41:29.000,168.780,15.527,1160.624615
1 Dec 2019 18:41:30.000,168.481,15.622,1156.547410
1 Dec 2019 18:41:31.000,168.179,15.716,1152.499890
1 Dec 2019 18:41:32.000,167.874,15.811,1148.482374
1 Dec 2019 18:41:33.000,167.568,15.905,1144.495184
1 Dec 2019 18:41:34.000,167.258,16.000,1140.538641
1 Dec 2019 18:41:35.000,166.947,16.094,1136.613073
1 Dec 2019 18:41:36.000,166.632,16.188,1132.718806
1 Dec 2019 18:41:37.000,166.316,16.282,1128.856168
1 Dec 2019 18:41:38.000,165.997,16.375,1125.025491
1 Dec 2019 18:41:39.000,165.675,16.469,1121.227106
1 Dec 2019 18:41:40.000,165.351,16.562,1117.461350
1 Dec 2019 18:41:41.000,165.024,16.654,1113.728557
1 Dec 2019 18:41:42.000,164.695,16.747,1110.029064
1 Dec 2019 18:41:43.000,164.363,16.839,1106.363210
1 Dec 2019 18:41:44.000,164.029,16.931,1102.731338
1 Dec 2019 18:41:45.000,163.692,17.023,1099.133785
1 Dec 2019 18:41:46.000,163.353,17.114,1095.570897
1 Dec 2019 18:41:47.000,163.011,17.205,1092.043017
1 Dec 2019 18:41:48.000,162.667,17.295,1088.550490
1 Dec 2019 18:41:49.000,162.320,17.386,1085.093662
1 Dec 2019 18:41:50.000,161.970,17.475,1081.672880
1 Dec 2019 18:41:51.000,161.618,17.564,1078.288491
1 Dec 2019 18:41:52.000,161.263,17.653,1074.940843
1 Dec 2019 18:41:53.000,160.906,17.741,1071.630285
1 Dec 2019 18:41:54.000,160.546,17.829,1068.357167
1 Dec 2019 18:41:55.000,160.184,17.917,1065.121838
1 Dec 2019 18:41:56.000,159.819,18.003,1061.924647
1 Dec 2019 18:41:57.000,159.451,18.089,1058.765944
1 Dec 2019 18:41:58.000,159.081,18.175,1055.646079
1 Dec 2019 18:41:59.000,158.708,18.260,1052.565402
1 Dec 2019 18:42:00.000,158.333,18.344,1049.524260
1 Dec 2019 18:42:01.000,157.955,18.428,1046.523005
1 Dec 2019 18:42:02.000,157.575,18.511,1043.561982
1 Dec 2019 18:42:03.000,157.192,18.593,1040.641540
1 Dec 2019 18:42:04.000,156.807,18.675,1037.762025
1 Dec 2019 18:42:05.000,156.419,18.755,1034.923783
1 Dec 2019 18:42:06.000,156.029,18.835,1032.127158
1 Dec 2019 18:42:07.000,155.636,18.914,1029.372492
1 Dec 2019 18:42:08.000,155.241,18.993,1026.660128
1 Dec 2019 18:42:09.000,154.843,19.070,1023.990405
1 Dec 2019 18:42:10.000,154.442,19.147,1021.363661
1 Dec 2019 18:42:11.000,154.040,19.223,1018.780232
1 Dec 2019 18:42:12.000,153.635,19.298,1016.240452
1 Dec 2019 18:42:13.000,153.227,19.372,1013.744651
1 Dec 2019 18:42:14.000,152.817,19.445,1011.293160
1 Dec 2019 18:42:15.000,152.405,19.517,1008.886305
1 Dec 2019 18:42:16.000,151.991,19.587,1006.524410
1 Dec 2019 18:42:17.000,151.574,19.657,1004.207794
1 Dec 2019 18:42:18.000,151.154,19.726,1001.936773
1 Dec 2019 18:42:19.000,150.733,19.794,999.711665
1 Dec 2019 18:42:20.000,150.309,19.860,997.532778
1 Dec 2019 18:42:21.000,149.884,19.926,995.400418
1 Dec 2019 18:42:22.000,149.456,19.990,993.314887
1 Dec 2019 18:42:23.000,149.025,20.053,991.276486
1 Dec 2019 18:42:24.000,148.593,20.115,989.285508
1 Dec 2019 18:42:25.000,148.159,20.176,987.342241
1 Dec 2019 18:42:26.000,147.723,20.235,985.446973
1 Dec 2019 18:42:27.000,147.284,20.293,983.599983
1 Dec 2019 18:42:28.000,146.844,20.350,981.801543
1 Dec 2019 18:42:29.000,146.402,20.406,980.051928
1 Dec 2019 18:42:30.000,145.957,20.460,978.351397
1 Dec 2019 18:42:31.000,145.512,20.513,976.700215
1 Dec 2019 18:42:32.000,145.064,20.564,975.098631
1 Dec 2019 18:42:33.000,144.614,20.614,973.546891
1 Dec 2019 18:42:34.000,144.163,20.662,972.045240
1 Dec 2019 18:42:35.000,143.710,20.709,970.593909
1 Dec 2019 18:42:36.000,143.256,20.755,969.193130
1 Dec 2019 18:42:37.000,142.799,20.799,967.843119
1 Dec 2019 18:42:38.000,142.342,20.841,966.544095
1 Dec 2019 18:42:39.000,141.883,20.882,965.296267
1 Dec 2019 18:42:40.000,141.422,20.922,964.099831
1 Dec 2019 18:42:41.000,140.960,20.960,962.954986
1 Dec 2019 18:42:42.000,140.497,20.996,961.861912
1 Dec 2019 18:42:43.000,140.033,21.030,960.820791
1 Dec 2019 18:42:44.000,139.567,21.063,959.831794
1 Dec 2019 18:42:45.000,139.100,21.095,958.895082
1 Dec 2019 18:42:46.000,138.632,21.124,958.010810
1 Dec 2019 18:42:47.000,138.164,21.152,957.179128
1 Dec 2019 18:42:48.000,137.694,21.179,956.400171
1 Dec 2019 18:42:49.000,137.223,21.203,955.674069
1 Dec 2019 18:42:50.000,136.751,21.226,955.000946
1 Dec 2019 18:42:51.000,136.279,21.248,954.380917
1 Dec 2019 18:42:52.000,135.806,21.267,953.814082
1 Dec 2019 18:42:53.000,135.332,21.285,953.300539
1 Dec 2019 18:42:54.000,134.858,21.301,952.840375
1 Dec 2019 18:42:55.000,134.383,21.315,952.433669
1 Dec 2019 18:42:56.000,133.907,21.327,952.080491
1 Dec 2019 18:42:57.000,133.432,21.338,951.780902
1 Dec 2019 18:42:58.000,132.956,21.347,951.534950
1 Dec 2019 18:42:59.000,132.479,21.354,951.342679
1 Dec 2019 18:43:00.000,132.003,21.360,951.204122
1 Dec 2019 18:43:01.000,131.526,21.363,951.119304
1 Dec 2019 18:43:02.000,131.049,21.365,951.088239
1 Dec 2019 18:43:03.000,130.572,21.365,951.110933
1 Dec 2019 18:43:04.000,130.095,21.363,951.187383
1 Dec 2019 18:43:05.000,129.619,21.360,951.317575
1 Dec 2019 18:43:06.000,129.142,21.354,951.501489
1 Dec 2019 18:43:07.000,128.666,21.347,951.739092
1 Dec 2019 18:43:08.000,128.190,21.338,952.030346
1 Dec 2019 18:43:09.000,127.715,21.328,952.375198
1 Dec 2019 18:43:10.000,127.240,21.315,952.773595
1 Dec 2019 18:43:11.000,126.765,21.301,953.225467
1 Dec 2019 18:43:12.000,126.291,21.285,953.730739
1 Dec 2019 18:43:13.000,125.818,21.267,954.289324
1 Dec 2019 18:43:14.000,125.345,21.248,954.901130
1 Dec 2019 18:43:15.000,124.873,21.227,955.566051
1 Dec 2019 18:43:16.000,124.402,21.204,956.283982
1 Dec 2019 18:43:17.000,123.932,21.179,957.054799
1 Dec 2019 18:43:18.000,123.463,21.153,957.878375
1 Dec 2019 18:43:19.000,122.995,21.125,958.754570
1 Dec 2019 18:43:20.000,122.528,21.096,959.683245
1 Dec 2019 18:43:21.000,122.062,21.064,960.664244
1 Dec 2019 18:43:22.000,121.597,21.031,961.697404
1 Dec 2019 18:43:23.000,121.133,20.997,962.782561
1 Dec 2019 18:43:24.000,120.671,20.961,963.919536
1 Dec 2019 18:43:25.000,120.210,20.923,965.108143
1 Dec 2019 18:43:26.000,119.751,20.884,966.348194
1 Dec 2019 18:43:27.000,119.293,20.843,967.639487
1 Dec 2019 18:43:28.000,118.836,20.801,968.981819
1 Dec 2019 18:43:29.000,118.381,20.757,970.374977
1 Dec 2019 18:43:30.000,117.928,20.711,971.818735
1 Dec 2019 18:43:31.000,117.476,20.665,973.312875
1 Dec 2019 18:43:32.000,117.026,20.616,974.857157
1 Dec 2019 18:43:33.000,116.578,20.567,976.451347
1 Dec 2019 18:43:34.000,116.131,20.515,978.095195
1 Dec 2019 18:43:35.000,115.686,20.463,979.788453
1 Dec 2019 18:43:36.000,115.243,20.409,981.530860
1 Dec 2019 18:43:37.000,114.803,20.354,983.322155
1 Dec 2019 18:43:38.000,114.364,20.297,985.162073
1 Dec 2019 18:43:39.000,113.927,20.239,987.050334
1 Dec 2019 18:43:40.000,113.492,20.180,988.986661
1 Dec 2019 18:43:41.000,113.059,20.120,990.970776
1 Dec 2019 18:43:42.000,112.628,20.058,993.002382
1 Dec 2019 18:43:43.000,112.199,19.995,995.081190
1 Dec 2019 18:43:44.000,111.773,19.931,997.206906
1 Dec 2019 18:43:45.000,111.349,19.866,999.379222
1 Dec 2019 18:43:46.000,110.927,19.800,1001.597835
1 Dec 2019 18:43:47.000,110.507,19.732,1003.862441
1 Dec 2019 18:43:48.000,110.089,19.664,1006.172718
1 Dec 2019 18:43:49.000,109.674,19.594,1008.528355
1 Dec 2019 18:43:50.000,109.261,19.524,1010.929032
1 Dec 2019 18:43:51.000,108.851,19.452,1013.374426
1 Dec 2019 18:43:52.000,108.442,19.380,1015.864215
1 Dec 2019 18:43:53.000,108.037,19.306,1018.398063
1 Dec 2019 18:43:54.000,107.633,19.232,1020.975645
1 Dec 2019 18:43:55.000,107.232,19.156,1023.596626
1 Dec 2019 18:43:56.000,106.834,19.080,1026.260671
1 Dec 2019 18:43:57.000,106.438,19.003,1028.967443
1 Dec 2019 18:43:58.000,106.044,18.925,1031.716603
1 Dec 2019 18:43:59.000,105.653,18.846,1034.507809
1 Dec 2019 18:44:00.000,105.264,18.767,1037.340721
1 Dec 2019 18:44:01.000,104.878,18.686,1040.214996
1 Dec 2019 18:44:02.000,104.495,18.605,1043.130283
1 Dec 2019 18:44:03.000,104.114,18.524,1046.086240
1 Dec 2019 18:44:04.000,103.735,18.441,1049.082520
1 Dec 2019 18:44:05.000,103.359,18.358,1052.118774
1 Dec 2019 18:44:06.000,102.986,18.274,1055.194655
1 Dec 2019 18:44:07.000,102.615,18.190,1058.309814
1 Dec 2019 18:44:08.000,102.247,18.105,1061.463901
1 Dec 2019 18:44:09.000,101.881,18.019,1064.656563
1 Dec 2019 18:44:10.000,101.518,17.933,1067.887459
1 Dec 2019 18:44:11.000,101.158,17.846,1071.156235
1 Dec 2019 18:44:12.000,100.800,17.759,1074.462541
1 Dec 2019 18:44:13.000,100.444,17.671,1077.806029
1 Dec 2019 18:44:14.000,100.092,17.583,1081.186350
1 Dec 2019 18:44:15.000,99.741,17.494,1084.603156
1 Dec 2019 18:44:16.000,99.394,17.405,1088.056100
1 Dec 2019 18:44:17.000,99.049,17.316,1091.544834
1 Dec 2019 18:44:18.000,98.706,17.226,1095.069010
1 Dec 2019 18:44:19.000,98.366,17.135,1098.628289
1 Dec 2019 18:44:20.000,98.029,17.045,1102.222323
1 Dec 2019 18:44:21.000,97.694,16.954,1105.850771
1 Dec 2019 18:44:22.000,97.362,16.862,1109.513290
1 Dec 2019 18:44:23.000,97.032,16.771,1113.209537
1 Dec 2019 18:44:24.000,96.704,16.679,1116.939179
1 Dec 2019 18:44:25.000,96.380,16.586,1120.701876
1 Dec 2019 18:44:26.000,96.057,16.494,1124.497291
1 Dec 2019 18:44:27.000,95.738,16.401,1128.325086
1 Dec 2019 18:44:28.000,95.420,16.308,1132.184937
1 Dec 2019 18:44:29.000,95.106,16.215,1136.076508
1 Dec 2019 18:44:30.000,94.793,16.122,1139.999466
1 Dec 2019 18:44:31.000,94.484,16.028,1143.953492
1 Dec 2019 18:44:32.000,94.176,15.935,1147.938256
1 Dec 2019 18:44:33.000,93.871,15.841,1151.953432
1 Dec 2019 18:44:34.000,93.569,15.747,1155.998705
1 Dec 2019 18:44:35.000,93.269,15.653,1160.073751
1 Dec 2019 18:44:36.000,92.971,15.559,1164.178252
1 Dec 2019 18:44:37.000,92.676,15.464,1168.311897
1 Dec 2019 18:44:38.000,92.383,15.370,1172.474372
1 Dec 2019 18:44:39.000,92.092,15.275,1176.665361
1 Dec 2019 18:44:40.000,91.804,15.181,1180.884564
1 Dec 2019 18:44:41.000,91.518,15.086,1185.131667
1 Dec 2019 18:44:42.000,91.235,14.992,1189.406374
1 Dec 2019 18:44:43.000,90.953,14.897,1193.708380
1 Dec 2019 18:44:44.000,90.674,14.802,1198.037383
1 Dec 2019 18:44:45.000,90.398,14.708,1202.393092
1 Dec 2019 18:44:46.000,90.123,14.613,1206.775207
1 Dec 2019 18:44:47.000,89.851,14.518,1211.183444
1 Dec 2019 18:44:48.000,89.581,14.424,1215.617505
1 Dec 2019 18:44:49.000,89.313,14.329,1220.077112
1 Dec 2019 18:44:50.000,89.048,14.235,1224.561974
1 Dec 2019 18:44:51.000,88.785,14.140,1229.071815
1 Dec 2019 18:44:52.000,88.523,14.046,1233.606350
1 Dec 2019 18:44:53.000,88.264,13.952,1238.165310
1 Dec 2019 18:44:54.000,88.008,13.857,1242.748413
1 Dec 2019 18:44:55.000,87.753,13.763,1247.355395
1 Dec 2019 18:44:56.000,87.500,13.669,1251.985979
1 Dec 2019 18:44:57.000,87.250,13.575,1256.639909
1 Dec 2019 18:44:58.000,87.001,13.481,1261.316911
1 Dec 2019 18:44:59.000,86.755,13.387,1266.016732
1 Dec 2019 18:45:00.000,86.510,13.294,1270.739107
1 Dec 2019 18:45:01.000,86.268,13.200,1275.483784
1 Dec 2019 18:45:02.000,86.027,13.107,1280.250512
1 Dec 2019 18:45:03.000,85.789,13.014,1285.039034
1 Dec 2019 18:45:04.000,85.553,12.920,1289.849108
1 Dec 2019 18:45:05.000,85.318,12.827,1294.680482
1 Dec 2019 18:45:06.000,85.086,12.735,1299.532915
1 Dec 2019 18:45:07.000,84.855,12.642,1304.406173
1 Dec 2019 18:45:08.000,84.626,12.550,1309.300008
1 Dec 2019 18:45:09.000,84.400,12.457,1314.214189
1 Dec 2019 18:45:10.000,84.175,12.365,1319.148486
1 Dec 2019 18:45:11.000,83.952,12.273,1324.102663
1 Dec 2019 18:45:12.000,83.730,12.181,1329.076498
1 Dec 2019 18:45:13.000,83.511,12.090,1334.069758
1 Dec 2019 18:45:14.000,83.293,11.998,1339.082224
1 Dec 2019 18:45:15.000,83.078,11.907,1344.113679
1 Dec 2019 18:45:16.000,82.864,11.816,1349.163898
1 Dec 2019 18:45:17.000,82.651,11.726,1354.232667
1 Dec 2019 18:45:18.000,82.441,11.635,1359.319775
1 Dec 2019 18:45:19.000,82.232,11.545,1364.425014
1 Dec 2019 18:45:20.000,82.025,11.454,1369.548168
1 Dec 2019 18:45:21.000,81.820,11.364,1374.689034
1 Dec 2019 18:45:22.000,81.616,11.275,1379.847412
1 Dec 2019 18:45:23.000,81.414,11.185,1385.023093
1 Dec 2019 18:45:24.000,81.214,11.096,1390.215882
1 Dec 2019 18:45:25.000,81.015,11.007,1395.425582
1 Dec 2019 18:45:26.000,80.818,10.918,1400.652002
1 Dec 2019 18:45:27.000,80.622,10.829,1405.894941
1 Dec 2019 18:45:28.000,80.428,10.741,1411.154214
1 Dec 2019 18:45:29.000,80.236,10.653,1416.429632
1 Dec 2019 18:45:30.000,80.045,10.565,1421.721013
1 Dec 2019 18:45:31.000,79.856,10.477,1427.028167
1 Dec 2019 18:45:32.000,79.668,10.390,1432.350915
1 Dec 2019 18:45:33.000,79.482,10.303,1437.689079
1 Dec 2019 18:45:34.000,79.298,10.216,1443.042484
1 Dec 2019 18:45:35.000,79.114,10.129,1448.410948
1 Dec 2019 18:45:36.000,78.933,10.043,1453.794302
1 Dec 2019 18:45:37.000,78.752,9.956,1459.192375
1 Dec 2019 18:45:38.000,78.574,9.870,1464.604998
1 Dec 2019 18:45:39.000,78.396,9.785,1470.032007
1 Dec 2019 18:45:40.000,78.220,9.699,1475.473230
1 Dec 2019 18:45:41.000,78.046,9.614,1480.928509
1 Dec 2019 18:45:42.000,77.873,9.529,1486.397681
1 Dec 2019 18:45:43.000,77.701,9.444,1491.880588
1 Dec 2019 18:45:44.000,77.530,9.360,1497.377072
1 Dec 2019 18:45:45.000,77.361,9.275,1502.886982
1 Dec 2019 18:45:46.000,77.194,9.191,1508.410157
1 Dec 2019 18:45:47.000,77.027,9.108,1513.946450
1 Dec 2019 18:45:48.000,76.862,9.024,1519.495710
1 Dec 2019 18:45:49.000,76.698,8.941,1525.057789
1 Dec 2019 18:45:50.000,76.536,8.858,1530.632541
1 Dec 2019 18:45:51.000,76.375,8.775,1536.219826
1 Dec 2019 18:45:52.000,76.215,8.693,1541.819493
1 Dec 2019 18:45:53.000,76.056,8.611,1547.431406
1 Dec 2019 18:45:54.000,75.898,8.529,1553.055425
1 Dec 2019 18:45:55.000,75.742,8.447,1558.691412
1 Dec 2019 18:45:56.000,75.587,8.365,1564.339231
1 Dec 2019 18:45:57.000,75.433,8.284,1569.998749
1 Dec 2019 18:45:58.000,75.281,8.203,1575.669832
1 Dec 2019 18:45:59.000,75.129,8.122,1581.352354
1 Dec 2019 18:46:00.000,74.979,8.042,1587.046177
1 Dec 2019 18:46:01.000,74.830,7.962,1592.751178
1 Dec 2019 18:46:02.000,74.682,7.882,1598.467230
1 Dec 2019 18:46:03.000,74.535,7.802,1604.194208
1 Dec 2019 18:46:04.000,74.389,7.722,1609.931990
1 Dec 2019 18:46:05.000,74.244,7.643,1615.680453
1 Dec 2019 18:46:06.000,74.101,7.564,1621.439477
1 Dec 2019 18:46:07.000,73.958,7.485,1627.208943
1 Dec 2019 18:46:08.000,73.817,7.407,1632.988734
1 Dec 2019 18:46:09.000,73.677,7.329,1638.778734
1 Dec 2019 18:46:10.000,73.538,7.251,1644.578829
1 Dec 2019 18:46:11.000,73.399,7.173,1650.388908
1 Dec 2019 18:46:12.000,73.262,7.095,1656.208854
1 Dec 2019 18:46:13.000,73.126,7.018,1662.038558
1 Dec 2019 18:46:14.000,72.991,6.941,1667.877913
1 Dec 2019 18:46:15.000,72.857,6.864,1673.726809
1 Dec 2019 18:46:16.000,72.724,6.788,1679.585141
1 Dec 2019 18:46:17.000,72.592,6.711,1685.452804
1 Dec 2019 18:46:18.000,72.461,6.635,1691.329693
1 Dec 2019 18:46:19.000,72.330,6.559,1697.215706
1 Dec 2019 18:46:20.000,72.201,6.484,1703.110742
1 Dec 2019 18:46:21.000,72.073,6.408,1709.014700
1 Dec 2019 18:46:22.000,71.946,6.333,1714.927481
1 Dec 2019 18:46:23.000,71.819,6.258,1720.848987
1 Dec 2019 18:46:24.000,71.694,6.183,1726.779122
1 Dec 2019 18:46:25.000,71.569,6.109,1732.717790
1 Dec 2019 18:46:26.000,71.446,6.035,1738.664898
1 Dec 2019 18:46:27.000,71.323,5.961,1744.620351
1 Dec 2019 18:46:28.000,71.201,5.887,1750.584057
1 Dec 2019 18:46:29.000,71.080,5.813,1756.555926
1 Dec 2019 18:46:30.000,70.960,5.740,1762.535868
1 Dec 2019 18:46:31.000,70.841,5.667,1768.523793
1 Dec 2019 18:46:32.000,70.722,5.594,1774.519614
1 Dec 2019 18:46:33.000,70.605,5.521,1780.523245
1 Dec 2019 18:46:34.000,70.488,5.449,1786.534599
1 Dec 2019 18:46:35.000,70.372,5.377,1792.553592
1 Dec 2019 18:46:36.000,70.257,5.305,1798.580140
1 Dec 2019 18:46:37.000,70.143,5.233,1804.614161
1 Dec 2019 18:46:38.000,70.029,5.162,1810.655572
1 Dec 2019 18:46:39.000,69.917,5.090,1816.704293
1 Dec 2019 18:46:40.000,69.805,5.019,1822.760244
1 Dec 2019 18:46:41.000,69.694,4.948,1828.823346
1 Dec 2019 18:46:42.000,69.584,4.877,1834.893522
1 Dec 2019 18:46:43.000,69.474,4.807,1840.970693
1 Dec 2019 18:46:44.000,69.366,4.737,1847.054785
1 Dec 2019 18:46:45.000,69.258,4.667,1853.145721
1 Dec 2019 18:46:46.000,69.150,4.597,1859.243428
1 Dec 2019 18:46:47.000,69.044,4.527,1865.347832
1 Dec 2019 18:46:48.000,68.938,4.458,1871.458860
1 Dec 2019 18:46:49.000,68.833,4.388,1877.576440
1 Dec 2019 18:46:50.000,68.729,4.319,1883.700502
1 Dec 2019 18:46:51.000,68.625,4.251,1889.830975
1 Dec 2019 18:46:52.000,68.522,4.182,1895.967790
1 Dec 2019 18:46:53.000,68.420,4.114,1902.110879
1 Dec 2019 18:46:54.000,68.319,4.045,1908.260173
1 Dec 2019 18:46:55.000,68.218,3.977,1914.415602
1 Dec 2019 18:46:56.000,68.118,3.909,1920.577107
1 Dec 2019 18:46:57.000,68.018,3.842,1926.744620
1 Dec 2019 18:46:58.000,67.920,3.774,1932.918074
1 Dec 2019 18:46:59.000,67.821,3.707,1939.097407
1 Dec 2019 18:47:00.000,67.724,3.640,1945.282555
1 Dec 2019 18:47:01.000,67.627,3.573,1951.473455
1 Dec 2019 18:47:02.000,67.531,3.506,1957.670046
1 Dec 2019 18:47:03.000,67.436,3.440,1963.872267
1 Dec 2019 18:47:04.000,67.341,3.374,1970.080057
1 Dec 2019 18:47:05.000,67.246,3.308,1976.293357
1 Dec 2019 18:47:06.000,67.153,3.242,1982.512107
1 Dec 2019 18:47:07.000,67.060,3.176,1988.736249
1 Dec 2019 18:47:08.000,66.967,3.110,1994.965725
1 Dec 2019 18:47:09.000,66.876,3.045,2001.200478
1 Dec 2019 18:47:10.000,66.784,2.980,2007.440449
1 Dec 2019 18:47:11.000,66.694,2.915,2013.685588
1 Dec 2019 18:47:12.000,66.604,2.850,2019.935837
1 Dec 2019 18:47:13.000,66.514,2.785,2026.191141
1 Dec 2019 18:47:14.000,66.425,2.721,2032.451445
1 Dec 2019 18:47:15.000,66.337,2.656,2038.716698
1 Dec 2019 18:47:16.000,66.250,2.592,2044.986845
1 Dec 2019 18:47:17.000,66.162,2.528,2051.261836
1 Dec 2019 18:47:18.000,66.076,2.464,2057.541617
1 Dec 2019 18:47:19.000,65.990,2.401,2063.826138
1 Dec 2019 18:47:20.000,65.904,2.337,2070.115348
1 Dec 2019 18:47:21.000,65.819,2.274,2076.409195
1 Dec 2019 18:47:22.000,65.735,2.211,2082.707634
1 Dec 2019 18:47:23.000,65.651,2.148,2089.010615
1 Dec 2019 18:47:24.000,65.568,2.085,2095.318089
1 Dec 2019 18:47:25.000,65.485,2.023,2101.630008
1 Dec 2019 18:47:26.000,65.403,1.960,2107.946324
1 Dec 2019 18:47:27.000,65.321,1.898,2114.266991
1 Dec 2019 18:47:28.000,65.240,1.836,2120.591962
1 Dec 2019 18:47:29.000,65.159,1.774,2126.921192
1 Dec 2019 18:47:30.000,65.079,1.712,2133.254636
1 Dec 2019 18:47:31.000,64.999,1.650,2139.592244
1 Dec 2019 18:47:32.000,64.920,1.589,2145.933980
1 Dec 2019 18:47:33.000,64.841,1.528,2152.279797
1 Dec 2019 18:47:34.000,64.763,1.466,2158.629650
1 Dec 2019 18:47:35.000,64.685,1.405,2164.983497
1 Dec 2019 18:47:36.000,64.608,1.345,2171.341295
1 Dec 2019 18:47:37.000,64.531,1.284,2177.703003
1 Dec 2019 18:47:38.000,64.454,1.223,2184.068578
1 Dec 2019 18:47:39.000,64.378,1.163,2190.437977
1 Dec 2019 18:47:40.000,64.303,1.103,2196.811164
1 Dec 2019 18:47:41.000,64.228,1.042,2203.188098
1 Dec 2019 18:47:42.000,64.153,0.982,2209.568736
1 Dec 2019 18:47:43.000,64.079,0.923,2215.953041
1 Dec 2019 18:47:44.000,64.006,0.863,2222.340972
1 Dec 2019 18:47:45.000,63.932,0.803,2228.732492
1 Dec 2019 18:47:46.000,63.860,0.744,2235.127562
1 Dec 2019 18:47:47.000,63.787,0.685,2241.526140
1 Dec 2019 18:47:48.000,63.715,0.626,2247.928197
1 Dec 2019 18:47:49.000,63.644,0.567,2254.333691
1 Dec 2019 18:47:50.000,63.573,0.508,2260.742586
1 Dec 2019 18:47:51.000,63.502,0.449,2267.154845
1 Dec 2019 18:47:52.000,63.432,0.391,2273.570432
1 Dec 2019 18:47:53.000,63.362,0.332,2279.989313
1 Dec 2019 18:47:54.000,63.293,0.274,2286.411447
1 Dec 2019 18:47:55.000,63.224,0.216,2292.836808
1 Dec 2019 18:47:56.000,63.155,0.158,2299.265356
1 Dec 2019 18:47:57.000,63.087,0.100,2305.697059
1 Dec 2019 18:47:58.000,63.019,0.042,2312.131881
1 Dec 2019 18:47:59.000,62.952,-0.015,2318.569790
1 Dec 2019 18:47:59.700,62.905,-0.056,2323.076875
1 Dec 2019 20:14:09.870,249.162,-0.056,2311.927094
1 Dec 2019 20:14:10.000,249.169,-0.048,2311.057121
1 Dec 2019 20:14:11.000,249.217,0.013,2304.375817
1 Dec 2019 20:14:12.000,249.266,0.073,2297.695875
1 Dec 2019 20:14:13.000,249.315,0.133,2291.017324
1 Dec 2019 20:14:14.000,249.364,0.194,2284.340178
1 Dec 2019 20:14:15.000,249.414,0.255,2277.664459
1 Dec 2019 20:14:16.000,249.464,0.316,2270.990186
1 Dec 2019 20:14:17.000,249.514,0.377,2264.317376
1 Dec 2019 20:14:18.000,249.565,0.439,2257.646057
1 Dec 2019 20:14:19.000,249.616,0.500,2250.976247
1 Dec 2019 20:14:20.000,249.667,0.562,2244.307966
1 Dec 2019 20:14:21.000,249.718,0.624,2237.641232
1 Dec 2019 20:14:22.000,249.770,0.686,2230.976075
1 Dec 2019 20:14:23.000,249.822,0.748,2224.312511
1 Dec 2019 20:14:24.000,249.874,0.811,2217.650564
1 Dec 2019 20:14:25.000,249.926,0.873,2210.990255
1 Dec 2019 20:14:26.000,249.979,0.936,2204.331604
1 Dec 2019 20:14:27.000,250.033,0.999,2197.674640
1 Dec 2019 20:14:28.000,250.086,1.062,2191.019383
1 Dec 2019 20:14:29.000,250.140,1.126,2184.365856
1 Dec 2019 20:14:30.000,250.194,1.189,2177.714078
1 Dec 2019 20:14:31.000,250.248,1.253,2171.064082
1 Dec 2019 20:14:32.000,250.303,1.317,2164.415886
1 Dec 2019 20:14:33.000,250.358,1.381,2157.769517
1 Dec 2019 20:14:34.000,250.414,1.445,2151.124997
1 Dec 2019 20:14:35.000,250.470,1.510,2144.482349
1 Dec 2019 20:14:36.000,250.526,1.575,2137.841604
1 Dec 2019 20:14:37.000,250.582,1.639,2131.202784
1 Dec 2019 20:14:38.000,250.639,1.705,2124.565916
1 Dec 2019 20:14:39.000,250.696,1.770,2117.931021
1 Dec 2019 20:14:40.000,250.754,1.835,2111.298133
1 Dec 2019 20:14:41.000,250.811,1.901,2104.667275
1 Dec 2019 20:14:42.000,250.870,1.967,2098.038473
1 Dec 2019 20:14:43.000,250.928,2.033,2091.411755
1 Dec 2019 20:14:44.000,250.987,2.100,2084.787145
1 Dec 2019 20:14:45.000,251.046,2.166,2078.164677
1 Dec 2019 20:14:46.000,251.106,2.233,2071.544376
1 Dec 2019 20:14:47.000,251.166,2.300,2064.926272
1 Dec 2019 20:14:48.000,251.226,2.367,2058.310391
1 Dec 2019 20:14:49.000,251.287,2.435,2051.696760
1 Dec 2019 20:14:50.000,251.348,2.502,2045.085416
1 Dec 2019 20:14:51.000,251.410,2.570,2038.476384
1 Dec 2019 20:14:52.000,251.472,2.638,2031.869696
1 Dec 2019 20:14:53.000,251.534,2.707,2025.265380
1 Dec 2019 20:14:54.000,251.597,2.775,2018.663465
1 Dec 2019 20:14:55.000,251.660,2.844,2012.063989
1 Dec 2019 20:14:56.000,251.724,2.913,2005.466980
1 Dec 2019 20:14:57.000,251.788,2.983,1998.872470
1 Dec 2019 20:14:58.000,251.852,3.052,1992.280491
1 Dec 2019 20:14:59.000,251.917,3.122,1985.691072
1 Dec 2019 20:15:00.000,251.982,3.192,1979.104255
1 Dec 2019 20:15:01.000,252.048,3.262,1972.520068
1 Dec 2019 20:15:02.000,252.114,3.333,1965.938545
1 Dec 2019 20:15:03.000,252.180,3.404,1959.359722
1 Dec 2019 20:15:04.000,252.247,3.475,1952.783629
1 Dec 2019 20:15:05.000,252.315,3.546,1946.210309
1 Dec 2019 20:15:06.000,252.383,3.618,1939.639794
1 Dec 2019 20:15:07.000,252.451,3.689,1933.072119
1 Dec 2019 20:15:08.000,252.520,3.761,1926.507322
1 Dec 2019 20:15:09.000,252.589,3.834,1919.945436
1 Dec 2019 20:15:10.000,252.659,3.906,1913.386505
1 Dec 2019 20:15:11.000,252.729,3.979,1906.830564
1 Dec 2019 20:15:12.000,252.800,4.052,1900.277651
1 Dec 2019 20:15:13.000,252.871,4.126,1893.727806
1 Dec 2019 20:15:14.000,252.943,4.200,1887.181067
1 Dec 2019 20:15:15.000,253.015,4.274,1880.637472
1 Dec 2019 20:15:16.000,253.087,4.348,1874.097066
1 Dec 2019 20:15:17.000,253.161,4.422,1867.559889
1 Dec 2019 20:15:18.000,253.234,4.497,1861.025981
1 Dec 2019 20:15:19.000,253.309,4.572,1854.495385
1 Dec 2019 20:15:20.000,253.383,4.648,1847.968139
1 Dec 2019 20:15:21.000,253.458,4.723,1841.444293
1 Dec 2019 20:15:22.000,253.534,4.799,1834.923889
1 Dec 2019 20:15:23.000,253.611,4.876,1828.406969
1 Dec 2019 20:15:24.000,253.688,4.952,1821.893579
1 Dec 2019 20:15:25.000,253.765,5.029,1815.383764
1 Dec 2019 20:15:26.000,253.843,5.106,1808.877567
1 Dec 2019 20:15:27.000,253.922,5.184,1802.375042
1 Dec 2019 20:15:28.000,254.001,5.262,1795.876231
1 Dec 2019 20:15:29.000,254.080,5.340,1789.381184
1 Dec 2019 20:15:30.000,254.161,5.419,1782.889948
1 Dec 2019 20:15:31.000,254.242,5.497,1776.402572
1 Dec 2019 20:15:32.000,254.323,5.576,1769.919104
1 Dec 2019 20:15:33.000,254.405,5.656,1763.439600
1 Dec 2019 20:15:34.000,254.488,5.736,1756.964109
1 Dec 2019 20:15:35.000,254.571,5.816,1750.492681
1 Dec 2019 20:15:36.000,254.655,5.896,1744.025370
1 Dec 2019 20:15:37.000,254.740,5.977,1737.562230
1 Dec 2019 20:15:38.000,254.825,6.058,1731.103309
1 Dec 2019 20:15:39.000,254.911,6.140,1724.648672
1 Dec 2019 20:15:40.000,254.997,6.222,1718.198368
1 Dec 2019 20:15:41.000,255.084,6.304,1711.752456
1 Dec 2019 20:15:42.000,255.172,6.386,1705.310991
1 Dec 2019 20:15:43.000,255.261,6.469,1698.874032
1 Dec 2019 20:15:44.000,255.350,6.553,1692.441637
1 Dec 2019 20:15:45.000,255.440,6.636,1686.013863
1 Dec 2019 20:15:46.000,255.530,6.720,1679.590777
1 Dec 2019 20:15:47.000,255.622,6.805,1673.172437
1 Dec 2019 20:15:48.000,255.714,6.889,1666.758904
1 Dec 2019 20:15:49.000,255.806,6.975,1660.350243
1 Dec 2019 20:15:50.000,255.900,7.060,1653.946515
1 Dec 2019 20:15:51.000,255.994,7.146,1647.547788
1 Dec 2019 20:15:52.000,256.089,7.232,1641.154121
1 Dec 2019 20:15:53.000,256.185,7.319,1634.765591
1 Dec 2019 20:15:54.000,256.281,7.406,1628.382259
1 Dec 2019 20:15:55.000,256.379,7.494,1622.004196
1 Dec 2019 20:15:56.000,256.477,7.582,1615.631471
1 Dec 2019 20:15:57.000,256.575,7.670,1609.264154
1 Dec 2019 20:15:58.000,256.675,7.759,1602.902316
1 Dec 2019 20:15:59.000,256.776,7.848,1596.546032
1 Dec 2019 20:16:00.000,256.877,7.938,1590.195370
1 Dec 2019 20:16:01.000,256.979,8.028,1583.850414
1 Dec 2019 20:16:02.000,257.082,8.118,1577.511234
1 Dec 2019 20:16:03.000,257.186,8.209,1571.177909
1 Dec 2019 20:16:04.000,257.291,8.300,1564.850517
1 Dec 2019 20:16:05.000,257.396,8.392,1558.529137
1 Dec 2019 20:16:06.000,257.503,8.484,1552.213849
1 Dec 2019 20:16:07.000,257.610,8.577,1545.904736
1 Dec 2019 20:16:08.000,257.718,8.670,1539.601881
1 Dec 2019 20:16:09.000,257.828,8.764,1533.305363
1 Dec 2019 20:16:10.000,257.938,8.858,1527.015276
1 Dec 2019 20:16:11.000,258.049,8.952,1520.731704
1 Dec 2019 20:16:12.000,258.161,9.047,1514.454734
1 Dec 2019 20:16:13.000,258.274,9.143,1508.184456
1 Dec 2019 20:16:14.000,258.388,9.239,1501.920960
1 Dec 2019 20:16:15.000,258.503,9.335,1495.664340
1 Dec 2019 20:16:16.000,258.619,9.432,1489.414688
1 Dec 2019 20:16:17.000,258.736,9.529,1483.172100
1 Dec 2019 20:16:18.000,258.854,9.627,1476.936672
1 Dec 2019 20:16:19.000,258.973,9.726,1470.708503
1 Dec 2019 20:16:20.000,259.094,9.825,1464.487689
1 Dec 2019 20:16:21.000,259.215,9.924,1458.274337
1 Dec 2019 20:16:22.000,259.337,10.024,1452.068547
1 Dec 2019 20:16:23.000,259.461,10.124,1445.870424
1 Dec 2019 20:16:24.000,259.585,10.225,1439.680073
1 Dec 2019 20:16:25.000,259.711,10.327,1433.497602
1 Dec 2019 20:16:26.000,259.838,10.429,1427.323121
1 Dec 2019 20:16:27.000,259.966,10.532,1421.156740
1 Dec 2019 20:16:28.000,260.095,10.635,1414.998572
1 Dec 2019 20:16:29.000,260.225,10.738,1408.848732
1 Dec 2019 20:16:30.000,260.357,10.843,1402.707337
1 Dec 2019 20:16:31.000,260.490,10.948,1396.574504
1 Dec 2019 20:16:32.000,260.624,11.053,1390.450353
1 Dec 2019 20:16:33.000,260.759,11.159,1384.335008
1 Dec 2019 20:16:34.000,260.896,11.265,1378.228591
1 Dec 2019 20:16:35.000,261.034,11.373,1372.131230
1 Dec 2019 20:16:36.000,261.173,11.480,1366.043051
1 Dec 2019 20:16:37.000,261.314,11.589,1359.964186
1 Dec 2019 20:16:38.000,261.455,11.697,1353.894766
1 Dec 2019 20:16:39.000,261.599,11.807,1347.834926
1 Dec 2019 20:16:40.000,261.743,11.917,1341.784799
1 Dec 2019 20:16:41.000,261.889,12.028,1335.744530
1 Dec 2019 20:16:42.000,262.037,12.139,1329.714258
1 Dec 2019 20:16:43.000,262.186,12.251,1323.694126
1 Dec 2019 20:16:44.000,262.336,12.363,1317.684278
1 Dec 2019 20:16:45.000,262.488,12.477,1311.684864
1 Dec 2019 20:16:46.000,262.641,12.590,1305.696034
1 Dec 2019 20:16:47.000,262.796,12.705,1299.717941
1 Dec 2019 20:16:48.000,262.953,12.820,1293.750740
1 Dec 2019 20:16:49.000,263.111,12.936,1287.794589
1 Dec 2019 20:16:50.000,263.270,13.052,1281.849650
1 Dec 2019 20:16:51.000,263.432,13.169,1275.916089
1 Dec 2019 20:16:52.000,263.594,13.287,1269.994064
1 Dec 2019 20:16:53.000,263.759,13.405,1264.083749
1 Dec 2019 20:16:54.000,263.925,13.524,1258.185314
1 Dec 2019 20:16:55.000,264.093,13.644,1252.298935
1 Dec 2019 20:16:56.000,264.263,13.765,1246.424788
1 Dec 2019 20:16:57.000,264.434,13.886,1240.563054
1 Dec 2019 20:16:58.000,264.607,14.008,1234.713917
1 Dec 2019 20:16:59.000,264.782,14.130,1228.877562
1 Dec 2019 20:17:00.000,264.959,14.253,1223.054178
1 Dec 2019 20:17:01.000,265.138,14.377,1217.243960
1 Dec 2019 20:17:02.000,265.318,14.502,1211.447102
1 Dec 2019 20:17:03.000,265.501,14.627,1205.663803
1 Dec 2019 20:17:04.000,265.685,14.753,1199.894267
1 Dec 2019 20:17:05.000,265.871,14.880,1194.138698
1 Dec 2019 20:17:06.000,266.060,15.008,1188.397306
1 Dec 2019 20:17:07.000,266.250,15.136,1182.670305
1 Dec 2019 20:17:08.000,266.443,15.265,1176.957910
1 Dec 2019 20:17:09.000,266.637,15.395,1171.260345
1 Dec 2019 20:17:10.000,266.834,15.525,1165.577827
1 Dec 2019 20:17:11.000,267.033,15.657,1159.910586
1 Dec 2019 20:17:12.000,267.234,15.789,1154.258854
1 Dec 2019 20:17:13.000,267.437,15.921,1148.622866
1 Dec 2019 20:17:14.000,267.642,16.055,1143.002861
1 Dec 2019 20:17:15.000,267.850,16.189,1137.399082
1 Dec 2019 20:17:16.000,268.060,16.324,1131.811777
1 Dec 2019 20:17:17.000,268.272,16.460,1126.241200
1 Dec 2019 20:17:18.000,268.487,16.597,1120.687599
1 Dec 2019 20:17:19.000,268.704,16.734,1115.151239
1 Dec 2019 20:17:20.000,268.924,16.872,1109.632383
1 Dec 2019 20:17:21.000,269.146,17.011,1104.131299
1 Dec 2019 20:17:22.000,269.371,17.151,1098.648261
1 Dec 2019 20:17:23.000,269.598,17.291,1093.183546
1 Dec 2019 20:17:24.000,269.828,17.432,1087.737440
1 Dec 2019 20:17:25.000,270.060,17.574,1082.310223
1 Dec 2019 20:17:26.000,270.295,17.717,1076.902189
1 Dec 2019 20:17:27.000,270.533,17.861,1071.513635
1 Dec 2019 20:17:28.000,270.774,18.005,1066.144863
1 Dec 2019 20:17:29.000,271.017,18.150,1060.796181
1 Dec 2019 20:17:30.000,271.263,18.296,1055.467895
1 Dec 2019 20:17:31.000,271.512,18.443,1050.160323
1 Dec 2019 20:17:32.000,271.765,18.590,1044.873788
1 Dec 2019 20:17:33.000,272.020,18.739,1039.608619
1 Dec 2019 20:17:34.000,272.278,18.888,1034.365142
1 Dec 2019 20:17:35.000,272.539,19.037,1029.143697
1 Dec 2019 20:17:36.000,272.803,19.188,1023.944628
1 Dec 2019 20:17:37.000,273.070,19.339,1018.768284
1 Dec 2019 20:17:38.000,273.341,19.491,1013.615015
1 Dec 2019 20:17:39.000,273.615,19.644,1008.485181
1 Dec 2019 20:17:40.000,273.892,19.797,1003.379148
1 Dec 2019 20:17:41.000,274.172,19.952,998.297291
1 Dec 2019 20:17:42.000,274.456,20.107,993.239979
1 Dec 2019 20:17:43.000,274.743,20.262,988.207598
1 Dec 2019 20:17:44.000,275.034,20.419,983.200539
1 Dec 2019 20:17:45.000,275.328,20.576,978.219190
1 Dec 2019 20:17:46.000,275.626,20.734,973.263954
1 Dec 2019 20:17:47.000,275.928,20.892,968.335241
1 Dec 2019 20:17:48.000,276.233,21.052,963.433456
1 Dec 2019 20:17:49.000,276.542,21.211,958.559021
1 Dec 2019 20:17:50.000,276.854,21.372,953.712365
1 Dec 2019 20:17:51.000,277.171,21.533,948.893910
1 Dec 2019 20:17:52.000,277.491,21.695,944.104102
1 Dec 2019 20:17:53.000,277.816,21.857,939.343375
1 Dec 2019 20:17:54.000,278.144,22.020,934.612184
1 Dec 2019 20:17:55.000,278.477,22.184,929.910988
1 Dec 2019 20:17:56.000,278.813,22.348,925.240241
1 Dec 2019 20:17:57.000,279.154,22.512,920.600419
1 Dec 2019 20:17:58.000,279.499,22.677,915.991990
1 Dec 2019 20:17:59.000,279.848,22.843,911.415443
1 Dec 2019 20:18:00.000,280.202,23.009,906.871257
1 Dec 2019 20:18:01.000,280.560,23.176,902.359933
1 Dec 2019 20:18:02.000,280.923,23.343,897.881964
1 Dec 2019 20:18:03.000,281.290,23.510,893.437864
1 Dec 2019 20:18:04.000,281.661,23.678,889.028138
1 Dec 2019 20:18:05.000,282.037,23.846,884.653311
1 Dec 2019 20:18:06.000,282.418,24.014,880.313903
1 Dec 2019 20:18:07.000,282.804,24.183,876.010449
1 Dec 2019 20:18:08.000,283.194,24.351,871.743481
1 Dec 2019 20:18:09.000,283.590,24.520,867.513549
1 Dec 2019 20:18:10.000,283.990,24.690,863.321196
1 Dec 2019 20:18:11.000,284.395,24.859,859.166976
1 Dec 2019 20:18:12.000,284.805,25.028,855.051453
1 Dec 2019 20:18:13.000,285.220,25.198,850.975188
1 Dec 2019 20:18:14.000,285.640,25.367,846.938758
1 Dec 2019 20:18:15.000,286.066,25.537,842.942736
1 Dec 2019 20:18:16.000,286.496,25.706,838.987701
1 Dec 2019 20:18:17.000,286.932,25.875,835.074244
1 Dec 2019 20:18:18.000,287.374,26.044,831.202955
1 Dec 2019 20:18:19.000,287.820,26.213,827.374429
1 Dec 2019 20:18:20.000,288.272,26.381,823.589263
1 Dec 2019 20:18:21.000,288.730,26.549,819.848068
1 Dec 2019 20:18:22.000,289.193,26.717,816.151448
1 Dec 2019 20:18:23.000,289.661,26.884,812.500018
1 Dec 2019 20:18:24.000,290.135,27.051,808.894387
1 Dec 2019 20:18:25.000,290.615,27.217,805.335183
1 Dec 2019 20:18:26.000,291.100,27.383,801.823023
1 Dec 2019 20:18:27.000,291.591,27.547,798.358532
1 Dec 2019 20:18:28.000,292.088,27.711,794.942336
1 Dec 2019 20:18:29.000,292.590,27.875,791.575064
1 Dec 2019 20:18:30.000,293.098,28.037,788.257343
1 Dec 2019 20:18:31.000,293.612,28.198,784.989812
1 Dec 2019 20:18:32.000,294.132,28.358,781.773099
1 Dec 2019 20:18:33.000,294.657,28.517,778.607837
1 Dec 2019 20:18:34.000,295.189,28.675,775.494659
1 Dec 2019 20:18:35.000,295.726,28.831,772.434199
1 Dec 2019 20:18:36.000,296.269,28.986,769.427087
1 Dec 2019 20:18:37.000,296.817,29.140,766.473956
1 Dec 2019 20:18:38.000,297.372,29.292,763.575434
1 Dec 2019 20:18:39.000,297.933,29.442,760.732147
1 Dec 2019 20:18:40.000,298.499,29.591,757.944721
1 Dec 2019 20:18:41.000,299.071,29.738,755.213776
1 Dec 2019 20:18:42.000,299.649,29.883,752.539929
1 Dec 2019 20:18:43.000,300.232,30.025,749.923795
1 Dec 2019 20:18:44.000,300.821,30.166,747.365984
1 Dec 2019 20:18:45.000,301.416,30.305,744.867093
1 Dec 2019 20:18:46.000,302.017,30.441,742.427723
1 Dec 2019 20:18:47.000,302.623,30.575,740.048465
1 Dec 2019 20:18:48.000,303.234,30.707,737.729901
1 Dec 2019 20:18:49.000,303.851,30.836,735.472612
1 Dec 2019 20:18:50.000,304.474,30.962,733.277159
1 Dec 2019 20:18:51.000,305.101,31.086,731.144103
1 Dec 2019 20:18:52.000,305.734,31.206,729.073995
1 Dec 2019 20:18:53.000,306.372,31.324,727.067377
1 Dec 2019 20:18:54.000,307.015,31.439,725.124771
1 Dec 2019 20:18:55.000,307.664,31.550,723.246698
1 Dec 2019 20:18:56.000,308.316,31.659,721.433666
1 Dec 2019 20:18:57.000,308.974,31.764,719.686162
1 Dec 2019 20:18:58.000,309.636,31.866,718.004672
1 Dec 2019 20:18:59.000,310.303,31.964,716.389657
1 Dec 2019 20:19:00.000,310.974,32.059,714.841573
1 Dec 2019 20:19:01.000,311.649,32.150,713.360852
1 Dec 2019 20:19:02.000,312.328,32.237,711.947921
1 Dec 2019 20:19:03.000,313.011,32.321,710.603179
1 Dec 2019 20:19:04.000,313.698,32.401,709.327021
1 Dec 2019 20:19:05.000,314.389,32.476,708.119813
1 Dec 2019 20:19:06.000,315.083,32.548,706.981914
1 Dec 2019 20:19:07.000,315.780,32.616,705.913656
1 Dec 2019 20:19:08.000,316.480,32.679,704.915356
1 Dec 2019 20:19:09.000,317.183,32.738,703.987316
1 Dec 2019 20:19:10.000,317.889,32.793,703.129811
1 Dec 2019 20:19:11.000,318.597,32.844,702.343099
1 Dec 2019 20:19:12.000,319.307,32.890,701.627421
1 Dec 2019 20:19:13.000,320.020,32.932,700.982994
1 Dec 2019 20:19:14.000,320.734,32.969,700.410014
1 Dec 2019 20:19:15.000,321.450,33.002,699.908655
1 Dec 2019 20:19:16.000,322.168,33.031,699.479074
1 Dec 2019 20:19:17.000,322.887,33.054,699.121402
1 Dec 2019 20:19:18.000,323.607,33.073,698.835748
1 Dec 2019 20:19:19.000,324.327,33.088,698.622201
1 Dec 2019 20:19:20.000,325.048,33.098,698.480825
1 Dec 2019 20:19:21.000,325.770,33.103,698.411666
1 Dec 2019 20:19:22.000,326.491,33.104,698.414742
1 Dec 2019 20:19:23.000,327.213,33.100,698.490053
1 Dec 2019 20:19:24.000,327.934,33.091,698.637574
1 Dec 2019 20:19:25.000,328.655,33.078,698.857259
1 Dec 2019 20:19:26.000,329.374,33.060,699.149038
1 Dec 2019 20:19:27.000,330.093,33.038,699.512821
1 Dec 2019 20:19:28.000,330.811,33.011,699.948493
1 Dec 2019 20:19:29.000,331.527,32.979,700.455920
1 Dec 2019 20:19:30.000,332.242,32.943,701.034946
1 Dec 2019 20:19:31.000,332.954,32.903,701.685389
1 Dec 2019 20:19:32.000,333.665,32.858,702.407050
1 Dec 2019 20:19:33.000,334.373,32.809,703.199710
1 Dec 2019 20:19:34.000,335.079,32.755,704.063127
1 Dec 2019 20:19:35.000,335.782,32.697,704.997038
1 Dec 2019 20:19:36.000,336.482,32.635,706.001162
1 Dec 2019 20:19:37.000,337.180,32.569,707.075199
1 Dec 2019 20:19:38.000,337.874,32.498,708.218826
1 Dec 2019 20:19:39.000,338.564,32.424,709.431707
1 Dec 2019 20:19:40.000,339.251,32.345,710.713486
1 Dec 2019 20:19:41.000,339.935,32.263,712.063786
1 Dec 2019 20:19:42.000,340.614,32.177,713.482219
1 Dec 2019 20:19:43.000,341.289,32.087,714.968373
1 Dec 2019 20:19:44.000,341.961,31.994,716.521827
1 Dec 2019 20:19:45.000,342.627,31.897,718.142141
1 Dec 2019 20:19:46.000,343.290,31.796,719.828861
1 Dec 2019 20:19:47.000,343.947,31.692,721.581517
1 Dec 2019 20:19:48.000,344.601,31.585,723.399630
1 Dec 2019 20:19:49.000,345.249,31.475,725.282703
1 Dec 2019 20:19:50.000,345.892,31.361,727.230228
1 Dec 2019 20:19:51.000,346.530,31.245,729.241687
1 Dec 2019 20:19:52.000,347.163,31.125,731.316549
1 Dec 2019 20:19:53.000,347.791,31.003,733.454272
1 Dec 2019 20:19:54.000,348.414,30.878,735.654305
1 Dec 2019 20:19:55.000,349.031,30.750,737.916089
1 Dec 2019 20:19:56.000,349.643,30.619,740.239052
1 Dec 2019 20:19:57.000,350.249,30.487,742.622618
1 Dec 2019 20:19:58.000,350.850,30.351,745.066202
1 Dec 2019 20:19:59.000,351.445,30.214,747.569211
1 Dec 2019 20:20:00.000,352.035,30.074,750.131048
1 Dec 2019 20:20:01.000,352.618,29.933,752.751107
1 Dec 2019 20:20:02.000,353.197,29.789,755.428778
1 Dec 2019 20:20:03.000,353.769,29.643,758.163449
1 Dec 2019 20:20:04.000,354.335,29.496,760.954501
1 Dec 2019 20:20:05.000,354.896,29.346,763.801311
1 Dec 2019 20:20:06.000,355.451,29.195,766.703254
1 Dec 2019 20:20:07.000,356.000,29.043,769.659703
1 Dec 2019 20:20:08.000,356.543,28.889,772.670027
1 Dec 2019 20:20:09.000,357.081,28.734,775.733596
1 Dec 2019 20:20:10.000,357.612,28.577,778.849777
1 Dec 2019 20:20:11.000,358.138,28.419,782.017936
1 Dec 2019 20:20:12.000,358.658,28.260,785.237440
1 Dec 2019 20:20:13.000,359.172,28.100,788.507656
1 Dec 2019 20:20:14.000,359.681,27.938,791.827950
1 Dec 2019 20:20:15.000,0.184,27.776,795.197692
1 Dec 2019 20:20:16.000,0.681,27.613,798.616250
1 Dec 2019 20:20:17.000,1.172,27.450,802.082996
1 Dec 2019 20:20:18.000,1.657,27.285,805.597302
1 Dec 2019 20:20:19.000,2.137,27.120,809.158545
1 Dec 2019 20:20:20.000,2.612,26.954,812.766102
1 Dec 2019 20:20:21.000,3.080,26.788,816.419355
1 Dec 2019 20:20:22.000,3.544,26.621,820.117688
1 Dec 2019 20:20:23.000,4.001,26.454,823.860489
1 Dec 2019 20:20:24.000,4.454,26.286,827.647150
1 Dec 2019 20:20:25.000,4.901,26.118,831.477066
1 Dec 2019 20:20:26.000,5.342,25.950,835.349638
1 Dec 2019 20:20:27.000,5.778,25.782,839.264269
1 Dec 2019 20:20:28.000,6.209,25.614,843.220369
1 Dec 2019 20:20:29.000,6.635,25.445,847.217352
1 Dec 2019 20:20:30.000,7.056,25.276,851.254637
1 Dec 2019 20:20:31.000,7.471,25.108,855.331646
1 Dec 2019 20:20:32.000,7.882,24.939,859.447810
1 Dec 2019 20:20:33.000,8.287,24.771,863.602564
1 Dec 2019 20:20:34.000,8.688,24.602,867.795347
1 Dec 2019 20:20:35.000,9.083,24.434,872.025606
1 Dec 2019 20:20:36.000,9.474,24.266,876.292793
1 Dec 2019 20:20:37.000,9.860,24.098,880.596363
1 Dec 2019 20:20:38.000,10.241,23.931,884.935783
1 Dec 2019 20:20:39.000,10.618,23.763,889.310520
1 Dec 2019 20:20:40.000,10.990,23.597,893.720051
1 Dec 2019 20:20:41.000,11.357,23.430,898.163857
1 Dec 2019 20:20:42.000,11.720,23.264,902.641427
1 Dec 2019 20:20:43.000,12.078,23.098,907.152254
1 Dec 2019 20:20:44.000,12.432,22.933,911.695839
1 Dec 2019 20:20:45.000,12.782,22.768,916.271689
1 Dec 2019 20:20:46.000,13.127,22.603,920.879318
1 Dec 2019 20:20:47.000,13.468,22.439,925.518243
1 Dec 2019 20:20:48.000,13.805,22.276,930.187993
1 Dec 2019 20:20:49.000,14.138,22.113,934.888096
1 Dec 2019 20:20:50.000,14.467,21.951,939.618094
1 Dec 2019 20:20:51.000,14.792,21.789,944.377530
1 Dec 2019 20:20:52.000,15.112,21.628,949.165956
1 Dec 2019 20:20:53.000,15.429,21.468,953.982929
1 Dec 2019 20:20:54.000,15.742,21.308,958.828011
1 Dec 2019 20:20:55.000,16.052,21.148,963.700774
1 Dec 2019 20:20:56.000,16.357,20.990,968.600793
1 Dec 2019 20:20:57.000,16.659,20.832,973.527650
1 Dec 2019 20:20:58.000,16.957,20.675,978.480935
1 Dec 2019 20:20:59.000,17.252,20.518,983.460239
1 Dec 2019 20:21:00.000,17.543,20.362,988.465165
1 Dec 2019 20:21:01.000,17.831,20.207,993.495320
1 Dec 2019 20:21:02.000,18.115,20.053,998.550314
1 Dec 2019 20:21:03.000,18.396,19.899,1003.629766
1 Dec 2019 20:21:04.000,18.673,19.746,1008.733301
1 Dec 2019 20:21:05.000,18.947,19.594,1013.860549
1 Dec 2019 20:21:06.000,19.218,19.442,1019.011143
1 Dec 2019 20:21:07.000,19.486,19.292,1024.184727
1 Dec 2019 20:21:08.000,19.750,19.142,1029.380948
1 Dec 2019 20:21:09.000,20.012,18.992,1034.599455
1 Dec 2019 20:21:10.000,20.270,18.844,1039.839909
1 Dec 2019 20:21:11.000,20.526,18.696,1045.101972
1 Dec 2019 20:21:12.000,20.778,18.549,1050.385314
1 Dec 2019 20:21:13.000,21.028,18.403,1055.689606
1 Dec 2019 20:21:14.000,21.274,18.258,1061.014529
1 Dec 2019 20:21:15.000,21.518,18.113,1066.359767
1 Dec 2019 20:21:16.000,21.759,17.969,1071.725010
1 Dec 2019 20:21:17.000,21.997,17.826,1077.109952
1 Dec 2019 20:21:18.000,22.233,17.684,1082.514291
1 Dec 2019 20:21:19.000,22.466,17.542,1087.937732
1 Dec 2019 20:21:20.000,22.696,17.401,1093.379984
1 Dec 2019 20:21:21.000,22.924,17.261,1098.840760
1 Dec 2019 20:21:22.000,23.149,17.122,1104.319780
1 Dec 2019 20:21:23.000,23.371,16.984,1109.816765
1 Dec 2019 20:21:24.000,23.591,16.846,1115.331444
1 Dec 2019 20:21:25.000,23.809,16.709,1120.863547
1 Dec 2019 20:21:26.000,24.024,16.573,1126.412812
1 Dec 2019 20:21:27.000,24.237,16.437,1131.978979
1 Dec 2019 20:21:28.000,24.447,16.303,1137.561795
1 Dec 2019 20:21:29.000,24.655,16.169,1143.161005
1 Dec 2019 20:21:30.000,24.861,16.036,1148.776365
1 Dec 2019 20:21:31.000,25.065,15.903,1154.407632
1 Dec 2019 20:21:32.000,25.266,15.772,1160.054567
1 Dec 2019 20:21:33.000,25.465,15.641,1165.716935
1 Dec 2019 20:21:34.000,25.662,15.511,1171.394506
1 Dec 2019 20:21:35.000,25.857,15.381,1177.087052
1 Dec 2019 20:21:36.000,26.050,15.253,1182.794352
1 Dec 2019 20:21:37.000,26.241,15.125,1188.516183
1 Dec 2019 20:21:38.000,26.430,14.998,1194.252330
1 Dec 2019 20:21:39.000,26.617,14.871,1200.002581
1 Dec 2019 20:21:40.000,26.802,14.746,1205.766727
1 Dec 2019 20:21:41.000,26.984,14.621,1211.544563
1 Dec 2019 20:21:42.000,27.165,14.496,1217.335887
1 Dec 2019 20:21:43.000,27.345,14.373,1223.140499
1 Dec 2019 20:21:44.000,27.522,14.250,1228.958204
1 Dec 2019 20:21:45.000,27.697,14.128,1234.788810
1 Dec 2019 20:21:46.000,27.871,14.006,1240.632128
1 Dec 2019 20:21:47.000,28.043,13.885,1246.487972
1 Dec 2019 20:21:48.000,28.213,13.765,1252.356158
1 Dec 2019 20:21:49.000,28.381,13.646,1258.236508
1 Dec 2019 20:21:50.000,28.548,13.527,1264.128843
1 Dec 2019 20:21:51.000,28.713,13.409,1270.032990
1 Dec 2019 20:21:52.000,28.876,13.291,1275.948777
1 Dec 2019 20:21:53.000,29.038,13.175,1281.876036
1 Dec 2019 20:21:54.000,29.198,13.059,1287.814603
1 Dec 2019 20:21:55.000,29.356,12.943,1293.764311
1 Dec 2019 20:21:56.000,29.513,12.828,1299.725003
1 Dec 2019 20:21:57.000,29.669,12.714,1305.696519
1 Dec 2019 20:21:58.000,29.822,12.601,1311.678705
1 Dec 2019 20:21:59.000,29.975,12.488,1317.671408
1 Dec 2019 20:22:00.000,30.126,12.376,1323.674478
1 Dec 2019 20:22:01.000,30.275,12.264,1329.687767
1 Dec 2019 20:22:02.000,30.423,12.153,1335.711129
1 Dec 2019 20:22:03.000,30.569,12.042,1341.744422
1 Dec 2019 20:22:04.000,30.715,11.933,1347.787504
1 Dec 2019 20:22:05.000,30.858,11.823,1353.840238
1 Dec 2019 20:22:06.000,31.001,11.715,1359.902485
1 Dec 2019 20:22:07.000,31.142,11.607,1365.974114
1 Dec 2019 20:22:08.000,31.281,11.499,1372.054992
1 Dec 2019 20:22:09.000,31.420,11.393,1378.144989
1 Dec 2019 20:22:10.000,31.557,11.286,1384.243976
1 Dec 2019 20:22:11.000,31.693,11.181,1390.351829
1 Dec 2019 20:22:12.000,31.827,11.075,1396.468423
1 Dec 2019 20:22:13.000,31.961,10.971,1402.593636
1 Dec 2019 20:22:14.000,32.093,10.867,1408.727348
1 Dec 2019 20:22:15.000,32.224,10.763,1414.869442
1 Dec 2019 20:22:16.000,32.354,10.661,1421.019801
1 Dec 2019 20:22:17.000,32.482,10.558,1427.178311
1 Dec 2019 20:22:18.000,32.609,10.456,1433.344859
1 Dec 2019 20:22:19.000,32.736,10.355,1439.519334
1 Dec 2019 20:22:20.000,32.861,10.254,1445.701627
1 Dec 2019 20:22:21.000,32.985,10.154,1451.891631
1 Dec 2019 20:22:22.000,33.108,10.054,1458.089240
1 Dec 2019 20:22:23.000,33.229,9.955,1464.294349
1 Dec 2019 20:22:24.000,33.350,9.856,1470.506857
1 Dec 2019 20:22:25.000,33.470,9.758,1476.726661
1 Dec 2019 20:22:26.000,33.588,9.661,1482.953661
1 Dec 2019 20:22:27.000,33.706,9.563,1489.187764
1 Dec 2019 20:22:28.000,33.823,9.467,1495.428869
1 Dec 2019 20:22:29.000,33.938,9.371,1501.676883
1 Dec 2019 20:22:30.000,34.053,9.275,1507.931712
1 Dec 2019 20:22:31.000,34.166,9.180,1514.193263
1 Dec 2019 20:22:32.000,34.279,9.085,1520.461447
1 Dec 2019 20:22:33.000,34.391,8.990,1526.736173
1 Dec 2019 20:22:34.000,34.501,8.897,1533.017354
1 Dec 2019 20:22:35.000,34.611,8.803,1539.304903
1 Dec 2019 20:22:36.000,34.720,8.710,1545.598735
1 Dec 2019 20:22:37.000,34.828,8.618,1551.898763
1 Dec 2019 20:22:38.000,34.935,8.526,1558.204909
1 Dec 2019 20:22:39.000,35.041,8.434,1564.517089
1 Dec 2019 20:22:40.000,35.146,8.343,1570.835222
1 Dec 2019 20:22:41.000,35.251,8.253,1577.159230
1 Dec 2019 20:22:42.000,35.354,8.162,1583.489034
1 Dec 2019 20:22:43.000,35.457,8.072,1589.824557
1 Dec 2019 20:22:44.000,35.559,7.983,1596.165723
1 Dec 2019 20:22:45.000,35.660,7.894,1602.512458
1 Dec 2019 20:22:46.000,35.760,7.806,1608.864686
1 Dec 2019 20:22:47.000,35.860,7.717,1615.222339
1 Dec 2019 20:22:48.000,35.959,7.630,1621.585342
1 Dec 2019 20:22:49.000,36.056,7.542,1627.953626
1 Dec 2019 20:22:50.000,36.154,7.455,1634.327121
1 Dec 2019 20:22:51.000,36.250,7.369,1640.705758
1 Dec 2019 20:22:52.000,36.345,7.283,1647.089471
1 Dec 2019 20:22:53.000,36.440,7.197,1653.478192
1 Dec 2019 20:22:54.000,36.534,7.112,1659.871853
1 Dec 2019 20:22:55.000,36.628,7.027,1666.270395
1 Dec 2019 20:22:56.000,36.720,6.942,1672.673751
1 Dec 2019 20:22:57.000,36.812,6.858,1679.081858
1 Dec 2019 20:22:58.000,36.903,6.774,1685.494655
1 Dec 2019 20:22:59.000,36.994,6.690,1691.912081
1 Dec 2019 20:23:00.000,37.084,6.607,1698.334074
1 Dec 2019 20:23:01.000,37.173,6.525,1704.760576
1 Dec 2019 20:23:02.000,37.261,6.442,1711.191526
1 Dec 2019 20:23:03.000,37.349,6.360,1717.626871
1 Dec 2019 20:23:04.000,37.436,6.279,1724.066551
1 Dec 2019 20:23:05.000,37.523,6.197,1730.510510
1 Dec 2019 20:23:06.000,37.609,6.116,1736.958692
1 Dec 2019 20:23:07.000,37.694,6.036,1743.411044
1 Dec 2019 20:23:08.000,37.778,5.955,1749.867508
1 Dec 2019 20:23:09.000,37.862,5.875,1756.328036
1 Dec 2019 20:23:10.000,37.946,5.796,1762.792574
1 Dec 2019 20:23:11.000,38.029,5.716,1769.261069
1 Dec 2019 20:23:12.000,38.111,5.637,1775.733470
1 Dec 2019 20:23:13.000,38.192,5.559,1782.209727
1 Dec 2019 20:23:14.000,38.273,5.480,1788.689791
1 Dec 2019 20:23:15.000,38.354,5.402,1795.173609
1 Dec 2019 20:23:16.000,38.433,5.325,1801.661139
1 Dec 2019 20:23:17.000,38.513,5.247,1808.152329
1 Dec 2019 20:23:18.000,38.591,5.170,1814.647133
1 Dec 2019 20:23:19.000,38.669,5.094,1821.145505
1 Dec 2019 20:23:20.000,38.747,5.017,1827.647398
1 Dec 2019 20:23:21.000,38.824,4.941,1834.152764
1 Dec 2019 20:23:22.000,38.900,4.865,1840.661564
1 Dec 2019 20:23:23.000,38.976,4.790,1847.173752
1 Dec 2019 20:23:24.000,39.052,4.714,1853.689282
1 Dec 2019 20:23:25.000,39.127,4.639,1860.208114
1 Dec 2019 20:23:26.000,39.201,4.565,1866.730203
1 Dec 2019 20:23:27.000,39.275,4.490,1873.255507
1 Dec 2019 20:23:28.000,39.348,4.416,1879.783987
1 Dec 2019 20:23:29.000,39.421,4.342,1886.315601
1 Dec 2019 20:23:30.000,39.494,4.269,1892.850309
1 Dec 2019 20:23:31.000,39.565,4.196,1899.388071
1 Dec 2019 20:23:32.000,39.637,4.123,1905.928844
1 Dec 2019 20:23:33.000,39.708,4.050,1912.472596
1 Dec 2019 20:23:34.000,39.778,3.977,1919.019284
1 Dec 2019 20:23:35.000,39.848,3.905,1925.568872
1 Dec 2019 20:23:36.000,39.918,3.833,1932.121322
1 Dec 2019 20:23:37.000,39.987,3.762,1938.676598
1 Dec 2019 20:23:38.000,40.055,3.690,1945.234659
1 Dec 2019 20:23:39.000,40.124,3.619,1951.795475
1 Dec 2019 20:23:40.000,40.191,3.548,1958.359008
1 Dec 2019 20:23:41.000,40.259,3.478,1964.925222
1 Dec 2019 20:23:42.000,40.325,3.407,1971.494084
1 Dec 2019 20:23:43.000,40.392,3.337,1978.065556
1 Dec 2019 20:23:44.000,40.458,3.267,1984.639610
1 Dec 2019 20:23:45.000,40.523,3.197,1991.216208
1 Dec 2019 20:23:46.000,40.589,3.128,1997.795319
1 Dec 2019 20:23:47.000,40.653,3.059,2004.376910
1 Dec 2019 20:23:48.000,40.718,2.990,2010.960946
1 Dec 2019 20:23:49.000,40.782,2.921,2017.547399
1 Dec 2019 20:23:50.000,40.845,2.853,2024.136236
1 Dec 2019 20:23:51.000,40.908,2.785,2030.727426
1 Dec 2019 20:23:52.000,40.971,2.717,2037.320939
1 Dec 2019 20:23:53.000,41.033,2.649,2043.916740
1 Dec 2019 20:23:54.000,41.095,2.581,2050.514805
1 Dec 2019 20:23:55.000,41.157,2.514,2057.115102
1 Dec 2019 20:23:56.000,41.218,2.447,2063.717601
1 Dec 2019 20:23:57.000,41.279,2.380,2070.322274
1 Dec 2019 20:23:58.000,41.339,2.313,2076.929089
1 Dec 2019 20:23:59.000,41.399,2.247,2083.538022
1 Dec 2019 20:24:00.000,41.459,2.181,2090.149044
1 Dec 2019 20:24:01.000,41.518,2.115,2096.762127
1 Dec 2019 20:24:02.000,41.577,2.049,2103.377242
1 Dec 2019 20:24:03.000,41.636,1.983,2109.994362
1 Dec 2019 20:24:04.000,41.694,1.918,2116.613463
1 Dec 2019 20:24:05.000,41.752,1.853,2123.234517
1 Dec 2019 20:24:06.000,41.810,1.788,2129.857497
1 Dec 2019 20:24:07.000,41.867,1.723,2136.482379
1 Dec 2019 20:24:08.000,41.924,1.658,2143.109133
1 Dec 2019 20:24:09.000,41.980,1.594,2149.737739
1 Dec 2019 20:24:10.000,42.037,1.530,2156.368170
1 Dec 2019 20:24:11.000,42.093,1.466,2163.000401
1 Dec 2019 20:24:12.000,42.148,1.402,2169.634405
1 Dec 2019 20:24:13.000,42.204,1.338,2176.270163
1 Dec 2019 20:24:14.000,42.259,1.275,2182.907649
