vcc_sched/network/input/aer_vtgs_wj2xms_vcc-b_44431.csv

"Time (UTCG)","Azimuth (deg)","Elevation (deg)","Range (km)"
7 Jan 2020 03:07:21.921,150.277,-0.055,2307.533179
7 Jan 2020 03:07:22.000,150.264,-0.053,2307.287343
7 Jan 2020 03:07:23.000,150.101,-0.025,2304.165452
7 Jan 2020 03:07:24.000,149.937,0.003,2301.060518
7 Jan 2020 03:07:25.000,149.772,0.031,2297.972617
7 Jan 2020 03:07:26.000,149.607,0.059,2294.901821
7 Jan 2020 03:07:27.000,149.442,0.087,2291.848205
7 Jan 2020 03:07:28.000,149.276,0.114,2288.811838
7 Jan 2020 03:07:29.000,149.110,0.142,2285.792795
7 Jan 2020 03:07:30.000,148.943,0.169,2282.791149
7 Jan 2020 03:07:31.000,148.776,0.197,2279.806975
7 Jan 2020 03:07:32.000,148.609,0.224,2276.840343
7 Jan 2020 03:07:33.000,148.441,0.251,2273.891328
7 Jan 2020 03:07:34.000,148.272,0.278,2270.960000
7 Jan 2020 03:07:35.000,148.103,0.305,2268.046436
7 Jan 2020 03:07:36.000,147.934,0.331,2265.150706
7 Jan 2020 03:07:37.000,147.764,0.358,2262.272884
7 Jan 2020 03:07:38.000,147.594,0.384,2259.413042
7 Jan 2020 03:07:39.000,147.424,0.411,2256.571253
7 Jan 2020 03:07:40.000,147.252,0.437,2253.747588
7 Jan 2020 03:07:41.000,147.081,0.463,2250.942121
7 Jan 2020 03:07:42.000,146.909,0.489,2248.154923
7 Jan 2020 03:07:43.000,146.737,0.514,2245.386067
7 Jan 2020 03:07:44.000,146.564,0.540,2242.635624
7 Jan 2020 03:07:45.000,146.391,0.565,2239.903666
7 Jan 2020 03:07:46.000,146.217,0.591,2237.190265
7 Jan 2020 03:07:47.000,146.043,0.616,2234.495493
7 Jan 2020 03:07:48.000,145.869,0.641,2231.819421
7 Jan 2020 03:07:49.000,145.694,0.666,2229.162118
7 Jan 2020 03:07:50.000,145.518,0.691,2226.523660
7 Jan 2020 03:07:51.000,145.343,0.715,2223.904115
7 Jan 2020 03:07:52.000,145.166,0.740,2221.303554
7 Jan 2020 03:07:53.000,144.990,0.764,2218.722048
7 Jan 2020 03:07:54.000,144.813,0.788,2216.159667
7 Jan 2020 03:07:55.000,144.635,0.812,2213.616481
7 Jan 2020 03:07:56.000,144.458,0.836,2211.092560
7 Jan 2020 03:07:57.000,144.279,0.860,2208.587973
7 Jan 2020 03:07:58.000,144.101,0.883,2206.102792
7 Jan 2020 03:07:59.000,143.922,0.907,2203.637085
7 Jan 2020 03:08:00.000,143.742,0.930,2201.190922
7 Jan 2020 03:08:01.000,143.562,0.953,2198.764370
7 Jan 2020 03:08:02.000,143.382,0.976,2196.357497
7 Jan 2020 03:08:03.000,143.201,0.999,2193.970375
7 Jan 2020 03:08:04.000,143.020,1.022,2191.603070
7 Jan 2020 03:08:05.000,142.839,1.044,2189.255650
7 Jan 2020 03:08:06.000,142.657,1.066,2186.928183
7 Jan 2020 03:08:07.000,142.475,1.088,2184.620733
7 Jan 2020 03:08:08.000,142.292,1.110,2182.333373
7 Jan 2020 03:08:09.000,142.109,1.132,2180.066166
7 Jan 2020 03:08:10.000,141.926,1.154,2177.819178
7 Jan 2020 03:08:11.000,141.742,1.175,2175.592475
7 Jan 2020 03:08:12.000,141.558,1.197,2173.386125
7 Jan 2020 03:08:13.000,141.373,1.218,2171.200193
7 Jan 2020 03:08:14.000,141.188,1.239,2169.034743
7 Jan 2020 03:08:15.000,141.003,1.259,2166.889837
7 Jan 2020 03:08:16.000,140.817,1.280,2164.765545
7 Jan 2020 03:08:17.000,140.631,1.300,2162.661928
7 Jan 2020 03:08:18.000,140.445,1.321,2160.579048
7 Jan 2020 03:08:19.000,140.258,1.341,2158.516972
7 Jan 2020 03:08:20.000,140.071,1.361,2156.475762
7 Jan 2020 03:08:21.000,139.883,1.380,2154.455479
7 Jan 2020 03:08:22.000,139.695,1.400,2152.456183
7 Jan 2020 03:08:23.000,139.507,1.419,2150.477940
7 Jan 2020 03:08:24.000,139.319,1.438,2148.520811
7 Jan 2020 03:08:25.000,139.130,1.457,2146.584852
7 Jan 2020 03:08:26.000,138.941,1.476,2144.670129
7 Jan 2020 03:08:27.000,138.751,1.495,2142.776698
7 Jan 2020 03:08:28.000,138.561,1.513,2140.904622
7 Jan 2020 03:08:29.000,138.371,1.531,2139.053958
7 Jan 2020 03:08:30.000,138.180,1.549,2137.224762
7 Jan 2020 03:08:31.000,137.989,1.567,2135.417098
7 Jan 2020 03:08:32.000,137.798,1.585,2133.631018
7 Jan 2020 03:08:33.000,137.606,1.602,2131.866584
7 Jan 2020 03:08:34.000,137.414,1.620,2130.123850
7 Jan 2020 03:08:35.000,137.222,1.637,2128.402870
7 Jan 2020 03:08:36.000,137.030,1.653,2126.703704
7 Jan 2020 03:08:37.000,136.837,1.670,2125.026402
7 Jan 2020 03:08:38.000,136.644,1.687,2123.371025
7 Jan 2020 03:08:39.000,136.450,1.703,2121.737621
7 Jan 2020 03:08:40.000,136.256,1.719,2120.126248
7 Jan 2020 03:08:41.000,136.062,1.735,2118.536958
7 Jan 2020 03:08:42.000,135.868,1.750,2116.969799
7 Jan 2020 03:08:43.000,135.673,1.766,2115.424829
7 Jan 2020 03:08:44.000,135.478,1.781,2113.902093
7 Jan 2020 03:08:45.000,135.283,1.796,2112.401648
7 Jan 2020 03:08:46.000,135.088,1.811,2110.923539
7 Jan 2020 03:08:47.000,134.892,1.825,2109.467820
7 Jan 2020 03:08:48.000,134.696,1.840,2108.034534
7 Jan 2020 03:08:49.000,134.499,1.854,2106.623736
7 Jan 2020 03:08:50.000,134.303,1.868,2105.235467
7 Jan 2020 03:08:51.000,134.106,1.882,2103.869777
7 Jan 2020 03:08:52.000,133.909,1.895,2102.526716
7 Jan 2020 03:08:53.000,133.711,1.909,2101.206323
7 Jan 2020 03:08:54.000,133.514,1.922,2099.908650
7 Jan 2020 03:08:55.000,133.316,1.935,2098.633734
7 Jan 2020 03:08:56.000,133.118,1.947,2097.381625
7 Jan 2020 03:08:57.000,132.919,1.960,2096.152362
7 Jan 2020 03:08:58.000,132.721,1.972,2094.945988
7 Jan 2020 03:08:59.000,132.522,1.984,2093.762549
7 Jan 2020 03:09:00.000,132.323,1.996,2092.602080
7 Jan 2020 03:09:01.000,132.124,2.007,2091.464627
7 Jan 2020 03:09:02.000,131.924,2.019,2090.350225
7 Jan 2020 03:09:03.000,131.724,2.030,2089.258913
7 Jan 2020 03:09:04.000,131.524,2.041,2088.190735
7 Jan 2020 03:09:05.000,131.324,2.052,2087.145721
7 Jan 2020 03:09:06.000,131.124,2.062,2086.123912
7 Jan 2020 03:09:07.000,130.923,2.072,2085.125346
7 Jan 2020 03:09:08.000,130.723,2.082,2084.150053
7 Jan 2020 03:09:09.000,130.522,2.092,2083.198070
7 Jan 2020 03:09:10.000,130.321,2.102,2082.269434
7 Jan 2020 03:09:11.000,130.119,2.111,2081.364172
7 Jan 2020 03:09:12.000,129.918,2.120,2080.482320
7 Jan 2020 03:09:13.000,129.716,2.129,2079.623912
7 Jan 2020 03:09:14.000,129.514,2.138,2078.788973
7 Jan 2020 03:09:15.000,129.312,2.146,2077.977536
7 Jan 2020 03:09:16.000,129.110,2.154,2077.189630
7 Jan 2020 03:09:17.000,128.908,2.162,2076.425286
7 Jan 2020 03:09:18.000,128.706,2.170,2075.684527
7 Jan 2020 03:09:19.000,128.503,2.177,2074.967382
7 Jan 2020 03:09:20.000,128.300,2.184,2074.273877
7 Jan 2020 03:09:21.000,128.097,2.191,2073.604040
7 Jan 2020 03:09:22.000,127.894,2.198,2072.957890
7 Jan 2020 03:09:23.000,127.691,2.205,2072.335454
7 Jan 2020 03:09:24.000,127.488,2.211,2071.736755
7 Jan 2020 03:09:25.000,127.285,2.217,2071.161816
7 Jan 2020 03:09:26.000,127.081,2.223,2070.610655
7 Jan 2020 03:09:27.000,126.878,2.229,2070.083293
7 Jan 2020 03:09:28.000,126.674,2.234,2069.579751
7 Jan 2020 03:09:29.000,126.470,2.239,2069.100047
7 Jan 2020 03:09:30.000,126.266,2.244,2068.644199
7 Jan 2020 03:09:31.000,126.062,2.248,2068.212228
7 Jan 2020 03:09:32.000,125.858,2.253,2067.804142
7 Jan 2020 03:09:33.000,125.654,2.257,2067.419962
7 Jan 2020 03:09:34.000,125.450,2.261,2067.059700
7 Jan 2020 03:09:35.000,125.246,2.265,2066.723372
7 Jan 2020 03:09:36.000,125.041,2.268,2066.410989
7 Jan 2020 03:09:37.000,124.837,2.271,2066.122564
7 Jan 2020 03:09:38.000,124.632,2.274,2065.858107
7 Jan 2020 03:09:39.000,124.428,2.277,2065.617629
7 Jan 2020 03:09:40.000,124.223,2.279,2065.401143
7 Jan 2020 03:09:41.000,124.019,2.281,2065.208651
7 Jan 2020 03:09:42.000,123.814,2.283,2065.040163
7 Jan 2020 03:09:43.000,123.609,2.285,2064.895686
7 Jan 2020 03:09:44.000,123.405,2.287,2064.775226
7 Jan 2020 03:09:45.000,123.200,2.288,2064.678789
7 Jan 2020 03:09:46.000,122.995,2.289,2064.606378
7 Jan 2020 03:09:47.000,122.791,2.290,2064.557997
7 Jan 2020 03:09:48.000,122.586,2.290,2064.533648
7 Jan 2020 03:09:49.000,122.381,2.290,2064.533332
7 Jan 2020 03:09:50.000,122.176,2.291,2064.557052
7 Jan 2020 03:09:51.000,121.972,2.290,2064.604805
7 Jan 2020 03:09:52.000,121.767,2.290,2064.676592
7 Jan 2020 03:09:53.000,121.562,2.289,2064.772411
7 Jan 2020 03:09:54.000,121.357,2.288,2064.892258
7 Jan 2020 03:09:55.000,121.153,2.287,2065.036130
7 Jan 2020 03:09:56.000,120.948,2.286,2065.204023
7 Jan 2020 03:09:57.000,120.743,2.284,2065.395931
7 Jan 2020 03:09:58.000,120.539,2.282,2065.611848
7 Jan 2020 03:09:59.000,120.334,2.280,2065.851764
7 Jan 2020 03:10:00.000,120.130,2.277,2066.115677
7 Jan 2020 03:10:01.000,119.925,2.275,2066.403575
7 Jan 2020 03:10:02.000,119.721,2.272,2066.715448
7 Jan 2020 03:10:03.000,119.517,2.269,2067.051287
7 Jan 2020 03:10:04.000,119.313,2.265,2067.411079
7 Jan 2020 03:10:05.000,119.108,2.262,2067.794812
7 Jan 2020 03:10:06.000,118.904,2.258,2068.202474
7 Jan 2020 03:10:07.000,118.700,2.254,2068.634050
7 Jan 2020 03:10:08.000,118.497,2.250,2069.089522
7 Jan 2020 03:10:09.000,118.293,2.245,2069.568881
7 Jan 2020 03:10:10.000,118.089,2.240,2070.072108
7 Jan 2020 03:10:11.000,117.885,2.235,2070.599185
7 Jan 2020 03:10:12.000,117.682,2.230,2071.150094
7 Jan 2020 03:10:13.000,117.479,2.224,2071.724815
7 Jan 2020 03:10:14.000,117.275,2.219,2072.323327
7 Jan 2020 03:10:15.000,117.072,2.213,2072.945614
7 Jan 2020 03:10:16.000,116.869,2.207,2073.591653
7 Jan 2020 03:10:17.000,116.666,2.200,2074.261420
7 Jan 2020 03:10:18.000,116.464,2.193,2074.954890
7 Jan 2020 03:10:19.000,116.261,2.186,2075.672045
7 Jan 2020 03:10:20.000,116.059,2.179,2076.412856
7 Jan 2020 03:10:21.000,115.856,2.172,2077.177300
7 Jan 2020 03:10:22.000,115.654,2.164,2077.965345
7 Jan 2020 03:10:23.000,115.452,2.156,2078.776972
7 Jan 2020 03:10:24.000,115.250,2.148,2079.612149
7 Jan 2020 03:10:25.000,115.049,2.140,2080.470847
7 Jan 2020 03:10:26.000,114.847,2.131,2081.353035
7 Jan 2020 03:10:27.000,114.646,2.123,2082.258687
7 Jan 2020 03:10:28.000,114.445,2.113,2083.187771
7 Jan 2020 03:10:29.000,114.244,2.104,2084.140250
7 Jan 2020 03:10:30.000,114.043,2.095,2085.116099
7 Jan 2020 03:10:31.000,113.843,2.085,2086.115281
7 Jan 2020 03:10:32.000,113.642,2.075,2087.137759
7 Jan 2020 03:10:33.000,113.442,2.065,2088.183505
7 Jan 2020 03:10:34.000,113.242,2.055,2089.252480
7 Jan 2020 03:10:35.000,113.042,2.044,2090.344644
7 Jan 2020 03:10:36.000,112.843,2.033,2091.459967
7 Jan 2020 03:10:37.000,112.644,2.022,2092.598409
7 Jan 2020 03:10:38.000,112.444,2.011,2093.759926
7 Jan 2020 03:10:39.000,112.246,1.999,2094.944488
7 Jan 2020 03:10:40.000,112.047,1.987,2096.152047
7 Jan 2020 03:10:41.000,111.849,1.975,2097.382569
7 Jan 2020 03:10:42.000,111.651,1.963,2098.636011
7 Jan 2020 03:10:43.000,111.453,1.951,2099.912326
7 Jan 2020 03:10:44.000,111.255,1.938,2101.211479
7 Jan 2020 03:10:45.000,111.058,1.925,2102.533420
7 Jan 2020 03:10:46.000,110.860,1.912,2103.878112
7 Jan 2020 03:10:47.000,110.664,1.899,2105.245504
7 Jan 2020 03:10:48.000,110.467,1.886,2106.635556
7 Jan 2020 03:10:49.000,110.271,1.872,2108.048221
7 Jan 2020 03:10:50.000,110.075,1.858,2109.483447
7 Jan 2020 03:10:51.000,109.879,1.844,2110.941196
7 Jan 2020 03:10:52.000,109.683,1.830,2112.421411
7 Jan 2020 03:10:53.000,109.488,1.815,2113.924053
7 Jan 2020 03:10:54.000,109.293,1.800,2115.449064
7 Jan 2020 03:10:55.000,109.098,1.785,2116.996403
7 Jan 2020 03:10:56.000,108.904,1.770,2118.566012
7 Jan 2020 03:10:57.000,108.710,1.755,2120.157847
7 Jan 2020 03:10:58.000,108.516,1.739,2121.771851
7 Jan 2020 03:10:59.000,108.323,1.723,2123.407975
7 Jan 2020 03:11:00.000,108.129,1.707,2125.066170
7 Jan 2020 03:11:01.000,107.937,1.691,2126.746376
7 Jan 2020 03:11:02.000,107.744,1.675,2128.448546
7 Jan 2020 03:11:03.000,107.552,1.658,2130.172620
7 Jan 2020 03:11:04.000,107.360,1.642,2131.918550
7 Jan 2020 03:11:05.000,107.168,1.625,2133.686274
7 Jan 2020 03:11:06.000,106.977,1.607,2135.475740
7 Jan 2020 03:11:07.000,106.786,1.590,2137.286895
7 Jan 2020 03:11:08.000,106.596,1.572,2139.119675
7 Jan 2020 03:11:09.000,106.405,1.555,2140.974031
7 Jan 2020 03:11:10.000,106.215,1.537,2142.849898
7 Jan 2020 03:11:11.000,106.026,1.519,2144.747220
7 Jan 2020 03:11:12.000,105.837,1.500,2146.665945
7 Jan 2020 03:11:13.000,105.648,1.482,2148.606004
7 Jan 2020 03:11:14.000,105.459,1.463,2150.567343
7 Jan 2020 03:11:15.000,105.271,1.444,2152.549905
7 Jan 2020 03:11:16.000,105.083,1.425,2154.553622
7 Jan 2020 03:11:17.000,104.896,1.406,2156.578438
7 Jan 2020 03:11:18.000,104.709,1.386,2158.624295
7 Jan 2020 03:11:19.000,104.522,1.367,2160.691123
7 Jan 2020 03:11:20.000,104.335,1.347,2162.778865
7 Jan 2020 03:11:21.000,104.149,1.327,2164.887462
7 Jan 2020 03:11:22.000,103.964,1.307,2167.016844
7 Jan 2020 03:11:23.000,103.778,1.286,2169.166952
7 Jan 2020 03:11:24.000,103.594,1.266,2171.337724
7 Jan 2020 03:11:25.000,103.409,1.245,2173.529091
7 Jan 2020 03:11:26.000,103.225,1.224,2175.740992
7 Jan 2020 03:11:27.000,103.041,1.203,2177.973362
7 Jan 2020 03:11:28.000,102.858,1.182,2180.226140
7 Jan 2020 03:11:29.000,102.675,1.161,2182.499253
7 Jan 2020 03:11:30.000,102.492,1.139,2184.792639
7 Jan 2020 03:11:31.000,102.310,1.117,2187.106232
7 Jan 2020 03:11:32.000,102.128,1.095,2189.439971
7 Jan 2020 03:11:33.000,101.947,1.073,2191.793780
7 Jan 2020 03:11:34.000,101.766,1.051,2194.167597
7 Jan 2020 03:11:35.000,101.585,1.029,2196.561355
7 Jan 2020 03:11:36.000,101.405,1.006,2198.974987
7 Jan 2020 03:11:37.000,101.225,0.983,2201.408427
7 Jan 2020 03:11:38.000,101.046,0.961,2203.861602
7 Jan 2020 03:11:39.000,100.867,0.938,2206.334446
7 Jan 2020 03:11:40.000,100.688,0.914,2208.826892
7 Jan 2020 03:11:41.000,100.510,0.891,2211.338870
7 Jan 2020 03:11:42.000,100.332,0.868,2213.870312
7 Jan 2020 03:11:43.000,100.155,0.844,2216.421152
7 Jan 2020 03:11:44.000,99.978,0.820,2218.991313
7 Jan 2020 03:11:45.000,99.802,0.796,2221.580730
7 Jan 2020 03:11:46.000,99.626,0.772,2224.189333
7 Jan 2020 03:11:47.000,99.450,0.748,2226.817052
7 Jan 2020 03:11:48.000,99.275,0.723,2229.463817
7 Jan 2020 03:11:49.000,99.100,0.699,2232.129557
7 Jan 2020 03:11:50.000,98.925,0.674,2234.814201
7 Jan 2020 03:11:51.000,98.752,0.649,2237.517684
7 Jan 2020 03:11:52.000,98.578,0.624,2240.239927
7 Jan 2020 03:11:53.000,98.405,0.599,2242.980862
7 Jan 2020 03:11:54.000,98.232,0.574,2245.740418
7 Jan 2020 03:11:55.000,98.060,0.548,2248.518524
7 Jan 2020 03:11:56.000,97.888,0.523,2251.315109
7 Jan 2020 03:11:57.000,97.717,0.497,2254.130100
7 Jan 2020 03:11:58.000,97.546,0.471,2256.963427
7 Jan 2020 03:11:59.000,97.375,0.445,2259.815018
7 Jan 2020 03:12:00.000,97.205,0.419,2262.684800
7 Jan 2020 03:12:01.000,97.036,0.393,2265.572702
7 Jan 2020 03:12:02.000,96.867,0.367,2268.478652
7 Jan 2020 03:12:03.000,96.698,0.340,2271.402577
7 Jan 2020 03:12:04.000,96.530,0.314,2274.344406
7 Jan 2020 03:12:05.000,96.362,0.287,2277.304065
7 Jan 2020 03:12:06.000,96.194,0.260,2280.281482
7 Jan 2020 03:12:07.000,96.027,0.233,2283.276586
7 Jan 2020 03:12:08.000,95.861,0.206,2286.289303
7 Jan 2020 03:12:09.000,95.695,0.179,2289.319561
7 Jan 2020 03:12:10.000,95.529,0.151,2292.367287
7 Jan 2020 03:12:11.000,95.364,0.124,2295.432409
7 Jan 2020 03:12:12.000,95.199,0.096,2298.514853
7 Jan 2020 03:12:13.000,95.035,0.069,2301.614548
7 Jan 2020 03:12:14.000,94.871,0.041,2304.731420
7 Jan 2020 03:12:15.000,94.708,0.013,2307.865397
7 Jan 2020 03:12:16.000,94.545,-0.015,2311.016405
7 Jan 2020 03:12:17.000,94.382,-0.043,2314.184373
7 Jan 2020 03:12:17.422,94.314,-0.055,2315.526286
7 Jan 2020 04:40:17.835,216.187,-0.055,2308.193517
7 Jan 2020 04:40:18.000,216.182,-0.045,2307.063628
7 Jan 2020 04:40:19.000,216.155,0.017,2300.209416
7 Jan 2020 04:40:20.000,216.127,0.078,2293.355741
7 Jan 2020 04:40:21.000,216.099,0.140,2286.502614
7 Jan 2020 04:40:22.000,216.071,0.203,2279.650047
7 Jan 2020 04:40:23.000,216.043,0.265,2272.798057
7 Jan 2020 04:40:24.000,216.015,0.328,2265.946655
7 Jan 2020 04:40:25.000,215.986,0.391,2259.095854
7 Jan 2020 04:40:26.000,215.958,0.454,2252.245668
7 Jan 2020 04:40:27.000,215.929,0.517,2245.396113
7 Jan 2020 04:40:28.000,215.900,0.580,2238.547202
7 Jan 2020 04:40:29.000,215.871,0.644,2231.698946
7 Jan 2020 04:40:30.000,215.841,0.708,2224.851365
7 Jan 2020 04:40:31.000,215.812,0.772,2218.004471
7 Jan 2020 04:40:32.000,215.782,0.836,2211.158278
7 Jan 2020 04:40:33.000,215.752,0.900,2204.312799
7 Jan 2020 04:40:34.000,215.721,0.965,2197.468053
7 Jan 2020 04:40:35.000,215.691,1.030,2190.624054
7 Jan 2020 04:40:36.000,215.660,1.095,2183.780814
7 Jan 2020 04:40:37.000,215.630,1.160,2176.938353
7 Jan 2020 04:40:38.000,215.598,1.225,2170.096685
7 Jan 2020 04:40:39.000,215.567,1.291,2163.255825
7 Jan 2020 04:40:40.000,215.536,1.357,2156.415787
7 Jan 2020 04:40:41.000,215.504,1.423,2149.576592
7 Jan 2020 04:40:42.000,215.472,1.489,2142.738254
7 Jan 2020 04:40:43.000,215.440,1.556,2135.900787
7 Jan 2020 04:40:44.000,215.408,1.623,2129.064212
7 Jan 2020 04:40:45.000,215.375,1.690,2122.228544
7 Jan 2020 04:40:46.000,215.343,1.757,2115.393799
7 Jan 2020 04:40:47.000,215.310,1.824,2108.559994
7 Jan 2020 04:40:48.000,215.276,1.892,2101.727149
7 Jan 2020 04:40:49.000,215.243,1.960,2094.895281
7 Jan 2020 04:40:50.000,215.209,2.028,2088.064407
7 Jan 2020 04:40:51.000,215.175,2.096,2081.234542
7 Jan 2020 04:40:52.000,215.141,2.165,2074.405710
7 Jan 2020 04:40:53.000,215.107,2.234,2067.577927
7 Jan 2020 04:40:54.000,215.072,2.303,2060.751209
7 Jan 2020 04:40:55.000,215.037,2.372,2053.925580
7 Jan 2020 04:40:56.000,215.002,2.442,2047.101056
7 Jan 2020 04:40:57.000,214.967,2.512,2040.277657
7 Jan 2020 04:40:58.000,214.931,2.582,2033.455401
7 Jan 2020 04:40:59.000,214.895,2.652,2026.634310
7 Jan 2020 04:41:00.000,214.859,2.723,2019.814404
7 Jan 2020 04:41:01.000,214.823,2.794,2012.995700
7 Jan 2020 04:41:02.000,214.786,2.865,2006.178223
7 Jan 2020 04:41:03.000,214.749,2.936,1999.361993
7 Jan 2020 04:41:04.000,214.712,3.008,1992.547029
7 Jan 2020 04:41:05.000,214.674,3.080,1985.733351
7 Jan 2020 04:41:06.000,214.637,3.152,1978.920985
7 Jan 2020 04:41:07.000,214.599,3.225,1972.109950
7 Jan 2020 04:41:08.000,214.560,3.297,1965.300269
7 Jan 2020 04:41:09.000,214.522,3.370,1958.491961
7 Jan 2020 04:41:10.000,214.483,3.444,1951.685055
7 Jan 2020 04:41:11.000,214.444,3.518,1944.879569
7 Jan 2020 04:41:12.000,214.404,3.591,1938.075527
7 Jan 2020 04:41:13.000,214.365,3.666,1931.272954
7 Jan 2020 04:41:14.000,214.325,3.740,1924.471873
7 Jan 2020 04:41:15.000,214.284,3.815,1917.672309
7 Jan 2020 04:41:16.000,214.243,3.890,1910.874283
7 Jan 2020 04:41:17.000,214.203,3.966,1904.077824
7 Jan 2020 04:41:18.000,214.161,4.041,1897.282955
7 Jan 2020 04:41:19.000,214.120,4.118,1890.489702
7 Jan 2020 04:41:20.000,214.078,4.194,1883.698088
7 Jan 2020 04:41:21.000,214.035,4.271,1876.908143
7 Jan 2020 04:41:22.000,213.993,4.348,1870.119892
7 Jan 2020 04:41:23.000,213.950,4.425,1863.333361
7 Jan 2020 04:41:24.000,213.907,4.503,1856.548576
7 Jan 2020 04:41:25.000,213.863,4.581,1849.765568
7 Jan 2020 04:41:26.000,213.819,4.659,1842.984362
7 Jan 2020 04:41:27.000,213.775,4.738,1836.204987
7 Jan 2020 04:41:28.000,213.730,4.817,1829.427470
7 Jan 2020 04:41:29.000,213.685,4.896,1822.651843
7 Jan 2020 04:41:30.000,213.640,4.976,1815.878133
7 Jan 2020 04:41:31.000,213.594,5.056,1809.106369
7 Jan 2020 04:41:32.000,213.548,5.137,1802.336585
7 Jan 2020 04:41:33.000,213.502,5.217,1795.568809
7 Jan 2020 04:41:34.000,213.455,5.299,1788.803071
7 Jan 2020 04:41:35.000,213.408,5.380,1782.039403
7 Jan 2020 04:41:36.000,213.360,5.462,1775.277838
7 Jan 2020 04:41:37.000,213.312,5.544,1768.518409
7 Jan 2020 04:41:38.000,213.264,5.627,1761.761146
7 Jan 2020 04:41:39.000,213.215,5.710,1755.006083
7 Jan 2020 04:41:40.000,213.166,5.794,1748.253255
7 Jan 2020 04:41:41.000,213.116,5.878,1741.502696
7 Jan 2020 04:41:42.000,213.066,5.962,1734.754440
7 Jan 2020 04:41:43.000,213.016,6.047,1728.008520
7 Jan 2020 04:41:44.000,212.965,6.132,1721.264977
7 Jan 2020 04:41:45.000,212.914,6.217,1714.523843
7 Jan 2020 04:41:46.000,212.862,6.303,1707.785156
7 Jan 2020 04:41:47.000,212.810,6.389,1701.048951
7 Jan 2020 04:41:48.000,212.757,6.476,1694.315270
7 Jan 2020 04:41:49.000,212.704,6.563,1687.584149
7 Jan 2020 04:41:50.000,212.651,6.651,1680.855627
7 Jan 2020 04:41:51.000,212.597,6.739,1674.129741
7 Jan 2020 04:41:52.000,212.542,6.828,1667.406536
7 Jan 2020 04:41:53.000,212.487,6.916,1660.686050
7 Jan 2020 04:41:54.000,212.432,7.006,1653.968325
7 Jan 2020 04:41:55.000,212.376,7.096,1647.253400
7 Jan 2020 04:41:56.000,212.319,7.186,1640.541322
7 Jan 2020 04:41:57.000,212.263,7.277,1633.832132
7 Jan 2020 04:41:58.000,212.205,7.368,1627.125874
7 Jan 2020 04:41:59.000,212.147,7.460,1620.422593
7 Jan 2020 04:42:00.000,212.089,7.552,1613.722331
7 Jan 2020 04:42:01.000,212.030,7.645,1607.025139
7 Jan 2020 04:42:02.000,211.970,7.738,1600.331062
7 Jan 2020 04:42:03.000,211.910,7.832,1593.640145
7 Jan 2020 04:42:04.000,211.850,7.926,1586.952437
7 Jan 2020 04:42:05.000,211.788,8.021,1580.267989
7 Jan 2020 04:42:06.000,211.727,8.117,1573.586849
7 Jan 2020 04:42:07.000,211.664,8.212,1566.909068
7 Jan 2020 04:42:08.000,211.601,8.309,1560.234694
7 Jan 2020 04:42:09.000,211.538,8.406,1553.563785
7 Jan 2020 04:42:10.000,211.474,8.503,1546.896390
7 Jan 2020 04:42:11.000,211.409,8.601,1540.232563
7 Jan 2020 04:42:12.000,211.344,8.700,1533.572359
7 Jan 2020 04:42:13.000,211.278,8.799,1526.915832
7 Jan 2020 04:42:14.000,211.212,8.899,1520.263042
7 Jan 2020 04:42:15.000,211.144,8.999,1513.614043
7 Jan 2020 04:42:16.000,211.077,9.100,1506.968895
7 Jan 2020 04:42:17.000,211.008,9.201,1500.327655
7 Jan 2020 04:42:18.000,210.939,9.303,1493.690386
7 Jan 2020 04:42:19.000,210.869,9.406,1487.057149
7 Jan 2020 04:42:20.000,210.799,9.509,1480.428004
7 Jan 2020 04:42:21.000,210.727,9.613,1473.803016
7 Jan 2020 04:42:22.000,210.656,9.718,1467.182247
7 Jan 2020 04:42:23.000,210.583,9.823,1460.565766
7 Jan 2020 04:42:24.000,210.510,9.929,1453.953637
7 Jan 2020 04:42:25.000,210.435,10.036,1447.345929
7 Jan 2020 04:42:26.000,210.361,10.143,1440.742711
7 Jan 2020 04:42:27.000,210.285,10.251,1434.144049
7 Jan 2020 04:42:28.000,210.209,10.359,1427.550020
7 Jan 2020 04:42:29.000,210.132,10.468,1420.960694
7 Jan 2020 04:42:30.000,210.054,10.578,1414.376145
7 Jan 2020 04:42:31.000,209.975,10.689,1407.796447
7 Jan 2020 04:42:32.000,209.895,10.800,1401.221675
7 Jan 2020 04:42:33.000,209.815,10.912,1394.651911
7 Jan 2020 04:42:34.000,209.734,11.025,1388.087231
7 Jan 2020 04:42:35.000,209.652,11.139,1381.527716
7 Jan 2020 04:42:36.000,209.569,11.253,1374.973449
7 Jan 2020 04:42:37.000,209.485,11.368,1368.424509
7 Jan 2020 04:42:38.000,209.400,11.484,1361.880987
7 Jan 2020 04:42:39.000,209.314,11.600,1355.342966
7 Jan 2020 04:42:40.000,209.228,11.718,1348.810535
7 Jan 2020 04:42:41.000,209.140,11.836,1342.283783
7 Jan 2020 04:42:42.000,209.052,11.955,1335.762801
7 Jan 2020 04:42:43.000,208.963,12.075,1329.247679
7 Jan 2020 04:42:44.000,208.872,12.195,1322.738518
7 Jan 2020 04:42:45.000,208.781,12.317,1316.235410
7 Jan 2020 04:42:46.000,208.688,12.439,1309.738453
7 Jan 2020 04:42:47.000,208.595,12.562,1303.247749
7 Jan 2020 04:42:48.000,208.500,12.686,1296.763398
7 Jan 2020 04:42:49.000,208.405,12.811,1290.285502
7 Jan 2020 04:42:50.000,208.308,12.937,1283.814170
7 Jan 2020 04:42:51.000,208.211,13.064,1277.349509
7 Jan 2020 04:42:52.000,208.112,13.191,1270.891628
7 Jan 2020 04:42:53.000,208.012,13.320,1264.440639
7 Jan 2020 04:42:54.000,207.911,13.450,1257.996655
7 Jan 2020 04:42:55.000,207.808,13.580,1251.559790
7 Jan 2020 04:42:56.000,207.705,13.712,1245.130168
7 Jan 2020 04:42:57.000,207.600,13.844,1238.707905
7 Jan 2020 04:42:58.000,207.494,13.977,1232.293126
7 Jan 2020 04:42:59.000,207.387,14.112,1225.885955
7 Jan 2020 04:43:00.000,207.278,14.247,1219.486521
7 Jan 2020 04:43:01.000,207.169,14.384,1213.094952
7 Jan 2020 04:43:02.000,207.057,14.521,1206.711381
7 Jan 2020 04:43:03.000,206.945,14.660,1200.335946
7 Jan 2020 04:43:04.000,206.831,14.799,1193.968784
7 Jan 2020 04:43:05.000,206.716,14.940,1187.610035
7 Jan 2020 04:43:06.000,206.599,15.082,1181.259843
7 Jan 2020 04:43:07.000,206.481,15.225,1174.918354
7 Jan 2020 04:43:08.000,206.362,15.369,1168.585718
7 Jan 2020 04:43:09.000,206.241,15.514,1162.262087
7 Jan 2020 04:43:10.000,206.118,15.660,1155.947617
7 Jan 2020 04:43:11.000,205.994,15.808,1149.642464
7 Jan 2020 04:43:12.000,205.868,15.957,1143.346794
7 Jan 2020 04:43:13.000,205.741,16.107,1137.060770
7 Jan 2020 04:43:14.000,205.612,16.258,1130.784560
7 Jan 2020 04:43:15.000,205.482,16.410,1124.518337
7 Jan 2020 04:43:16.000,205.349,16.564,1118.262277
7 Jan 2020 04:43:17.000,205.215,16.719,1112.016557
7 Jan 2020 04:43:18.000,205.079,16.875,1105.781362
7 Jan 2020 04:43:19.000,204.942,17.032,1099.556877
7 Jan 2020 04:43:20.000,204.802,17.191,1093.343293
7 Jan 2020 04:43:21.000,204.661,17.351,1087.140805
7 Jan 2020 04:43:22.000,204.518,17.513,1080.949610
7 Jan 2020 04:43:23.000,204.373,17.676,1074.769913
7 Jan 2020 04:43:24.000,204.226,17.840,1068.601920
7 Jan 2020 04:43:25.000,204.077,18.005,1062.445842
7 Jan 2020 04:43:26.000,203.926,18.172,1056.301895
7 Jan 2020 04:43:27.000,203.773,18.341,1050.170299
7 Jan 2020 04:43:28.000,203.617,18.511,1044.051280
7 Jan 2020 04:43:29.000,203.460,18.682,1037.945067
7 Jan 2020 04:43:30.000,203.300,18.855,1031.851895
7 Jan 2020 04:43:31.000,203.138,19.030,1025.772004
7 Jan 2020 04:43:32.000,202.974,19.205,1019.705638
7 Jan 2020 04:43:33.000,202.807,19.383,1013.653049
7 Jan 2020 04:43:34.000,202.638,19.562,1007.614491
7 Jan 2020 04:43:35.000,202.466,19.743,1001.590227
7 Jan 2020 04:43:36.000,202.292,19.925,995.580521
7 Jan 2020 04:43:37.000,202.116,20.109,989.585648
7 Jan 2020 04:43:38.000,201.937,20.294,983.605886
7 Jan 2020 04:43:39.000,201.755,20.481,977.641519
7 Jan 2020 04:43:40.000,201.571,20.670,971.692837
7 Jan 2020 04:43:41.000,201.383,20.861,965.760139
7 Jan 2020 04:43:42.000,201.193,21.053,959.843727
7 Jan 2020 04:43:43.000,201.000,21.247,953.943913
7 Jan 2020 04:43:44.000,200.804,21.443,948.061012
7 Jan 2020 04:43:45.000,200.605,21.640,942.195349
7 Jan 2020 04:43:46.000,200.403,21.839,936.347255
7 Jan 2020 04:43:47.000,200.198,22.041,930.517068
7 Jan 2020 04:43:48.000,199.990,22.244,924.705135
7 Jan 2020 04:43:49.000,199.778,22.448,918.911808
7 Jan 2020 04:43:50.000,199.563,22.655,913.137449
7 Jan 2020 04:43:51.000,199.345,22.864,907.382428
7 Jan 2020 04:43:52.000,199.123,23.074,901.647120
7 Jan 2020 04:43:53.000,198.897,23.286,895.931912
7 Jan 2020 04:43:54.000,198.668,23.501,890.237197
7 Jan 2020 04:43:55.000,198.435,23.717,884.563380
7 Jan 2020 04:43:56.000,198.198,23.935,878.910871
7 Jan 2020 04:43:57.000,197.958,24.156,873.280090
7 Jan 2020 04:43:58.000,197.713,24.378,867.671469
7 Jan 2020 04:43:59.000,197.464,24.602,862.085445
7 Jan 2020 04:44:00.000,197.211,24.828,856.522470
7 Jan 2020 04:44:01.000,196.954,25.057,850.983000
7 Jan 2020 04:44:02.000,196.693,25.287,845.467504
7 Jan 2020 04:44:03.000,196.427,25.520,839.976462
7 Jan 2020 04:44:04.000,196.156,25.754,834.510363
7 Jan 2020 04:44:05.000,195.881,25.991,829.069707
7 Jan 2020 04:44:06.000,195.601,26.230,823.655007
7 Jan 2020 04:44:07.000,195.316,26.470,818.266780
7 Jan 2020 04:44:08.000,195.026,26.713,812.905563
7 Jan 2020 04:44:09.000,194.730,26.959,807.571899
7 Jan 2020 04:44:10.000,194.430,27.206,802.266345
7 Jan 2020 04:44:11.000,194.124,27.455,796.989468
7 Jan 2020 04:44:12.000,193.813,27.707,791.741848
7 Jan 2020 04:44:13.000,193.496,27.960,786.524077
7 Jan 2020 04:44:14.000,193.173,28.216,781.336759
7 Jan 2020 04:44:15.000,192.844,28.474,776.180512
7 Jan 2020 04:44:16.000,192.510,28.734,771.055965
7 Jan 2020 04:44:17.000,192.169,28.996,765.963760
7 Jan 2020 04:44:18.000,191.821,29.260,760.904554
7 Jan 2020 04:44:19.000,191.467,29.527,755.879014
7 Jan 2020 04:44:20.000,191.107,29.795,750.887823
7 Jan 2020 04:44:21.000,190.740,30.066,745.931677
7 Jan 2020 04:44:22.000,190.365,30.338,741.011284
7 Jan 2020 04:44:23.000,189.984,30.613,736.127368
7 Jan 2020 04:44:24.000,189.595,30.889,731.280667
7 Jan 2020 04:44:25.000,189.199,31.168,726.471929
7 Jan 2020 04:44:26.000,188.795,31.448,721.701920
7 Jan 2020 04:44:27.000,188.383,31.731,716.971420
7 Jan 2020 04:44:28.000,187.963,32.015,712.281221
7 Jan 2020 04:44:29.000,187.535,32.301,707.632129
7 Jan 2020 04:44:30.000,187.099,32.588,703.024967
7 Jan 2020 04:44:31.000,186.654,32.878,698.460570
7 Jan 2020 04:44:32.000,186.200,33.169,693.939786
7 Jan 2020 04:44:33.000,185.736,33.461,689.463481
7 Jan 2020 04:44:34.000,185.264,33.755,685.032530
7 Jan 2020 04:44:35.000,184.782,34.051,680.647826
7 Jan 2020 04:44:36.000,184.291,34.348,676.310272
7 Jan 2020 04:44:37.000,183.790,34.646,672.020788
7 Jan 2020 04:44:38.000,183.278,34.945,667.780305
7 Jan 2020 04:44:39.000,182.756,35.245,663.589768
7 Jan 2020 04:44:40.000,182.224,35.546,659.450134
7 Jan 2020 04:44:41.000,181.681,35.848,655.362372
7 Jan 2020 04:44:42.000,181.127,36.151,651.327465
7 Jan 2020 04:44:43.000,180.561,36.454,647.346405
7 Jan 2020 04:44:44.000,179.984,36.758,643.420198
7 Jan 2020 04:44:45.000,179.396,37.062,639.549857
7 Jan 2020 04:44:46.000,178.795,37.366,635.736409
7 Jan 2020 04:44:47.000,178.182,37.670,631.980888
7 Jan 2020 04:44:48.000,177.557,37.974,628.284337
7 Jan 2020 04:44:49.000,176.919,38.277,624.647808
7 Jan 2020 04:44:50.000,176.268,38.580,621.072359
7 Jan 2020 04:44:51.000,175.605,38.882,617.559056
7 Jan 2020 04:44:52.000,174.927,39.183,614.108971
7 Jan 2020 04:44:53.000,174.237,39.483,610.723177
7 Jan 2020 04:44:54.000,173.533,39.781,607.402756
7 Jan 2020 04:44:55.000,172.814,40.078,604.148788
7 Jan 2020 04:44:56.000,172.082,40.373,600.962358
7 Jan 2020 04:44:57.000,171.335,40.665,597.844549
7 Jan 2020 04:44:58.000,170.575,40.955,594.796444
7 Jan 2020 04:44:59.000,169.799,41.243,591.819125
7 Jan 2020 04:45:00.000,169.009,41.527,588.913668
7 Jan 2020 04:45:01.000,168.204,41.808,586.081145
7 Jan 2020 04:45:02.000,167.384,42.085,583.322623
7 Jan 2020 04:45:03.000,166.549,42.358,580.639161
7 Jan 2020 04:45:04.000,165.700,42.627,578.031805
7 Jan 2020 04:45:05.000,164.835,42.892,575.501596
7 Jan 2020 04:45:06.000,163.955,43.151,573.049557
7 Jan 2020 04:45:07.000,163.061,43.405,570.676698
7 Jan 2020 04:45:08.000,162.151,43.654,568.384016
7 Jan 2020 04:45:09.000,161.227,43.896,566.172486
7 Jan 2020 04:45:10.000,160.288,44.133,564.043067
7 Jan 2020 04:45:11.000,159.334,44.362,561.996693
7 Jan 2020 04:45:12.000,158.366,44.585,560.034280
7 Jan 2020 04:45:13.000,157.384,44.800,558.156713
7 Jan 2020 04:45:14.000,156.389,45.007,556.364854
7 Jan 2020 04:45:15.000,155.379,45.207,554.659538
7 Jan 2020 04:45:16.000,154.357,45.398,553.041566
7 Jan 2020 04:45:17.000,153.322,45.580,551.511709
7 Jan 2020 04:45:18.000,152.275,45.753,550.070704
7 Jan 2020 04:45:19.000,151.216,45.916,548.719255
7 Jan 2020 04:45:20.000,150.146,46.070,547.458024
7 Jan 2020 04:45:21.000,149.066,46.214,546.287640
7 Jan 2020 04:45:22.000,147.975,46.348,545.208687
7 Jan 2020 04:45:23.000,146.875,46.471,544.221712
7 Jan 2020 04:45:24.000,145.766,46.583,543.327219
7 Jan 2020 04:45:25.000,144.650,46.684,542.525664
7 Jan 2020 04:45:26.000,143.527,46.774,541.817461
7 Jan 2020 04:45:27.000,142.397,46.853,541.202979
7 Jan 2020 04:45:28.000,141.261,46.920,540.682539
7 Jan 2020 04:45:29.000,140.122,46.975,540.256410
7 Jan 2020 04:45:30.000,138.978,47.018,539.924819
7 Jan 2020 04:45:31.000,137.832,47.049,539.687940
7 Jan 2020 04:45:32.000,136.683,47.069,539.545898
7 Jan 2020 04:45:33.000,135.534,47.076,539.498769
7 Jan 2020 04:45:34.000,134.385,47.071,539.546577
7 Jan 2020 04:45:35.000,133.237,47.054,539.689298
7 Jan 2020 04:45:36.000,132.090,47.025,539.926857
7 Jan 2020 04:45:37.000,130.946,46.984,540.259127
7 Jan 2020 04:45:38.000,129.806,46.931,540.685934
7 Jan 2020 04:45:39.000,128.670,46.866,541.207055
7 Jan 2020 04:45:40.000,127.540,46.790,541.822214
7 Jan 2020 04:45:41.000,126.416,46.702,542.531096
7 Jan 2020 04:45:42.000,125.298,46.603,543.333330
7 Jan 2020 04:45:43.000,124.189,46.493,544.228503
7 Jan 2020 04:45:44.000,123.088,46.372,545.216155
7 Jan 2020 04:45:45.000,121.997,46.240,546.295787
7 Jan 2020 04:45:46.000,120.915,46.099,547.466851
7 Jan 2020 04:45:47.000,119.844,45.947,548.728759
7 Jan 2020 04:45:48.000,118.784,45.785,550.080888
7 Jan 2020 04:45:49.000,117.735,45.614,551.522569
7 Jan 2020 04:45:50.000,116.699,45.434,553.053106
7 Jan 2020 04:45:51.000,115.676,45.245,554.671755
7 Jan 2020 04:45:52.000,114.665,45.047,556.377751
7 Jan 2020 04:45:53.000,113.668,44.842,558.170286
7 Jan 2020 04:45:54.000,112.685,44.628,560.048533
7 Jan 2020 04:45:55.000,111.716,44.407,562.011624
7 Jan 2020 04:45:56.000,110.761,44.179,564.058675
7 Jan 2020 04:45:57.000,109.820,43.945,566.188774
7 Jan 2020 04:45:58.000,108.894,43.704,568.400982
7 Jan 2020 04:45:59.000,107.983,43.457,570.694342
7 Jan 2020 04:46:00.000,107.087,43.204,573.067878
7 Jan 2020 04:46:01.000,106.206,42.946,575.520598
7 Jan 2020 04:46:02.000,105.340,42.683,578.051487
7 Jan 2020 04:46:03.000,104.488,42.416,580.659521
7 Jan 2020 04:46:04.000,103.652,42.144,583.343663
7 Jan 2020 04:46:05.000,102.831,41.868,586.102864
7 Jan 2020 04:46:06.000,102.025,41.589,588.936067
7 Jan 2020 04:46:07.000,101.233,41.306,591.842204
7 Jan 2020 04:46:08.000,100.456,41.020,594.820205
7 Jan 2020 04:46:09.000,99.694,40.731,597.868991
7 Jan 2020 04:46:10.000,98.946,40.440,600.987482
7 Jan 2020 04:46:11.000,98.212,40.146,604.174595
7 Jan 2020 04:46:12.000,97.493,39.850,607.429246
7 Jan 2020 04:46:13.000,96.787,39.553,610.750352
7 Jan 2020 04:46:14.000,96.095,39.254,614.136830
7 Jan 2020 04:46:15.000,95.417,38.954,617.587602
7 Jan 2020 04:46:16.000,94.752,38.653,621.101591
7 Jan 2020 04:46:17.000,94.100,38.352,624.677725
7 Jan 2020 04:46:18.000,93.461,38.049,628.314943
7 Jan 2020 04:46:19.000,92.834,37.746,632.012183
7 Jan 2020 04:46:20.000,92.220,37.443,635.768395
7 Jan 2020 04:46:21.000,91.619,37.140,639.582532
7 Jan 2020 04:46:22.000,91.029,36.837,643.453566
7 Jan 2020 04:46:23.000,90.451,36.534,647.380468
7 Jan 2020 04:46:24.000,89.884,36.231,651.362223
7 Jan 2020 04:46:25.000,89.329,35.929,655.397825
7 Jan 2020 04:46:26.000,88.785,35.628,659.486285
7 Jan 2020 04:46:27.000,88.252,35.328,663.626616
7 Jan 2020 04:46:28.000,87.729,35.028,667.817855
7 Jan 2020 04:46:29.000,87.217,34.730,672.059041
7 Jan 2020 04:46:30.000,86.715,34.432,676.349226
7 Jan 2020 04:46:31.000,86.222,34.136,680.687486
7 Jan 2020 04:46:32.000,85.740,33.841,685.072895
7 Jan 2020 04:46:33.000,85.267,33.548,689.504556
7 Jan 2020 04:46:34.000,84.803,33.256,693.981570
7 Jan 2020 04:46:35.000,84.348,32.965,698.503067
7 Jan 2020 04:46:36.000,83.902,32.677,703.068177
7 Jan 2020 04:46:37.000,83.465,32.389,707.676057
7 Jan 2020 04:46:38.000,83.036,32.104,712.325865
7 Jan 2020 04:46:39.000,82.616,31.820,717.016786
7 Jan 2020 04:46:40.000,82.204,31.539,721.748007
7 Jan 2020 04:46:41.000,81.799,31.259,726.518742
7 Jan 2020 04:46:42.000,81.402,30.981,731.328204
7 Jan 2020 04:46:43.000,81.013,30.705,736.175634
7 Jan 2020 04:46:44.000,80.631,30.430,741.060282
7 Jan 2020 04:46:45.000,80.256,30.158,745.981407
7 Jan 2020 04:46:46.000,79.888,29.888,750.938287
7 Jan 2020 04:46:47.000,79.527,29.620,755.930218
7 Jan 2020 04:46:48.000,79.173,29.354,760.956498
7 Jan 2020 04:46:49.000,78.825,29.090,766.016446
7 Jan 2020 04:46:50.000,78.484,28.829,771.109399
7 Jan 2020 04:46:51.000,78.149,28.569,776.234693
7 Jan 2020 04:46:52.000,77.820,28.311,781.391690
7 Jan 2020 04:46:53.000,77.497,28.056,786.579764
7 Jan 2020 04:46:54.000,77.180,27.803,791.798290
7 Jan 2020 04:46:55.000,76.868,27.552,797.046668
7 Jan 2020 04:46:56.000,76.562,27.302,802.324306
7 Jan 2020 04:46:57.000,76.261,27.056,807.630628
7 Jan 2020 04:46:58.000,75.966,26.811,812.965058
7 Jan 2020 04:46:59.000,75.675,26.568,818.327045
7 Jan 2020 04:47:00.000,75.390,26.327,823.716043
7 Jan 2020 04:47:01.000,75.110,26.089,829.131521
7 Jan 2020 04:47:02.000,74.834,25.853,834.572958
7 Jan 2020 04:47:03.000,74.563,25.618,840.039839
7 Jan 2020 04:47:04.000,74.297,25.386,845.531665
7 Jan 2020 04:47:05.000,74.036,25.156,851.047949
7 Jan 2020 04:47:06.000,73.778,24.928,856.588210
7 Jan 2020 04:47:07.000,73.525,24.702,862.151981
7 Jan 2020 04:47:08.000,73.276,24.478,867.738805
7 Jan 2020 04:47:09.000,73.032,24.256,873.348227
7 Jan 2020 04:47:10.000,72.791,24.036,878.979811
7 Jan 2020 04:47:11.000,72.554,23.818,884.633128
7 Jan 2020 04:47:12.000,72.321,23.602,890.307756
7 Jan 2020 04:47:13.000,72.092,23.388,896.003285
7 Jan 2020 04:47:14.000,71.866,23.175,901.719310
7 Jan 2020 04:47:15.000,71.645,22.965,907.455439
7 Jan 2020 04:47:16.000,71.426,22.757,913.211286
7 Jan 2020 04:47:17.000,71.211,22.550,918.986476
7 Jan 2020 04:47:18.000,70.999,22.346,924.780635
7 Jan 2020 04:47:19.000,70.791,22.143,930.593403
7 Jan 2020 04:47:20.000,70.586,21.942,936.424428
7 Jan 2020 04:47:21.000,70.384,21.743,942.273365
7 Jan 2020 04:47:22.000,70.185,21.546,948.139873
7 Jan 2020 04:47:23.000,69.989,21.350,954.023624
7 Jan 2020 04:47:24.000,69.796,21.156,959.924292
7 Jan 2020 04:47:25.000,69.606,20.964,965.841560
7 Jan 2020 04:47:26.000,69.419,20.774,971.775119
7 Jan 2020 04:47:27.000,69.235,20.585,977.724665
7 Jan 2020 04:47:28.000,69.053,20.398,983.689900
7 Jan 2020 04:47:29.000,68.874,20.213,989.670535
7 Jan 2020 04:47:30.000,68.698,20.029,995.666284
7 Jan 2020 04:47:31.000,68.524,19.847,1001.676868
7 Jan 2020 04:47:32.000,68.353,19.666,1007.702017
7 Jan 2020 04:47:33.000,68.184,19.488,1013.741461
7 Jan 2020 04:47:34.000,68.017,19.310,1019.794942
7 Jan 2020 04:47:35.000,67.853,19.134,1025.862202
7 Jan 2020 04:47:36.000,67.691,18.960,1031.942993
7 Jan 2020 04:47:37.000,67.532,18.787,1038.037068
7 Jan 2020 04:47:38.000,67.374,18.616,1044.144188
7 Jan 2020 04:47:39.000,67.219,18.446,1050.264118
7 Jan 2020 04:47:40.000,67.066,18.278,1056.396629
7 Jan 2020 04:47:41.000,66.915,18.111,1062.541495
7 Jan 2020 04:47:42.000,66.767,17.946,1068.698496
7 Jan 2020 04:47:43.000,66.620,17.781,1074.867416
7 Jan 2020 04:47:44.000,66.475,17.619,1081.048045
7 Jan 2020 04:47:45.000,66.332,17.457,1087.240171
7 Jan 2020 04:47:46.000,66.191,17.297,1093.443598
7 Jan 2020 04:47:47.000,66.052,17.139,1099.658125
7 Jan 2020 04:47:48.000,65.915,16.981,1105.883558
7 Jan 2020 04:47:49.000,65.779,16.825,1112.119705
7 Jan 2020 04:47:50.000,65.645,16.670,1118.366381
7 Jan 2020 04:47:51.000,65.514,16.517,1124.623402
7 Jan 2020 04:47:52.000,65.383,16.365,1130.890590
7 Jan 2020 04:47:53.000,65.255,16.214,1137.167768
7 Jan 2020 04:47:54.000,65.128,16.064,1143.454765
7 Jan 2020 04:47:55.000,65.002,15.915,1149.751413
7 Jan 2020 04:47:56.000,64.879,15.768,1156.057546
7 Jan 2020 04:47:57.000,64.756,15.621,1162.372999
7 Jan 2020 04:47:58.000,64.636,15.476,1168.697620
7 Jan 2020 04:47:59.000,64.516,15.332,1175.031251
7 Jan 2020 04:48:00.000,64.399,15.190,1181.373739
7 Jan 2020 04:48:01.000,64.282,15.048,1187.724935
7 Jan 2020 04:48:02.000,64.168,14.907,1194.084692
7 Jan 2020 04:48:03.000,64.054,14.768,1200.452866
7 Jan 2020 04:48:04.000,63.942,14.629,1206.829318
7 Jan 2020 04:48:05.000,63.831,14.492,1213.213908
7 Jan 2020 04:48:06.000,63.722,14.355,1219.606499
7 Jan 2020 04:48:07.000,63.614,14.220,1226.006964
7 Jan 2020 04:48:08.000,63.507,14.086,1232.415169
7 Jan 2020 04:48:09.000,63.402,13.952,1238.830988
7 Jan 2020 04:48:10.000,63.297,13.820,1245.254294
7 Jan 2020 04:48:11.000,63.194,13.689,1251.684964
7 Jan 2020 04:48:12.000,63.092,13.558,1258.122880
7 Jan 2020 04:48:13.000,62.992,13.429,1264.567918
7 Jan 2020 04:48:14.000,62.892,13.300,1271.019969
7 Jan 2020 04:48:15.000,62.794,13.173,1277.478917
7 Jan 2020 04:48:16.000,62.696,13.046,1283.944649
7 Jan 2020 04:48:17.000,62.600,12.920,1290.417056
7 Jan 2020 04:48:18.000,62.505,12.795,1296.896030
7 Jan 2020 04:48:19.000,62.411,12.671,1303.381463
7 Jan 2020 04:48:20.000,62.318,12.548,1309.873257
7 Jan 2020 04:48:21.000,62.226,12.426,1316.371308
7 Jan 2020 04:48:22.000,62.135,12.304,1322.875515
7 Jan 2020 04:48:23.000,62.045,12.184,1329.385780
7 Jan 2020 04:48:24.000,61.957,12.064,1335.902008
7 Jan 2020 04:48:25.000,61.869,11.945,1342.424100
7 Jan 2020 04:48:26.000,61.782,11.827,1348.951971
7 Jan 2020 04:48:27.000,61.696,11.710,1355.485525
7 Jan 2020 04:48:28.000,61.610,11.593,1362.024673
7 Jan 2020 04:48:29.000,61.526,11.477,1368.569327
7 Jan 2020 04:48:30.000,61.443,11.363,1375.119402
7 Jan 2020 04:48:31.000,61.361,11.248,1381.674808
7 Jan 2020 04:48:32.000,61.279,11.135,1388.235469
7 Jan 2020 04:48:33.000,61.198,11.022,1394.801301
7 Jan 2020 04:48:34.000,61.118,10.910,1401.372222
7 Jan 2020 04:48:35.000,61.039,10.799,1407.948153
7 Jan 2020 04:48:36.000,60.961,10.688,1414.529014
7 Jan 2020 04:48:37.000,60.884,10.578,1421.114734
7 Jan 2020 04:48:38.000,60.807,10.469,1427.705237
7 Jan 2020 04:48:39.000,60.732,10.361,1434.300447
7 Jan 2020 04:48:40.000,60.657,10.253,1440.900292
7 Jan 2020 04:48:41.000,60.582,10.146,1447.504699
7 Jan 2020 04:48:42.000,60.509,10.039,1454.113603
7 Jan 2020 04:48:43.000,60.436,9.933,1460.726932
7 Jan 2020 04:48:44.000,60.364,9.828,1467.344619
7 Jan 2020 04:48:45.000,60.293,9.724,1473.966597
7 Jan 2020 04:48:46.000,60.222,9.620,1480.592798
7 Jan 2020 04:48:47.000,60.152,9.517,1487.223164
7 Jan 2020 04:48:48.000,60.083,9.414,1493.857627
7 Jan 2020 04:48:49.000,60.014,9.312,1500.496127
7 Jan 2020 04:48:50.000,59.947,9.210,1507.138602
7 Jan 2020 04:48:51.000,59.879,9.110,1513.784988
7 Jan 2020 04:48:52.000,59.813,9.009,1520.435233
7 Jan 2020 04:48:53.000,59.747,8.910,1527.089275
7 Jan 2020 04:48:54.000,59.682,8.810,1533.747057
7 Jan 2020 04:48:55.000,59.617,8.712,1540.408520
7 Jan 2020 04:48:56.000,59.553,8.614,1547.073614
7 Jan 2020 04:48:57.000,59.490,8.516,1553.742281
7 Jan 2020 04:48:58.000,59.427,8.420,1560.414469
7 Jan 2020 04:48:59.000,59.365,8.323,1567.090123
7 Jan 2020 04:49:00.000,59.303,8.227,1573.769189
7 Jan 2020 04:49:01.000,59.242,8.132,1580.451622
7 Jan 2020 04:49:02.000,59.181,8.037,1587.137369
7 Jan 2020 04:49:03.000,59.121,7.943,1593.826379
7 Jan 2020 04:49:04.000,59.062,7.849,1600.518601
7 Jan 2020 04:49:05.000,59.003,7.756,1607.213993
7 Jan 2020 04:49:06.000,58.945,7.663,1613.912505
7 Jan 2020 04:49:07.000,58.887,7.571,1620.614090
7 Jan 2020 04:49:08.000,58.830,7.479,1627.318698
7 Jan 2020 04:49:09.000,58.773,7.388,1634.026292
7 Jan 2020 04:49:10.000,58.717,7.297,1640.736823
7 Jan 2020 04:49:11.000,58.661,7.207,1647.450248
7 Jan 2020 04:49:12.000,58.606,7.117,1654.166519
7 Jan 2020 04:49:13.000,58.552,7.028,1660.885602
7 Jan 2020 04:49:14.000,58.497,6.939,1667.607451
7 Jan 2020 04:49:15.000,58.444,6.850,1674.332024
7 Jan 2020 04:49:16.000,58.390,6.762,1681.059282
7 Jan 2020 04:49:17.000,58.338,6.675,1687.789180
7 Jan 2020 04:49:18.000,58.285,6.588,1694.521686
7 Jan 2020 04:49:19.000,58.233,6.501,1701.256757
7 Jan 2020 04:49:20.000,58.182,6.415,1707.994356
7 Jan 2020 04:49:21.000,58.131,6.329,1714.734442
7 Jan 2020 04:49:22.000,58.080,6.243,1721.476982
7 Jan 2020 04:49:23.000,58.030,6.158,1728.221939
7 Jan 2020 04:49:24.000,57.981,6.074,1734.969274
7 Jan 2020 04:49:25.000,57.931,5.989,1741.718951
7 Jan 2020 04:49:26.000,57.883,5.905,1748.470939
7 Jan 2020 04:49:27.000,57.834,5.822,1755.225202
7 Jan 2020 04:49:28.000,57.786,5.739,1761.981704
7 Jan 2020 04:49:29.000,57.739,5.656,1768.740409
7 Jan 2020 04:49:30.000,57.691,5.574,1775.501291
7 Jan 2020 04:49:31.000,57.645,5.492,1782.264313
7 Jan 2020 04:49:32.000,57.598,5.410,1789.029440
7 Jan 2020 04:49:33.000,57.552,5.329,1795.796646
7 Jan 2020 04:49:34.000,57.507,5.249,1802.565898
7 Jan 2020 04:49:35.000,57.461,5.168,1809.337163
7 Jan 2020 04:49:36.000,57.416,5.088,1816.110408
7 Jan 2020 04:49:37.000,57.372,5.008,1822.885609
7 Jan 2020 04:49:38.000,57.328,4.929,1829.662734
7 Jan 2020 04:49:39.000,57.284,4.850,1836.441753
7 Jan 2020 04:49:40.000,57.241,4.771,1843.222635
7 Jan 2020 04:49:41.000,57.197,4.693,1850.005356
7 Jan 2020 04:49:42.000,57.155,4.615,1856.789886
7 Jan 2020 04:49:43.000,57.112,4.537,1863.576196
7 Jan 2020 04:49:44.000,57.070,4.460,1870.364257
7 Jan 2020 04:49:45.000,57.029,4.383,1877.154047
7 Jan 2020 04:49:46.000,56.987,4.306,1883.945536
7 Jan 2020 04:49:47.000,56.946,4.230,1890.738699
7 Jan 2020 04:49:48.000,56.905,4.154,1897.533506
7 Jan 2020 04:49:49.000,56.865,4.078,1904.329938
7 Jan 2020 04:49:50.000,56.825,4.003,1911.127965
7 Jan 2020 04:49:51.000,56.785,3.927,1917.927564
7 Jan 2020 04:49:52.000,56.746,3.853,1924.728707
7 Jan 2020 04:49:53.000,56.706,3.778,1931.531374
7 Jan 2020 04:49:54.000,56.668,3.704,1938.335539
7 Jan 2020 04:49:55.000,56.629,3.630,1945.141176
7 Jan 2020 04:49:56.000,56.591,3.556,1951.948266
7 Jan 2020 04:49:57.000,56.553,3.483,1958.756784
7 Jan 2020 04:49:58.000,56.515,3.410,1965.566707
7 Jan 2020 04:49:59.000,56.478,3.337,1972.378008
7 Jan 2020 04:50:00.000,56.441,3.265,1979.190673
7 Jan 2020 04:50:01.000,56.404,3.192,1986.004675
7 Jan 2020 04:50:02.000,56.367,3.120,1992.819992
7 Jan 2020 04:50:03.000,56.331,3.049,1999.636601
7 Jan 2020 04:50:04.000,56.295,2.977,2006.454487
7 Jan 2020 04:50:05.000,56.259,2.906,2013.273624
7 Jan 2020 04:50:06.000,56.224,2.835,2020.093989
7 Jan 2020 04:50:07.000,56.189,2.765,2026.915568
7 Jan 2020 04:50:08.000,56.154,2.694,2033.738338
7 Jan 2020 04:50:09.000,56.119,2.624,2040.562279
7 Jan 2020 04:50:10.000,56.084,2.555,2047.387366
7 Jan 2020 04:50:11.000,56.050,2.485,2054.213589
7 Jan 2020 04:50:12.000,56.016,2.416,2061.040923
7 Jan 2020 04:50:13.000,55.983,2.347,2067.869349
7 Jan 2020 04:50:14.000,55.949,2.278,2074.698847
7 Jan 2020 04:50:15.000,55.916,2.209,2081.529403
7 Jan 2020 04:50:16.000,55.883,2.141,2088.360995
7 Jan 2020 04:50:17.000,55.851,2.073,2095.193603
7 Jan 2020 04:50:18.000,55.818,2.005,2102.027215
7 Jan 2020 04:50:19.000,55.786,1.937,2108.861809
7 Jan 2020 04:50:20.000,55.754,1.870,2115.697368
7 Jan 2020 04:50:21.000,55.722,1.803,2122.533872
7 Jan 2020 04:50:22.000,55.691,1.736,2129.371309
7 Jan 2020 04:50:23.000,55.659,1.669,2136.209660
7 Jan 2020 04:50:24.000,55.628,1.602,2143.048904
7 Jan 2020 04:50:25.000,55.597,1.536,2149.889031
7 Jan 2020 04:50:26.000,55.567,1.470,2156.730021
7 Jan 2020 04:50:27.000,55.536,1.404,2163.571858
7 Jan 2020 04:50:28.000,55.506,1.338,2170.414524
7 Jan 2020 04:50:29.000,55.476,1.273,2177.258007
7 Jan 2020 04:50:30.000,55.446,1.208,2184.102290
7 Jan 2020 04:50:31.000,55.416,1.143,2190.947353
7 Jan 2020 04:50:32.000,55.387,1.078,2197.793188
7 Jan 2020 04:50:33.000,55.358,1.013,2204.639775
7 Jan 2020 04:50:34.000,55.329,0.949,2211.487101
7 Jan 2020 04:50:35.000,55.300,0.885,2218.335146
7 Jan 2020 04:50:36.000,55.272,0.821,2225.183902
7 Jan 2020 04:50:37.000,55.243,0.757,2232.033352
7 Jan 2020 04:50:38.000,55.215,0.694,2238.883478
7 Jan 2020 04:50:39.000,55.187,0.630,2245.734272
7 Jan 2020 04:50:40.000,55.159,0.567,2252.585716
7 Jan 2020 04:50:41.000,55.132,0.504,2259.437797
7 Jan 2020 04:50:42.000,55.104,0.441,2266.290497
7 Jan 2020 04:50:43.000,55.077,0.378,2273.143809
7 Jan 2020 04:50:44.000,55.050,0.316,2279.997716
7 Jan 2020 04:50:45.000,55.023,0.254,2286.852202
7 Jan 2020 04:50:46.000,54.996,0.192,2293.707259
7 Jan 2020 04:50:47.000,54.970,0.130,2300.562871
7 Jan 2020 04:50:48.000,54.943,0.068,2307.419026
7 Jan 2020 04:50:49.000,54.917,0.007,2314.275707
7 Jan 2020 04:50:50.000,54.891,-0.055,2321.132907
7 Jan 2020 04:50:50.012,54.891,-0.056,2321.218196
7 Jan 2020 06:17:14.921,263.934,-0.055,2315.256672
7 Jan 2020 06:17:15.000,263.940,-0.051,2314.763061
7 Jan 2020 06:17:16.000,264.017,0.006,2308.484946
7 Jan 2020 06:17:17.000,264.095,0.062,2302.210347
7 Jan 2020 06:17:18.000,264.173,0.119,2295.939301
7 Jan 2020 06:17:19.000,264.252,0.176,2289.671843
7 Jan 2020 06:17:20.000,264.331,0.233,2283.408010
7 Jan 2020 06:17:21.000,264.410,0.290,2277.147839
7 Jan 2020 06:17:22.000,264.490,0.347,2270.891368
7 Jan 2020 06:17:23.000,264.570,0.404,2264.638631
7 Jan 2020 06:17:24.000,264.651,0.462,2258.389673
7 Jan 2020 06:17:25.000,264.732,0.519,2252.144529
7 Jan 2020 06:17:26.000,264.813,0.577,2245.903238
7 Jan 2020 06:17:27.000,264.895,0.635,2239.665839
7 Jan 2020 06:17:28.000,264.978,0.693,2233.432372
7 Jan 2020 06:17:29.000,265.061,0.751,2227.202877
7 Jan 2020 06:17:30.000,265.144,0.809,2220.977394
7 Jan 2020 06:17:31.000,265.228,0.868,2214.755965
7 Jan 2020 06:17:32.000,265.312,0.926,2208.538631
7 Jan 2020 06:17:33.000,265.397,0.985,2202.325433
7 Jan 2020 06:17:34.000,265.482,1.044,2196.116414
7 Jan 2020 06:17:35.000,265.567,1.102,2189.911612
7 Jan 2020 06:17:36.000,265.654,1.162,2183.711078
7 Jan 2020 06:17:37.000,265.740,1.221,2177.514852
7 Jan 2020 06:17:38.000,265.827,1.280,2171.322977
7 Jan 2020 06:17:39.000,265.915,1.340,2165.135498
7 Jan 2020 06:17:40.000,266.003,1.399,2158.952460
7 Jan 2020 06:17:41.000,266.092,1.459,2152.773908
7 Jan 2020 06:17:42.000,266.181,1.519,2146.599888
7 Jan 2020 06:17:43.000,266.270,1.579,2140.430446
7 Jan 2020 06:17:44.000,266.360,1.639,2134.265628
7 Jan 2020 06:17:45.000,266.451,1.699,2128.105482
7 Jan 2020 06:17:46.000,266.542,1.760,2121.950056
7 Jan 2020 06:17:47.000,266.634,1.820,2115.799397
7 Jan 2020 06:17:48.000,266.726,1.881,2109.653555
7 Jan 2020 06:17:49.000,266.818,1.942,2103.512578
7 Jan 2020 06:17:50.000,266.912,2.003,2097.376516
7 Jan 2020 06:17:51.000,267.005,2.064,2091.245419
7 Jan 2020 06:17:52.000,267.100,2.126,2085.119339
7 Jan 2020 06:17:53.000,267.195,2.187,2078.998322
7 Jan 2020 06:17:54.000,267.290,2.249,2072.882428
7 Jan 2020 06:17:55.000,267.386,2.311,2066.771706
7 Jan 2020 06:17:56.000,267.483,2.373,2060.666208
7 Jan 2020 06:17:57.000,267.580,2.435,2054.565988
7 Jan 2020 06:17:58.000,267.677,2.497,2048.471100
7 Jan 2020 06:17:59.000,267.776,2.559,2042.381599
7 Jan 2020 06:18:00.000,267.874,2.622,2036.297539
7 Jan 2020 06:18:01.000,267.974,2.685,2030.218977
7 Jan 2020 06:18:02.000,268.074,2.748,2024.145969
7 Jan 2020 06:18:03.000,268.174,2.811,2018.078572
7 Jan 2020 06:18:04.000,268.276,2.874,2012.016844
7 Jan 2020 06:18:05.000,268.377,2.937,2005.960842
7 Jan 2020 06:18:06.000,268.480,3.001,1999.910627
7 Jan 2020 06:18:07.000,268.583,3.065,1993.866256
7 Jan 2020 06:18:08.000,268.687,3.128,1987.827791
7 Jan 2020 06:18:09.000,268.791,3.192,1981.795291
7 Jan 2020 06:18:10.000,268.896,3.257,1975.768820
7 Jan 2020 06:18:11.000,269.001,3.321,1969.748438
7 Jan 2020 06:18:12.000,269.108,3.386,1963.734209
7 Jan 2020 06:18:13.000,269.214,3.450,1957.726195
7 Jan 2020 06:18:14.000,269.322,3.515,1951.724462
7 Jan 2020 06:18:15.000,269.430,3.580,1945.729074
7 Jan 2020 06:18:16.000,269.539,3.645,1939.740096
7 Jan 2020 06:18:17.000,269.648,3.711,1933.757595
7 Jan 2020 06:18:18.000,269.759,3.776,1927.781639
7 Jan 2020 06:18:19.000,269.870,3.842,1921.812294
7 Jan 2020 06:18:20.000,269.981,3.908,1915.849629
7 Jan 2020 06:18:21.000,270.093,3.974,1909.893714
7 Jan 2020 06:18:22.000,270.206,4.040,1903.944618
7 Jan 2020 06:18:23.000,270.320,4.107,1898.002413
7 Jan 2020 06:18:24.000,270.435,4.173,1892.067170
7 Jan 2020 06:18:25.000,270.550,4.240,1886.138961
7 Jan 2020 06:18:26.000,270.666,4.307,1880.217860
7 Jan 2020 06:18:27.000,270.782,4.374,1874.303940
7 Jan 2020 06:18:28.000,270.899,4.441,1868.397277
7 Jan 2020 06:18:29.000,271.018,4.509,1862.497946
7 Jan 2020 06:18:30.000,271.136,4.577,1856.606024
7 Jan 2020 06:18:31.000,271.256,4.644,1850.721588
7 Jan 2020 06:18:32.000,271.376,4.712,1844.844716
7 Jan 2020 06:18:33.000,271.498,4.781,1838.975487
7 Jan 2020 06:18:34.000,271.619,4.849,1833.113982
7 Jan 2020 06:18:35.000,271.742,4.918,1827.260281
7 Jan 2020 06:18:36.000,271.866,4.986,1821.414470
7 Jan 2020 06:18:37.000,271.990,5.055,1815.576625
7 Jan 2020 06:18:38.000,272.115,5.125,1809.746831
7 Jan 2020 06:18:39.000,272.241,5.194,1803.925175
7 Jan 2020 06:18:40.000,272.368,5.263,1798.111742
7 Jan 2020 06:18:41.000,272.495,5.333,1792.306618
7 Jan 2020 06:18:42.000,272.624,5.403,1786.509890
7 Jan 2020 06:18:43.000,272.753,5.473,1780.721648
7 Jan 2020 06:18:44.000,272.883,5.543,1774.941980
7 Jan 2020 06:18:45.000,273.014,5.614,1769.170978
7 Jan 2020 06:18:46.000,273.146,5.684,1763.408732
7 Jan 2020 06:18:47.000,273.279,5.755,1757.655336
7 Jan 2020 06:18:48.000,273.413,5.826,1751.910883
7 Jan 2020 06:18:49.000,273.547,5.898,1746.175467
7 Jan 2020 06:18:50.000,273.683,5.969,1740.449185
7 Jan 2020 06:18:51.000,273.819,6.041,1734.732136
7 Jan 2020 06:18:52.000,273.956,6.113,1729.024412
7 Jan 2020 06:18:53.000,274.095,6.185,1723.326116
7 Jan 2020 06:18:54.000,274.234,6.257,1717.637347
7 Jan 2020 06:18:55.000,274.374,6.329,1711.958206
7 Jan 2020 06:18:56.000,274.515,6.402,1706.288797
7 Jan 2020 06:18:57.000,274.657,6.475,1700.629223
7 Jan 2020 06:18:58.000,274.800,6.548,1694.979589
7 Jan 2020 06:18:59.000,274.944,6.621,1689.340000
7 Jan 2020 06:19:00.000,275.089,6.694,1683.710568
7 Jan 2020 06:19:01.000,275.235,6.768,1678.091394
7 Jan 2020 06:19:02.000,275.382,6.842,1672.482591
7 Jan 2020 06:19:03.000,275.530,6.916,1666.884270
7 Jan 2020 06:19:04.000,275.679,6.990,1661.296544
7 Jan 2020 06:19:05.000,275.829,7.064,1655.719525
7 Jan 2020 06:19:06.000,275.980,7.139,1650.153329
7 Jan 2020 06:19:07.000,276.132,7.214,1644.598071
7 Jan 2020 06:19:08.000,276.285,7.289,1639.053873
7 Jan 2020 06:19:09.000,276.439,7.364,1633.520846
7 Jan 2020 06:19:10.000,276.595,7.439,1627.999115
7 Jan 2020 06:19:11.000,276.751,7.515,1622.488799
7 Jan 2020 06:19:12.000,276.909,7.591,1616.990023
7 Jan 2020 06:19:13.000,277.067,7.667,1611.502910
7 Jan 2020 06:19:14.000,277.227,7.743,1606.027590
7 Jan 2020 06:19:15.000,277.388,7.819,1600.564182
7 Jan 2020 06:19:16.000,277.550,7.896,1595.112819
7 Jan 2020 06:19:17.000,277.713,7.972,1589.673630
7 Jan 2020 06:19:18.000,277.877,8.049,1584.246748
7 Jan 2020 06:19:19.000,278.043,8.127,1578.832308
7 Jan 2020 06:19:20.000,278.210,8.204,1573.430437
7 Jan 2020 06:19:21.000,278.378,8.282,1568.041276
7 Jan 2020 06:19:22.000,278.547,8.359,1562.664962
7 Jan 2020 06:19:23.000,278.717,8.437,1557.301633
7 Jan 2020 06:19:24.000,278.888,8.515,1551.951434
7 Jan 2020 06:19:25.000,279.061,8.594,1546.614500
7 Jan 2020 06:19:26.000,279.235,8.672,1541.290979
7 Jan 2020 06:19:27.000,279.411,8.751,1535.981014
7 Jan 2020 06:19:28.000,279.587,8.830,1530.684755
7 Jan 2020 06:19:29.000,279.765,8.909,1525.402351
7 Jan 2020 06:19:30.000,279.944,8.988,1520.133948
7 Jan 2020 06:19:31.000,280.124,9.068,1514.879700
7 Jan 2020 06:19:32.000,280.306,9.148,1509.639760
7 Jan 2020 06:19:33.000,280.489,9.227,1504.414288
7 Jan 2020 06:19:34.000,280.674,9.308,1499.203434
7 Jan 2020 06:19:35.000,280.859,9.388,1494.007360
7 Jan 2020 06:19:36.000,281.047,9.468,1488.826226
7 Jan 2020 06:19:37.000,281.235,9.549,1483.660198
7 Jan 2020 06:19:38.000,281.425,9.630,1478.509433
7 Jan 2020 06:19:39.000,281.616,9.711,1473.374100
7 Jan 2020 06:19:40.000,281.809,9.792,1468.254371
7 Jan 2020 06:19:41.000,282.003,9.873,1463.150407
7 Jan 2020 06:19:42.000,282.199,9.954,1458.062384
7 Jan 2020 06:19:43.000,282.396,10.036,1452.990474
7 Jan 2020 06:19:44.000,282.594,10.118,1447.934856
7 Jan 2020 06:19:45.000,282.794,10.200,1442.895700
7 Jan 2020 06:19:46.000,282.995,10.282,1437.873188
7 Jan 2020 06:19:47.000,283.198,10.364,1432.867503
7 Jan 2020 06:19:48.000,283.403,10.447,1427.878822
7 Jan 2020 06:19:49.000,283.608,10.529,1422.907332
7 Jan 2020 06:19:50.000,283.816,10.612,1417.953223
7 Jan 2020 06:19:51.000,284.025,10.695,1413.016675
7 Jan 2020 06:19:52.000,284.235,10.778,1408.097883
7 Jan 2020 06:19:53.000,284.448,10.861,1403.197043
7 Jan 2020 06:19:54.000,284.661,10.945,1398.314341
7 Jan 2020 06:19:55.000,284.877,11.028,1393.449980
7 Jan 2020 06:19:56.000,285.093,11.112,1388.604152
7 Jan 2020 06:19:57.000,285.312,11.195,1383.777059
7 Jan 2020 06:19:58.000,285.532,11.279,1378.968908
7 Jan 2020 06:19:59.000,285.754,11.363,1374.179895
7 Jan 2020 06:20:00.000,285.977,11.447,1369.410234
7 Jan 2020 06:20:01.000,286.203,11.532,1364.660125
7 Jan 2020 06:20:02.000,286.429,11.616,1359.929783
7 Jan 2020 06:20:03.000,286.658,11.700,1355.219422
7 Jan 2020 06:20:04.000,286.888,11.785,1350.529250
7 Jan 2020 06:20:05.000,287.120,11.869,1345.859490
7 Jan 2020 06:20:06.000,287.354,11.954,1341.210353
7 Jan 2020 06:20:07.000,287.589,12.039,1336.582067
7 Jan 2020 06:20:08.000,287.826,12.124,1331.974846
7 Jan 2020 06:20:09.000,288.065,12.209,1327.388923
7 Jan 2020 06:20:10.000,288.306,12.294,1322.824517
7 Jan 2020 06:20:11.000,288.549,12.379,1318.281859
7 Jan 2020 06:20:12.000,288.793,12.464,1313.761184
7 Jan 2020 06:20:13.000,289.039,12.549,1309.262717
7 Jan 2020 06:20:14.000,289.287,12.634,1304.786700
7 Jan 2020 06:20:15.000,289.537,12.720,1300.333362
7 Jan 2020 06:20:16.000,289.789,12.805,1295.902949
7 Jan 2020 06:20:17.000,290.043,12.890,1291.495698
7 Jan 2020 06:20:18.000,290.298,12.976,1287.111849
7 Jan 2020 06:20:19.000,290.555,13.061,1282.751653
7 Jan 2020 06:20:20.000,290.815,13.146,1278.415349
7 Jan 2020 06:20:21.000,291.076,13.232,1274.103194
7 Jan 2020 06:20:22.000,291.339,13.317,1269.815430
7 Jan 2020 06:20:23.000,291.604,13.403,1265.552318
7 Jan 2020 06:20:24.000,291.871,13.488,1261.314105
7 Jan 2020 06:20:25.000,292.140,13.573,1257.101054
7 Jan 2020 06:20:26.000,292.411,13.658,1252.913420
7 Jan 2020 06:20:27.000,292.684,13.744,1248.751460
7 Jan 2020 06:20:28.000,292.959,13.829,1244.615442
7 Jan 2020 06:20:29.000,293.236,13.914,1240.505625
7 Jan 2020 06:20:30.000,293.515,13.999,1236.422279
7 Jan 2020 06:20:31.000,293.796,14.084,1232.365670
7 Jan 2020 06:20:32.000,294.080,14.168,1228.336063
7 Jan 2020 06:20:33.000,294.365,14.253,1224.333735
7 Jan 2020 06:20:34.000,294.652,14.338,1220.358957
7 Jan 2020 06:20:35.000,294.941,14.422,1216.411998
7 Jan 2020 06:20:36.000,295.232,14.506,1212.493142
7 Jan 2020 06:20:37.000,295.526,14.590,1208.602662
7 Jan 2020 06:20:38.000,295.821,14.674,1204.740834
7 Jan 2020 06:20:39.000,296.119,14.758,1200.907946
7 Jan 2020 06:20:40.000,296.419,14.842,1197.104276
7 Jan 2020 06:20:41.000,296.721,14.925,1193.330107
7 Jan 2020 06:20:42.000,297.025,15.008,1189.585721
7 Jan 2020 06:20:43.000,297.331,15.091,1185.871411
7 Jan 2020 06:20:44.000,297.639,15.174,1182.187460
7 Jan 2020 06:20:45.000,297.949,15.256,1178.534157
7 Jan 2020 06:20:46.000,298.262,15.339,1174.911788
7 Jan 2020 06:20:47.000,298.577,15.421,1171.320652
7 Jan 2020 06:20:48.000,298.893,15.502,1167.761036
7 Jan 2020 06:20:49.000,299.212,15.584,1164.233233
7 Jan 2020 06:20:50.000,299.534,15.665,1160.737537
7 Jan 2020 06:20:51.000,299.857,15.745,1157.274242
7 Jan 2020 06:20:52.000,300.182,15.826,1153.843642
7 Jan 2020 06:20:53.000,300.510,15.906,1150.446037
7 Jan 2020 06:20:54.000,300.840,15.985,1147.081722
7 Jan 2020 06:20:55.000,301.172,16.064,1143.750993
7 Jan 2020 06:20:56.000,301.506,16.143,1140.454149
7 Jan 2020 06:20:57.000,301.843,16.222,1137.191488
7 Jan 2020 06:20:58.000,302.181,16.300,1133.963307
7 Jan 2020 06:20:59.000,302.522,16.377,1130.769906
7 Jan 2020 06:21:00.000,302.865,16.454,1127.611583
7 Jan 2020 06:21:01.000,303.210,16.531,1124.488637
7 Jan 2020 06:21:02.000,303.557,16.607,1121.401367
7 Jan 2020 06:21:03.000,303.906,16.682,1118.350072
7 Jan 2020 06:21:04.000,304.258,16.757,1115.335048
7 Jan 2020 06:21:05.000,304.612,16.832,1112.356596
7 Jan 2020 06:21:06.000,304.968,16.905,1109.415011
7 Jan 2020 06:21:07.000,305.326,16.979,1106.510592
7 Jan 2020 06:21:08.000,305.686,17.051,1103.643634
7 Jan 2020 06:21:09.000,306.048,17.123,1100.814433
7 Jan 2020 06:21:10.000,306.412,17.195,1098.023284
7 Jan 2020 06:21:11.000,306.779,17.266,1095.270480
7 Jan 2020 06:21:12.000,307.148,17.336,1092.556314
7 Jan 2020 06:21:13.000,307.518,17.405,1089.881077
7 Jan 2020 06:21:14.000,307.891,17.474,1087.245059
7 Jan 2020 06:21:15.000,308.266,17.542,1084.648549
7 Jan 2020 06:21:16.000,308.643,17.609,1082.091833
7 Jan 2020 06:21:17.000,309.022,17.675,1079.575201
7 Jan 2020 06:21:18.000,309.403,17.741,1077.098928
7 Jan 2020 06:21:19.000,309.785,17.806,1074.663300
7 Jan 2020 06:21:20.000,310.170,17.870,1072.268596
7 Jan 2020 06:21:21.000,310.557,17.933,1069.915093
7 Jan 2020 06:21:22.000,310.946,17.995,1067.603066
7 Jan 2020 06:21:23.000,311.337,18.056,1065.332789
7 Jan 2020 06:21:24.000,311.730,18.117,1063.104527
7 Jan 2020 06:21:25.000,312.124,18.176,1060.918550
7 Jan 2020 06:21:26.000,312.521,18.235,1058.775123
7 Jan 2020 06:21:27.000,312.919,18.293,1056.674503
7 Jan 2020 06:21:28.000,313.319,18.350,1054.616950
7 Jan 2020 06:21:29.000,313.721,18.405,1052.602718
7 Jan 2020 06:21:30.000,314.125,18.460,1050.632061
7 Jan 2020 06:21:31.000,314.530,18.514,1048.705221
7 Jan 2020 06:21:32.000,314.937,18.566,1046.822444
7 Jan 2020 06:21:33.000,315.346,18.618,1044.983974
7 Jan 2020 06:21:34.000,315.756,18.668,1043.190040
7 Jan 2020 06:21:35.000,316.169,18.718,1041.440879
7 Jan 2020 06:21:36.000,316.582,18.766,1039.736714
7 Jan 2020 06:21:37.000,316.997,18.813,1038.077773
7 Jan 2020 06:21:38.000,317.414,18.859,1036.464270
7 Jan 2020 06:21:39.000,317.833,18.904,1034.896421
