vcc_sched/network/input/aer_vtgs_wj2xms_vcc-c_44430.csv

"Time (UTCG)","Azimuth (deg)","Elevation (deg)","Range (km)"
7 Jan 2020 03:47:04.814,185.767,-0.056,2300.062719
7 Jan 2020 03:47:05.000,185.749,-0.046,2298.981051
7 Jan 2020 03:47:06.000,185.649,0.007,2293.163883
7 Jan 2020 03:47:07.000,185.548,0.059,2287.353129
7 Jan 2020 03:47:08.000,185.447,0.112,2281.548845
7 Jan 2020 03:47:09.000,185.345,0.164,2275.751088
7 Jan 2020 03:47:10.000,185.243,0.217,2269.959915
7 Jan 2020 03:47:11.000,185.140,0.270,2264.175384
7 Jan 2020 03:47:12.000,185.037,0.323,2258.397554
7 Jan 2020 03:47:13.000,184.933,0.376,2252.626483
7 Jan 2020 03:47:14.000,184.828,0.429,2246.862232
7 Jan 2020 03:47:15.000,184.723,0.482,2241.104859
7 Jan 2020 03:47:16.000,184.618,0.535,2235.354425
7 Jan 2020 03:47:17.000,184.512,0.588,2229.610992
7 Jan 2020 03:47:18.000,184.405,0.642,2223.874621
7 Jan 2020 03:47:19.000,184.298,0.695,2218.145374
7 Jan 2020 03:47:20.000,184.190,0.749,2212.423313
7 Jan 2020 03:47:21.000,184.082,0.802,2206.708503
7 Jan 2020 03:47:22.000,183.973,0.856,2201.001006
7 Jan 2020 03:47:23.000,183.863,0.910,2195.300887
7 Jan 2020 03:47:24.000,183.753,0.964,2189.608210
7 Jan 2020 03:47:25.000,183.643,1.018,2183.923043
7 Jan 2020 03:47:26.000,183.532,1.071,2178.245449
7 Jan 2020 03:47:27.000,183.420,1.126,2172.575497
7 Jan 2020 03:47:28.000,183.307,1.180,2166.913252
7 Jan 2020 03:47:29.000,183.194,1.234,2161.258784
7 Jan 2020 03:47:30.000,183.081,1.288,2155.612160
7 Jan 2020 03:47:31.000,182.966,1.343,2149.973450
7 Jan 2020 03:47:32.000,182.852,1.397,2144.342723
7 Jan 2020 03:47:33.000,182.736,1.452,2138.720049
7 Jan 2020 03:47:34.000,182.620,1.506,2133.105500
7 Jan 2020 03:47:35.000,182.503,1.561,2127.499146
7 Jan 2020 03:47:36.000,182.386,1.616,2121.901060
7 Jan 2020 03:47:37.000,182.268,1.670,2116.311314
7 Jan 2020 03:47:38.000,182.150,1.725,2110.729983
7 Jan 2020 03:47:39.000,182.030,1.780,2105.157140
7 Jan 2020 03:47:40.000,181.910,1.835,2099.592859
7 Jan 2020 03:47:41.000,181.790,1.890,2094.037217
7 Jan 2020 03:47:42.000,181.669,1.946,2088.490289
7 Jan 2020 03:47:43.000,181.547,2.001,2082.952152
7 Jan 2020 03:47:44.000,181.424,2.056,2077.422883
7 Jan 2020 03:47:45.000,181.301,2.112,2071.902561
7 Jan 2020 03:47:46.000,181.177,2.167,2066.391264
7 Jan 2020 03:47:47.000,181.053,2.223,2060.889072
7 Jan 2020 03:47:48.000,180.927,2.278,2055.396065
7 Jan 2020 03:47:49.000,180.801,2.334,2049.912324
7 Jan 2020 03:47:50.000,180.675,2.390,2044.437929
7 Jan 2020 03:47:51.000,180.548,2.446,2038.972965
7 Jan 2020 03:47:52.000,180.420,2.502,2033.517513
7 Jan 2020 03:47:53.000,180.291,2.558,2028.071658
7 Jan 2020 03:47:54.000,180.161,2.614,2022.635484
7 Jan 2020 03:47:55.000,180.031,2.670,2017.209076
7 Jan 2020 03:47:56.000,179.900,2.726,2011.792520
7 Jan 2020 03:47:57.000,179.769,2.783,2006.385903
7 Jan 2020 03:47:58.000,179.636,2.839,2000.989313
7 Jan 2020 03:47:59.000,179.503,2.895,1995.602838
7 Jan 2020 03:48:00.000,179.370,2.952,1990.226566
7 Jan 2020 03:48:01.000,179.235,3.009,1984.860588
7 Jan 2020 03:48:02.000,179.100,3.065,1979.504995
7 Jan 2020 03:48:03.000,178.964,3.122,1974.159877
7 Jan 2020 03:48:04.000,178.827,3.179,1968.825327
7 Jan 2020 03:48:05.000,178.689,3.236,1963.501437
7 Jan 2020 03:48:06.000,178.551,3.293,1958.188303
7 Jan 2020 03:48:07.000,178.412,3.350,1952.886018
7 Jan 2020 03:48:08.000,178.272,3.407,1947.594678
7 Jan 2020 03:48:09.000,178.131,3.464,1942.314378
7 Jan 2020 03:48:10.000,177.990,3.521,1937.045217
7 Jan 2020 03:48:11.000,177.847,3.578,1931.787292
7 Jan 2020 03:48:12.000,177.704,3.636,1926.540702
7 Jan 2020 03:48:13.000,177.560,3.693,1921.305546
7 Jan 2020 03:48:14.000,177.416,3.750,1916.081926
7 Jan 2020 03:48:15.000,177.270,3.808,1910.869941
7 Jan 2020 03:48:16.000,177.124,3.866,1905.669695
7 Jan 2020 03:48:17.000,176.976,3.923,1900.481291
7 Jan 2020 03:48:18.000,176.828,3.981,1895.304832
7 Jan 2020 03:48:19.000,176.680,4.039,1890.140424
7 Jan 2020 03:48:20.000,176.530,4.096,1884.988171
7 Jan 2020 03:48:21.000,176.379,4.154,1879.848182
7 Jan 2020 03:48:22.000,176.228,4.212,1874.720563
7 Jan 2020 03:48:23.000,176.076,4.270,1869.605422
7 Jan 2020 03:48:24.000,175.923,4.328,1864.502869
7 Jan 2020 03:48:25.000,175.769,4.386,1859.413015
7 Jan 2020 03:48:26.000,175.614,4.444,1854.335970
7 Jan 2020 03:48:27.000,175.458,4.503,1849.271846
7 Jan 2020 03:48:28.000,175.301,4.561,1844.220757
7 Jan 2020 03:48:29.000,175.144,4.619,1839.182816
7 Jan 2020 03:48:30.000,174.985,4.677,1834.158138
7 Jan 2020 03:48:31.000,174.826,4.736,1829.146840
7 Jan 2020 03:48:32.000,174.666,4.794,1824.149038
7 Jan 2020 03:48:33.000,174.504,4.853,1819.164849
7 Jan 2020 03:48:34.000,174.342,4.911,1814.194392
7 Jan 2020 03:48:35.000,174.179,4.970,1809.237788
7 Jan 2020 03:48:36.000,174.015,5.028,1804.295155
7 Jan 2020 03:48:37.000,173.850,5.087,1799.366617
7 Jan 2020 03:48:38.000,173.684,5.146,1794.452296
7 Jan 2020 03:48:39.000,173.518,5.204,1789.552314
7 Jan 2020 03:48:40.000,173.350,5.263,1784.666798
7 Jan 2020 03:48:41.000,173.181,5.322,1779.795871
7 Jan 2020 03:48:42.000,173.012,5.380,1774.939661
7 Jan 2020 03:48:43.000,172.841,5.439,1770.098295
7 Jan 2020 03:48:44.000,172.669,5.498,1765.271902
7 Jan 2020 03:48:45.000,172.497,5.557,1760.460610
7 Jan 2020 03:48:46.000,172.323,5.616,1755.664551
7 Jan 2020 03:48:47.000,172.148,5.675,1750.883856
7 Jan 2020 03:48:48.000,171.973,5.734,1746.118657
7 Jan 2020 03:48:49.000,171.796,5.793,1741.369087
7 Jan 2020 03:48:50.000,171.619,5.852,1736.635282
7 Jan 2020 03:48:51.000,171.440,5.911,1731.917375
7 Jan 2020 03:48:52.000,171.260,5.970,1727.215506
7 Jan 2020 03:48:53.000,171.080,6.029,1722.529810
7 Jan 2020 03:48:54.000,170.898,6.088,1717.860425
7 Jan 2020 03:48:55.000,170.715,6.147,1713.207492
7 Jan 2020 03:48:56.000,170.531,6.206,1708.571151
7 Jan 2020 03:48:57.000,170.347,6.265,1703.951544
7 Jan 2020 03:48:58.000,170.161,6.324,1699.348812
7 Jan 2020 03:48:59.000,169.974,6.383,1694.763100
7 Jan 2020 03:49:00.000,169.786,6.442,1690.194552
7 Jan 2020 03:49:01.000,169.597,6.501,1685.643314
7 Jan 2020 03:49:02.000,169.406,6.560,1681.109532
7 Jan 2020 03:49:03.000,169.215,6.619,1676.593354
7 Jan 2020 03:49:04.000,169.023,6.677,1672.094928
7 Jan 2020 03:49:05.000,168.829,6.736,1667.614404
7 Jan 2020 03:49:06.000,168.635,6.795,1663.151932
7 Jan 2020 03:49:07.000,168.439,6.854,1658.707665
7 Jan 2020 03:49:08.000,168.243,6.913,1654.281754
7 Jan 2020 03:49:09.000,168.045,6.972,1649.874355
7 Jan 2020 03:49:10.000,167.846,7.031,1645.485619
7 Jan 2020 03:49:11.000,167.646,7.089,1641.115704
7 Jan 2020 03:49:12.000,167.444,7.148,1636.764765
7 Jan 2020 03:49:13.000,167.242,7.207,1632.432962
7 Jan 2020 03:49:14.000,167.039,7.265,1628.120450
7 Jan 2020 03:49:15.000,166.834,7.324,1623.827391
7 Jan 2020 03:49:16.000,166.628,7.383,1619.553945
7 Jan 2020 03:49:17.000,166.421,7.441,1615.300272
7 Jan 2020 03:49:18.000,166.213,7.499,1611.066536
7 Jan 2020 03:49:19.000,166.004,7.558,1606.852898
7 Jan 2020 03:49:20.000,165.794,7.616,1602.659525
7 Jan 2020 03:49:21.000,165.582,7.674,1598.486580
7 Jan 2020 03:49:22.000,165.369,7.732,1594.334229
7 Jan 2020 03:49:23.000,165.155,7.790,1590.202641
7 Jan 2020 03:49:24.000,164.940,7.848,1586.091980
7 Jan 2020 03:49:25.000,164.724,7.906,1582.002418
7 Jan 2020 03:49:26.000,164.506,7.964,1577.934123
7 Jan 2020 03:49:27.000,164.288,8.022,1573.887265
7 Jan 2020 03:49:28.000,164.068,8.079,1569.862016
7 Jan 2020 03:49:29.000,163.847,8.137,1565.858548
7 Jan 2020 03:49:30.000,163.625,8.194,1561.877033
7 Jan 2020 03:49:31.000,163.401,8.252,1557.917646
7 Jan 2020 03:49:32.000,163.176,8.309,1553.980560
7 Jan 2020 03:49:33.000,162.951,8.366,1550.065950
7 Jan 2020 03:49:34.000,162.723,8.423,1546.173994
7 Jan 2020 03:49:35.000,162.495,8.480,1542.304867
7 Jan 2020 03:49:36.000,162.266,8.536,1538.458747
7 Jan 2020 03:49:37.000,162.035,8.593,1534.635812
7 Jan 2020 03:49:38.000,161.803,8.649,1530.836242
7 Jan 2020 03:49:39.000,161.570,8.706,1527.060214
7 Jan 2020 03:49:40.000,161.335,8.762,1523.307910
7 Jan 2020 03:49:41.000,161.099,8.818,1519.579510
7 Jan 2020 03:49:42.000,160.862,8.873,1515.875197
7 Jan 2020 03:49:43.000,160.624,8.929,1512.195151
7 Jan 2020 03:49:44.000,160.385,8.984,1508.539555
7 Jan 2020 03:49:45.000,160.144,9.040,1504.908593
7 Jan 2020 03:49:46.000,159.902,9.095,1501.302449
7 Jan 2020 03:49:47.000,159.659,9.150,1497.721305
7 Jan 2020 03:49:48.000,159.415,9.205,1494.165347
7 Jan 2020 03:49:49.000,159.169,9.259,1490.634760
7 Jan 2020 03:49:50.000,158.922,9.313,1487.129730
7 Jan 2020 03:49:51.000,158.674,9.367,1483.650442
7 Jan 2020 03:49:52.000,158.425,9.421,1480.197084
7 Jan 2020 03:49:53.000,158.174,9.475,1476.769840
7 Jan 2020 03:49:54.000,157.922,9.528,1473.368898
7 Jan 2020 03:49:55.000,157.669,9.582,1469.994445
7 Jan 2020 03:49:56.000,157.415,9.635,1466.646669
7 Jan 2020 03:49:57.000,157.159,9.687,1463.325758
7 Jan 2020 03:49:58.000,156.902,9.740,1460.031898
7 Jan 2020 03:49:59.000,156.644,9.792,1456.765280
7 Jan 2020 03:50:00.000,156.385,9.844,1453.526091
7 Jan 2020 03:50:01.000,156.124,9.896,1450.314518
7 Jan 2020 03:50:02.000,155.862,9.947,1447.130749
7 Jan 2020 03:50:03.000,155.599,9.998,1443.974974
7 Jan 2020 03:50:04.000,155.335,10.049,1440.847381
7 Jan 2020 03:50:05.000,155.069,10.100,1437.748157
7 Jan 2020 03:50:06.000,154.802,10.150,1434.677492
7 Jan 2020 03:50:07.000,154.534,10.200,1431.635573
7 Jan 2020 03:50:08.000,154.265,10.250,1428.622587
7 Jan 2020 03:50:09.000,153.994,10.299,1425.638723
7 Jan 2020 03:50:10.000,153.723,10.348,1422.684168
7 Jan 2020 03:50:11.000,153.450,10.397,1419.759109
7 Jan 2020 03:50:12.000,153.176,10.445,1416.863733
7 Jan 2020 03:50:13.000,152.900,10.493,1413.998225
7 Jan 2020 03:50:14.000,152.624,10.541,1411.162773
7 Jan 2020 03:50:15.000,152.346,10.588,1408.357562
7 Jan 2020 03:50:16.000,152.067,10.635,1405.582776
7 Jan 2020 03:50:17.000,151.787,10.681,1402.838601
7 Jan 2020 03:50:18.000,151.505,10.728,1400.125217
7 Jan 2020 03:50:19.000,151.223,10.773,1397.442813
7 Jan 2020 03:50:20.000,150.939,10.819,1394.791568
7 Jan 2020 03:50:21.000,150.654,10.864,1392.171665
7 Jan 2020 03:50:22.000,150.368,10.908,1389.583284
7 Jan 2020 03:50:23.000,150.081,10.952,1387.026606
7 Jan 2020 03:50:24.000,149.793,10.996,1384.501809
7 Jan 2020 03:50:25.000,149.503,11.039,1382.009073
7 Jan 2020 03:50:26.000,149.213,11.082,1379.548573
7 Jan 2020 03:50:27.000,148.921,11.125,1377.120488
7 Jan 2020 03:50:28.000,148.628,11.167,1374.724993
7 Jan 2020 03:50:29.000,148.334,11.208,1372.362261
7 Jan 2020 03:50:30.000,148.039,11.249,1370.032465
7 Jan 2020 03:50:31.000,147.743,11.290,1367.735775
7 Jan 2020 03:50:32.000,147.446,11.330,1365.472366
7 Jan 2020 03:50:33.000,147.147,11.370,1363.242404
7 Jan 2020 03:50:34.000,146.848,11.409,1361.046057
7 Jan 2020 03:50:35.000,146.548,11.447,1358.883489
7 Jan 2020 03:50:36.000,146.246,11.486,1356.754869
7 Jan 2020 03:50:37.000,145.944,11.523,1354.660358
7 Jan 2020 03:50:38.000,145.640,11.560,1352.600116
7 Jan 2020 03:50:39.000,145.336,11.597,1350.574307
7 Jan 2020 03:50:40.000,145.030,11.633,1348.583086
7 Jan 2020 03:50:41.000,144.724,11.668,1346.626609
7 Jan 2020 03:50:42.000,144.416,11.703,1344.705033
7 Jan 2020 03:50:43.000,144.108,11.738,1342.818510
7 Jan 2020 03:50:44.000,143.799,11.771,1340.967188
7 Jan 2020 03:50:45.000,143.488,11.805,1339.151221
7 Jan 2020 03:50:46.000,143.177,11.837,1337.370752
7 Jan 2020 03:50:47.000,142.865,11.870,1335.625925
7 Jan 2020 03:50:48.000,142.552,11.901,1333.916885
7 Jan 2020 03:50:49.000,142.238,11.932,1332.243771
7 Jan 2020 03:50:50.000,141.924,11.962,1330.606723
7 Jan 2020 03:50:51.000,141.608,11.992,1329.005873
7 Jan 2020 03:50:52.000,141.292,12.021,1327.441359
7 Jan 2020 03:50:53.000,140.974,12.050,1325.913309
7 Jan 2020 03:50:54.000,140.657,12.078,1324.421854
7 Jan 2020 03:50:55.000,140.338,12.105,1322.967116
7 Jan 2020 03:50:56.000,140.018,12.131,1321.549224
7 Jan 2020 03:50:57.000,139.698,12.157,1320.168295
7 Jan 2020 03:50:58.000,139.377,12.183,1318.824450
7 Jan 2020 03:50:59.000,139.055,12.208,1317.517802
7 Jan 2020 03:51:00.000,138.733,12.232,1316.248467
7 Jan 2020 03:51:01.000,138.410,12.255,1315.016551
7 Jan 2020 03:51:02.000,138.086,12.278,1313.822167
7 Jan 2020 03:51:03.000,137.762,12.300,1312.665413
7 Jan 2020 03:51:04.000,137.437,12.321,1311.546395
7 Jan 2020 03:51:05.000,137.111,12.342,1310.465212
7 Jan 2020 03:51:06.000,136.785,12.362,1309.421956
7 Jan 2020 03:51:07.000,136.458,12.381,1308.416721
7 Jan 2020 03:51:08.000,136.131,12.400,1307.449601
7 Jan 2020 03:51:09.000,135.803,12.418,1306.520675
7 Jan 2020 03:51:10.000,135.475,12.435,1305.630030
7 Jan 2020 03:51:11.000,135.146,12.451,1304.777748
7 Jan 2020 03:51:12.000,134.817,12.467,1303.963902
7 Jan 2020 03:51:13.000,134.487,12.482,1303.188566
7 Jan 2020 03:51:14.000,134.157,12.496,1302.451812
7 Jan 2020 03:51:15.000,133.827,12.510,1301.753710
7 Jan 2020 03:51:16.000,133.496,12.523,1301.094317
7 Jan 2020 03:51:17.000,133.164,12.535,1300.473696
7 Jan 2020 03:51:18.000,132.833,12.547,1299.891904
7 Jan 2020 03:51:19.000,132.501,12.557,1299.348995
7 Jan 2020 03:51:20.000,132.169,12.567,1298.845022
7 Jan 2020 03:51:21.000,131.836,12.577,1298.380025
7 Jan 2020 03:51:22.000,131.504,12.585,1297.954051
7 Jan 2020 03:51:23.000,131.171,12.593,1297.567138
7 Jan 2020 03:51:24.000,130.837,12.600,1297.219323
7 Jan 2020 03:51:25.000,130.504,12.606,1296.910638
7 Jan 2020 03:51:26.000,130.170,12.612,1296.641113
7 Jan 2020 03:51:27.000,129.837,12.617,1296.410772
7 Jan 2020 03:51:28.000,129.503,12.621,1296.219640
7 Jan 2020 03:51:29.000,129.169,12.624,1296.067730
7 Jan 2020 03:51:30.000,128.835,12.627,1295.955058
7 Jan 2020 03:51:31.000,128.501,12.628,1295.881637
7 Jan 2020 03:51:32.000,128.167,12.630,1295.847473
7 Jan 2020 03:51:33.000,127.833,12.630,1295.852570
7 Jan 2020 03:51:34.000,127.499,12.629,1295.896928
7 Jan 2020 03:51:35.000,127.165,12.628,1295.980544
7 Jan 2020 03:51:36.000,126.831,12.626,1296.103410
7 Jan 2020 03:51:37.000,126.497,12.624,1296.265516
7 Jan 2020 03:51:38.000,126.163,12.620,1296.466847
7 Jan 2020 03:51:39.000,125.830,12.616,1296.707383
7 Jan 2020 03:51:40.000,125.496,12.611,1296.987108
7 Jan 2020 03:51:41.000,125.163,12.605,1297.305994
7 Jan 2020 03:51:42.000,124.830,12.599,1297.664012
7 Jan 2020 03:51:43.000,124.497,12.592,1298.061130
7 Jan 2020 03:51:44.000,124.164,12.584,1298.497312
7 Jan 2020 03:51:45.000,123.832,12.575,1298.972519
7 Jan 2020 03:51:46.000,123.499,12.566,1299.486708
7 Jan 2020 03:51:47.000,123.167,12.556,1300.039830
7 Jan 2020 03:51:48.000,122.836,12.545,1300.631841
7 Jan 2020 03:51:49.000,122.505,12.533,1301.262685
7 Jan 2020 03:51:50.000,122.174,12.521,1301.932305
7 Jan 2020 03:51:51.000,121.843,12.508,1302.640641
7 Jan 2020 03:51:52.000,121.513,12.494,1303.387627
7 Jan 2020 03:51:53.000,121.184,12.480,1304.173201
7 Jan 2020 03:51:54.000,120.855,12.465,1304.997292
7 Jan 2020 03:51:55.000,120.526,12.449,1305.859826
7 Jan 2020 03:51:56.000,120.198,12.432,1306.760722
7 Jan 2020 03:51:57.000,119.870,12.415,1307.699908
7 Jan 2020 03:51:58.000,119.543,12.397,1308.677297
7 Jan 2020 03:51:59.000,119.216,12.378,1309.692800
7 Jan 2020 03:52:00.000,118.890,12.359,1310.746333
7 Jan 2020 03:52:01.000,118.565,12.339,1311.837803
7 Jan 2020 03:52:02.000,118.240,12.318,1312.967109
7 Jan 2020 03:52:03.000,117.915,12.296,1314.134161
7 Jan 2020 03:52:04.000,117.592,12.274,1315.338849
7 Jan 2020 03:52:05.000,117.269,12.252,1316.581077
7 Jan 2020 03:52:06.000,116.947,12.228,1317.860735
7 Jan 2020 03:52:07.000,116.625,12.204,1319.177708
7 Jan 2020 03:52:08.000,116.304,12.179,1320.531892
7 Jan 2020 03:52:09.000,115.984,12.154,1321.923163
7 Jan 2020 03:52:10.000,115.665,12.128,1323.351411
7 Jan 2020 03:52:11.000,115.346,12.101,1324.816508
7 Jan 2020 03:52:12.000,115.028,12.074,1326.318337
7 Jan 2020 03:52:13.000,114.711,12.046,1327.856766
7 Jan 2020 03:52:14.000,114.395,12.017,1329.431673
7 Jan 2020 03:52:15.000,114.080,11.988,1331.042921
7 Jan 2020 03:52:16.000,113.765,11.958,1332.690383
7 Jan 2020 03:52:17.000,113.451,11.928,1334.373917
7 Jan 2020 03:52:18.000,113.139,11.897,1336.093391
7 Jan 2020 03:52:19.000,112.827,11.866,1337.848660
7 Jan 2020 03:52:20.000,112.516,11.833,1339.639584
7 Jan 2020 03:52:21.000,112.206,11.801,1341.466021
7 Jan 2020 03:52:22.000,111.896,11.767,1343.327820
7 Jan 2020 03:52:23.000,111.588,11.734,1345.224837
7 Jan 2020 03:52:24.000,111.281,11.699,1347.156916
7 Jan 2020 03:52:25.000,110.975,11.664,1349.123908
7 Jan 2020 03:52:26.000,110.669,11.629,1351.125662
7 Jan 2020 03:52:27.000,110.365,11.593,1353.162014
7 Jan 2020 03:52:28.000,110.062,11.556,1355.232811
7 Jan 2020 03:52:29.000,109.759,11.519,1357.337896
7 Jan 2020 03:52:30.000,109.458,11.482,1359.477101
7 Jan 2020 03:52:31.000,109.158,11.443,1361.650266
7 Jan 2020 03:52:32.000,108.859,11.405,1363.857228
7 Jan 2020 03:52:33.000,108.561,11.366,1366.097824
7 Jan 2020 03:52:34.000,108.264,11.326,1368.371879
7 Jan 2020 03:52:35.000,107.968,11.286,1370.679228
7 Jan 2020 03:52:36.000,107.673,11.246,1373.019702
7 Jan 2020 03:52:37.000,107.379,11.205,1375.393131
7 Jan 2020 03:52:38.000,107.087,11.163,1377.799338
7 Jan 2020 03:52:39.000,106.795,11.121,1380.238150
7 Jan 2020 03:52:40.000,106.505,11.079,1382.709394
7 Jan 2020 03:52:41.000,106.216,11.036,1385.212893
7 Jan 2020 03:52:42.000,105.928,10.993,1387.748471
7 Jan 2020 03:52:43.000,105.641,10.949,1390.315952
7 Jan 2020 03:52:44.000,105.355,10.905,1392.915151
7 Jan 2020 03:52:45.000,105.070,10.861,1395.545891
7 Jan 2020 03:52:46.000,104.787,10.816,1398.207992
7 Jan 2020 03:52:47.000,104.504,10.771,1400.901272
7 Jan 2020 03:52:48.000,104.223,10.725,1403.625550
7 Jan 2020 03:52:49.000,103.943,10.679,1406.380642
7 Jan 2020 03:52:50.000,103.665,10.632,1409.166364
7 Jan 2020 03:52:51.000,103.387,10.586,1411.982533
7 Jan 2020 03:52:52.000,103.111,10.538,1414.828963
7 Jan 2020 03:52:53.000,102.836,10.491,1417.705474
7 Jan 2020 03:52:54.000,102.562,10.443,1420.611872
7 Jan 2020 03:52:55.000,102.289,10.395,1423.547975
7 Jan 2020 03:52:56.000,102.018,10.346,1426.513597
7 Jan 2020 03:52:57.000,101.748,10.297,1429.508550
7 Jan 2020 03:52:58.000,101.479,10.248,1432.532648
7 Jan 2020 03:52:59.000,101.211,10.199,1435.585703
7 Jan 2020 03:53:00.000,100.945,10.149,1438.667528
7 Jan 2020 03:53:01.000,100.679,10.099,1441.777936
7 Jan 2020 03:53:02.000,100.415,10.048,1444.916733
7 Jan 2020 03:53:03.000,100.153,9.998,1448.083741
7 Jan 2020 03:53:04.000,99.891,9.947,1451.278767
7 Jan 2020 03:53:05.000,99.631,9.895,1454.501624
7 Jan 2020 03:53:06.000,99.372,9.844,1457.752123
7 Jan 2020 03:53:07.000,99.114,9.792,1461.030077
7 Jan 2020 03:53:08.000,98.857,9.740,1464.335297
7 Jan 2020 03:53:09.000,98.602,9.688,1467.667596
7 Jan 2020 03:53:10.000,98.348,9.635,1471.026787
7 Jan 2020 03:53:11.000,98.095,9.582,1474.412681
7 Jan 2020 03:53:12.000,97.844,9.529,1477.825093
7 Jan 2020 03:53:13.000,97.593,9.476,1481.263831
7 Jan 2020 03:53:14.000,97.344,9.423,1484.728717
7 Jan 2020 03:53:15.000,97.097,9.369,1488.219559
7 Jan 2020 03:53:16.000,96.850,9.315,1491.736173
7 Jan 2020 03:53:17.000,96.605,9.261,1495.278372
7 Jan 2020 03:53:18.000,96.361,9.206,1498.845972
7 Jan 2020 03:53:19.000,96.118,9.152,1502.438784
7 Jan 2020 03:53:20.000,95.877,9.097,1506.056631
7 Jan 2020 03:53:21.000,95.636,9.042,1509.699326
7 Jan 2020 03:53:22.000,95.397,8.987,1513.366685
7 Jan 2020 03:53:23.000,95.160,8.932,1517.058525
7 Jan 2020 03:53:24.000,94.923,8.877,1520.774661
7 Jan 2020 03:53:25.000,94.688,8.821,1524.514918
7 Jan 2020 03:53:26.000,94.454,8.765,1528.279112
7 Jan 2020 03:53:27.000,94.221,8.709,1532.067061
7 Jan 2020 03:53:28.000,93.989,8.653,1535.878583
7 Jan 2020 03:53:29.000,93.759,8.597,1539.713505
7 Jan 2020 03:53:30.000,93.530,8.541,1543.571646
7 Jan 2020 03:53:31.000,93.302,8.484,1547.452823
7 Jan 2020 03:53:32.000,93.075,8.428,1551.356867
7 Jan 2020 03:53:33.000,92.850,8.371,1555.283598
7 Jan 2020 03:53:34.000,92.626,8.314,1559.232837
7 Jan 2020 03:53:35.000,92.403,8.257,1563.204416
7 Jan 2020 03:53:36.000,92.181,8.200,1567.198157
7 Jan 2020 03:53:37.000,91.960,8.143,1571.213887
7 Jan 2020 03:53:38.000,91.741,8.086,1575.251429
7 Jan 2020 03:53:39.000,91.523,8.028,1579.310620
7 Jan 2020 03:53:40.000,91.306,7.971,1583.391281
7 Jan 2020 03:53:41.000,91.090,7.913,1587.493249
7 Jan 2020 03:53:42.000,90.875,7.856,1591.616351
7 Jan 2020 03:53:43.000,90.662,7.798,1595.760416
7 Jan 2020 03:53:44.000,90.450,7.740,1599.925283
7 Jan 2020 03:53:45.000,90.238,7.682,1604.110783
7 Jan 2020 03:53:46.000,90.029,7.624,1608.316745
7 Jan 2020 03:53:47.000,89.820,7.566,1612.543012
7 Jan 2020 03:53:48.000,89.612,7.508,1616.789413
7 Jan 2020 03:53:49.000,89.406,7.450,1621.055793
7 Jan 2020 03:53:50.000,89.201,7.392,1625.341986
7 Jan 2020 03:53:51.000,88.997,7.333,1629.647827
7 Jan 2020 03:53:52.000,88.794,7.275,1633.973164
7 Jan 2020 03:53:53.000,88.592,7.217,1638.317829
7 Jan 2020 03:53:54.000,88.391,7.158,1642.681672
7 Jan 2020 03:53:55.000,88.192,7.100,1647.064529
7 Jan 2020 03:53:56.000,87.993,7.041,1651.466250
7 Jan 2020 03:53:57.000,87.796,6.983,1655.886674
7 Jan 2020 03:53:58.000,87.600,6.924,1660.325652
7 Jan 2020 03:53:59.000,87.405,6.866,1664.783025
7 Jan 2020 03:54:00.000,87.211,6.807,1669.258647
7 Jan 2020 03:54:01.000,87.018,6.748,1673.752359
7 Jan 2020 03:54:02.000,86.826,6.690,1678.264020
7 Jan 2020 03:54:03.000,86.635,6.631,1682.793471
7 Jan 2020 03:54:04.000,86.446,6.572,1687.340573
7 Jan 2020 03:54:05.000,86.257,6.513,1691.905170
7 Jan 2020 03:54:06.000,86.070,6.455,1696.487123
7 Jan 2020 03:54:07.000,85.883,6.396,1701.086280
7 Jan 2020 03:54:08.000,85.698,6.337,1705.702504
7 Jan 2020 03:54:09.000,85.514,6.278,1710.335644
7 Jan 2020 03:54:10.000,85.331,6.220,1714.985565
7 Jan 2020 03:54:11.000,85.148,6.161,1719.652119
7 Jan 2020 03:54:12.000,84.967,6.102,1724.335172
7 Jan 2020 03:54:13.000,84.787,6.043,1729.034578
7 Jan 2020 03:54:14.000,84.608,5.985,1733.750203
7 Jan 2020 03:54:15.000,84.430,5.926,1738.481913
7 Jan 2020 03:54:16.000,84.253,5.867,1743.229563
7 Jan 2020 03:54:17.000,84.077,5.808,1747.993028
7 Jan 2020 03:54:18.000,83.902,5.750,1752.772164
7 Jan 2020 03:54:19.000,83.728,5.691,1757.566842
7 Jan 2020 03:54:20.000,83.555,5.632,1762.376935
7 Jan 2020 03:54:21.000,83.383,5.574,1767.202302
7 Jan 2020 03:54:22.000,83.212,5.515,1772.042821
7 Jan 2020 03:54:23.000,83.042,5.457,1776.898357
7 Jan 2020 03:54:24.000,82.873,5.398,1781.768783
7 Jan 2020 03:54:25.000,82.705,5.339,1786.653977
7 Jan 2020 03:54:26.000,82.538,5.281,1791.553806
7 Jan 2020 03:54:27.000,82.372,5.222,1796.468150
7 Jan 2020 03:54:28.000,82.207,5.164,1801.396878
7 Jan 2020 03:54:29.000,82.043,5.106,1806.339872
7 Jan 2020 03:54:30.000,81.879,5.047,1811.297011
7 Jan 2020 03:54:31.000,81.717,4.989,1816.268168
7 Jan 2020 03:54:32.000,81.556,4.931,1821.253225
7 Jan 2020 03:54:33.000,81.395,4.872,1826.252068
7 Jan 2020 03:54:34.000,81.236,4.814,1831.264569
7 Jan 2020 03:54:35.000,81.077,4.756,1836.290616
7 Jan 2020 03:54:36.000,80.919,4.698,1841.330095
7 Jan 2020 03:54:37.000,80.762,4.640,1846.382883
7 Jan 2020 03:54:38.000,80.606,4.582,1851.448869
7 Jan 2020 03:54:39.000,80.451,4.524,1856.527944
7 Jan 2020 03:54:40.000,80.297,4.466,1861.619986
7 Jan 2020 03:54:41.000,80.144,4.408,1866.724889
7 Jan 2020 03:54:42.000,79.991,4.350,1871.842540
7 Jan 2020 03:54:43.000,79.840,4.292,1876.972833
7 Jan 2020 03:54:44.000,79.689,4.234,1882.115653
7 Jan 2020 03:54:45.000,79.539,4.177,1887.270894
7 Jan 2020 03:54:46.000,79.391,4.119,1892.438452
7 Jan 2020 03:54:47.000,79.242,4.061,1897.618215
7 Jan 2020 03:54:48.000,79.095,4.004,1902.810079
7 Jan 2020 03:54:49.000,78.949,3.946,1908.013941
7 Jan 2020 03:54:50.000,78.803,3.889,1913.229700
7 Jan 2020 03:54:51.000,78.658,3.832,1918.457246
7 Jan 2020 03:54:52.000,78.514,3.774,1923.696480
7 Jan 2020 03:54:53.000,78.371,3.717,1928.947302
7 Jan 2020 03:54:54.000,78.229,3.660,1934.209614
7 Jan 2020 03:54:55.000,78.087,3.603,1939.483311
7 Jan 2020 03:54:56.000,77.947,3.546,1944.768296
7 Jan 2020 03:54:57.000,77.807,3.489,1950.064473
7 Jan 2020 03:54:58.000,77.668,3.432,1955.371747
7 Jan 2020 03:54:59.000,77.529,3.375,1960.690016
7 Jan 2020 03:55:00.000,77.392,3.318,1966.019188
7 Jan 2020 03:55:01.000,77.255,3.261,1971.359168
7 Jan 2020 03:55:02.000,77.119,3.205,1976.709862
7 Jan 2020 03:55:03.000,76.984,3.148,1982.071183
7 Jan 2020 03:55:04.000,76.849,3.092,1987.443029
7 Jan 2020 03:55:05.000,76.716,3.035,1992.825314
7 Jan 2020 03:55:06.000,76.583,2.979,1998.217946
7 Jan 2020 03:55:07.000,76.450,2.922,2003.620841
7 Jan 2020 03:55:08.000,76.319,2.866,2009.033901
7 Jan 2020 03:55:09.000,76.188,2.810,2014.457043
7 Jan 2020 03:55:10.000,76.058,2.754,2019.890179
7 Jan 2020 03:55:11.000,75.929,2.698,2025.333222
7 Jan 2020 03:55:12.000,75.800,2.642,2030.786086
7 Jan 2020 03:55:13.000,75.672,2.586,2036.248690
7 Jan 2020 03:55:14.000,75.545,2.530,2041.720942
7 Jan 2020 03:55:15.000,75.419,2.474,2047.202763
7 Jan 2020 03:55:16.000,75.293,2.419,2052.694069
7 Jan 2020 03:55:17.000,75.168,2.363,2058.194778
7 Jan 2020 03:55:18.000,75.044,2.307,2063.704809
7 Jan 2020 03:55:19.000,74.920,2.252,2069.224084
7 Jan 2020 03:55:20.000,74.797,2.197,2074.752516
7 Jan 2020 03:55:21.000,74.675,2.141,2080.290030
7 Jan 2020 03:55:22.000,74.553,2.086,2085.836547
7 Jan 2020 03:55:23.000,74.432,2.031,2091.391989
7 Jan 2020 03:55:24.000,74.312,1.976,2096.956278
7 Jan 2020 03:55:25.000,74.192,1.921,2102.529342
7 Jan 2020 03:55:26.000,74.073,1.866,2108.111097
7 Jan 2020 03:55:27.000,73.955,1.811,2113.701472
7 Jan 2020 03:55:28.000,73.837,1.756,2119.300392
7 Jan 2020 03:55:29.000,73.720,1.701,2124.907784
7 Jan 2020 03:55:30.000,73.604,1.647,2130.523573
7 Jan 2020 03:55:31.000,73.488,1.592,2136.147687
7 Jan 2020 03:55:32.000,73.373,1.538,2141.780055
7 Jan 2020 03:55:33.000,73.258,1.483,2147.420608
7 Jan 2020 03:55:34.000,73.144,1.429,2153.069269
7 Jan 2020 03:55:35.000,73.031,1.374,2158.725970
7 Jan 2020 03:55:36.000,72.918,1.320,2164.390643
7 Jan 2020 03:55:37.000,72.806,1.266,2170.063218
7 Jan 2020 03:55:38.000,72.695,1.212,2175.743627
7 Jan 2020 03:55:39.000,72.584,1.158,2181.431803
7 Jan 2020 03:55:40.000,72.474,1.104,2187.127677
7 Jan 2020 03:55:41.000,72.364,1.050,2192.831185
7 Jan 2020 03:55:42.000,72.255,0.997,2198.542263
7 Jan 2020 03:55:43.000,72.147,0.943,2204.260839
7 Jan 2020 03:55:44.000,72.039,0.889,2209.986851
7 Jan 2020 03:55:45.000,71.931,0.836,2215.720236
7 Jan 2020 03:55:46.000,71.825,0.782,2221.460930
7 Jan 2020 03:55:47.000,71.718,0.729,2227.208869
7 Jan 2020 03:55:48.000,71.613,0.676,2232.963991
7 Jan 2020 03:55:49.000,71.508,0.622,2238.726234
7 Jan 2020 03:55:50.000,71.403,0.569,2244.495537
7 Jan 2020 03:55:51.000,71.299,0.516,2250.271838
7 Jan 2020 03:55:52.000,71.196,0.463,2256.055078
7 Jan 2020 03:55:53.000,71.093,0.410,2261.845196
7 Jan 2020 03:55:54.000,70.991,0.357,2267.642136
7 Jan 2020 03:55:55.000,70.889,0.305,2273.445833
7 Jan 2020 03:55:56.000,70.788,0.252,2279.256232
7 Jan 2020 03:55:57.000,70.687,0.199,2285.073275
7 Jan 2020 03:55:58.000,70.587,0.147,2290.896904
7 Jan 2020 03:55:59.000,70.487,0.094,2296.727064
7 Jan 2020 03:56:00.000,70.388,0.042,2302.563697
7 Jan 2020 03:56:01.000,70.289,-0.010,2308.406748
7 Jan 2020 03:56:01.864,70.204,-0.056,2313.460994
7 Jan 2020 05:22:19.666,238.569,-0.056,2305.181670
7 Jan 2020 05:22:20.000,238.577,-0.035,2302.887737
7 Jan 2020 05:22:21.000,238.603,0.027,2296.021315
7 Jan 2020 05:22:22.000,238.629,0.089,2289.155258
7 Jan 2020 05:22:23.000,238.655,0.151,2282.289574
7 Jan 2020 05:22:24.000,238.681,0.214,2275.424280
7 Jan 2020 05:22:25.000,238.707,0.276,2268.559385
7 Jan 2020 05:22:26.000,238.733,0.339,2261.694898
7 Jan 2020 05:22:27.000,238.760,0.402,2254.830836
7 Jan 2020 05:22:28.000,238.787,0.465,2247.967209
7 Jan 2020 05:22:29.000,238.813,0.528,2241.104028
7 Jan 2020 05:22:30.000,238.840,0.592,2234.241302
7 Jan 2020 05:22:31.000,238.867,0.656,2227.379050
7 Jan 2020 05:22:32.000,238.895,0.720,2220.517282
7 Jan 2020 05:22:33.000,238.922,0.784,2213.656006
7 Jan 2020 05:22:34.000,238.950,0.848,2206.795241
7 Jan 2020 05:22:35.000,238.977,0.913,2199.934998
7 Jan 2020 05:22:36.000,239.005,0.977,2193.075289
7 Jan 2020 05:22:37.000,239.033,1.042,2186.216123
7 Jan 2020 05:22:38.000,239.062,1.108,2179.357521
7 Jan 2020 05:22:39.000,239.090,1.173,2172.499493
7 Jan 2020 05:22:40.000,239.119,1.239,2165.642049
7 Jan 2020 05:22:41.000,239.147,1.305,2158.785209
7 Jan 2020 05:22:42.000,239.176,1.371,2151.928983
7 Jan 2020 05:22:43.000,239.205,1.437,2145.073385
7 Jan 2020 05:22:44.000,239.235,1.503,2138.218427
7 Jan 2020 05:22:45.000,239.264,1.570,2131.364129
7 Jan 2020 05:22:46.000,239.294,1.637,2124.510502
7 Jan 2020 05:22:47.000,239.324,1.704,2117.657558
7 Jan 2020 05:22:48.000,239.354,1.772,2110.805317
7 Jan 2020 05:22:49.000,239.384,1.839,2103.953791
7 Jan 2020 05:22:50.000,239.414,1.907,2097.102995
7 Jan 2020 05:22:51.000,239.445,1.975,2090.252942
7 Jan 2020 05:22:52.000,239.475,2.044,2083.403652
7 Jan 2020 05:22:53.000,239.506,2.112,2076.555139
7 Jan 2020 05:22:54.000,239.537,2.181,2069.707414
7 Jan 2020 05:22:55.000,239.569,2.250,2062.860501
7 Jan 2020 05:22:56.000,239.600,2.319,2056.014412
7 Jan 2020 05:22:57.000,239.632,2.389,2049.169163
7 Jan 2020 05:22:58.000,239.664,2.459,2042.324767
7 Jan 2020 05:22:59.000,239.696,2.529,2035.481248
7 Jan 2020 05:23:00.000,239.728,2.599,2028.638619
7 Jan 2020 05:23:01.000,239.761,2.670,2021.796894
7 Jan 2020 05:23:02.000,239.794,2.741,2014.956097
7 Jan 2020 05:23:03.000,239.827,2.812,2008.116242
7 Jan 2020 05:23:04.000,239.860,2.883,2001.277346
7 Jan 2020 05:23:05.000,239.893,2.955,1994.439424
7 Jan 2020 05:23:06.000,239.927,3.027,1987.602501
7 Jan 2020 05:23:07.000,239.961,3.099,1980.766592
7 Jan 2020 05:23:08.000,239.995,3.172,1973.931712
7 Jan 2020 05:23:09.000,240.029,3.245,1967.097886
7 Jan 2020 05:23:10.000,240.064,3.318,1960.265130
7 Jan 2020 05:23:11.000,240.098,3.391,1953.433463
7 Jan 2020 05:23:12.000,240.133,3.465,1946.602902
7 Jan 2020 05:23:13.000,240.169,3.539,1939.773472
7 Jan 2020 05:23:14.000,240.204,3.613,1932.945191
7 Jan 2020 05:23:15.000,240.240,3.688,1926.118078
7 Jan 2020 05:23:16.000,240.276,3.763,1919.292150
7 Jan 2020 05:23:17.000,240.312,3.838,1912.467436
7 Jan 2020 05:23:18.000,240.348,3.914,1905.643952
7 Jan 2020 05:23:19.000,240.385,3.989,1898.821717
7 Jan 2020 05:23:20.000,240.422,4.066,1892.000758
7 Jan 2020 05:23:21.000,240.459,4.142,1885.181094
7 Jan 2020 05:23:22.000,240.497,4.219,1878.362747
7 Jan 2020 05:23:23.000,240.535,4.296,1871.545736
7 Jan 2020 05:23:24.000,240.573,4.373,1864.730091
7 Jan 2020 05:23:25.000,240.611,4.451,1857.915831
7 Jan 2020 05:23:26.000,240.649,4.529,1851.102976
7 Jan 2020 05:23:27.000,240.688,4.608,1844.291556
7 Jan 2020 05:23:28.000,240.727,4.687,1837.481592
7 Jan 2020 05:23:29.000,240.767,4.766,1830.673108
7 Jan 2020 05:23:30.000,240.806,4.845,1823.866125
7 Jan 2020 05:23:31.000,240.846,4.925,1817.060674
7 Jan 2020 05:23:32.000,240.887,5.005,1810.256778
7 Jan 2020 05:23:33.000,240.927,5.086,1803.454461
7 Jan 2020 05:23:34.000,240.968,5.167,1796.653748
7 Jan 2020 05:23:35.000,241.009,5.248,1789.854669
7 Jan 2020 05:23:36.000,241.051,5.330,1783.057250
7 Jan 2020 05:23:37.000,241.093,5.412,1776.261516
7 Jan 2020 05:23:38.000,241.135,5.495,1769.467491
7 Jan 2020 05:23:39.000,241.177,5.578,1762.675211
7 Jan 2020 05:23:40.000,241.220,5.661,1755.884699
7 Jan 2020 05:23:41.000,241.263,5.745,1749.095982
7 Jan 2020 05:23:42.000,241.307,5.829,1742.309094
7 Jan 2020 05:23:43.000,241.350,5.913,1735.524061
7 Jan 2020 05:23:44.000,241.394,5.998,1728.740914
7 Jan 2020 05:23:45.000,241.439,6.083,1721.959679
7 Jan 2020 05:23:46.000,241.484,6.169,1715.180393
7 Jan 2020 05:23:47.000,241.529,6.255,1708.403084
7 Jan 2020 05:23:48.000,241.574,6.342,1701.627784
7 Jan 2020 05:23:49.000,241.620,6.429,1694.854522
7 Jan 2020 05:23:50.000,241.666,6.516,1688.083336
7 Jan 2020 05:23:51.000,241.713,6.604,1681.314255
7 Jan 2020 05:23:52.000,241.760,6.693,1674.547315
7 Jan 2020 05:23:53.000,241.807,6.781,1667.782544
7 Jan 2020 05:23:54.000,241.855,6.871,1661.019984
7 Jan 2020 05:23:55.000,241.903,6.960,1654.259667
7 Jan 2020 05:23:56.000,241.952,7.051,1647.501628
7 Jan 2020 05:23:57.000,242.001,7.141,1640.745900
7 Jan 2020 05:23:58.000,242.050,7.233,1633.992526
7 Jan 2020 05:23:59.000,242.100,7.324,1627.241540
7 Jan 2020 05:24:00.000,242.150,7.416,1620.492979
7 Jan 2020 05:24:01.000,242.201,7.509,1613.746879
7 Jan 2020 05:24:02.000,242.252,7.602,1607.003285
7 Jan 2020 05:24:03.000,242.303,7.696,1600.262233
7 Jan 2020 05:24:04.000,242.355,7.790,1593.523763
7 Jan 2020 05:24:05.000,242.407,7.885,1586.787913
7 Jan 2020 05:24:06.000,242.460,7.980,1580.054731
7 Jan 2020 05:24:07.000,242.513,8.076,1573.324254
7 Jan 2020 05:24:08.000,242.567,8.172,1566.596527
7 Jan 2020 05:24:09.000,242.621,8.269,1559.871590
7 Jan 2020 05:24:10.000,242.676,8.367,1553.149491
7 Jan 2020 05:24:11.000,242.731,8.465,1546.430275
7 Jan 2020 05:24:12.000,242.787,8.563,1539.713985
7 Jan 2020 05:24:13.000,242.843,8.662,1533.000665
7 Jan 2020 05:24:14.000,242.899,8.762,1526.290368
7 Jan 2020 05:24:15.000,242.956,8.863,1519.583139
7 Jan 2020 05:24:16.000,243.014,8.964,1512.879027
7 Jan 2020 05:24:17.000,243.072,9.065,1506.178077
7 Jan 2020 05:24:18.000,243.131,9.167,1499.480346
7 Jan 2020 05:24:19.000,243.190,9.270,1492.785883
7 Jan 2020 05:24:20.000,243.250,9.373,1486.094739
7 Jan 2020 05:24:21.000,243.310,9.478,1479.406964
7 Jan 2020 05:24:22.000,243.371,9.582,1472.722617
7 Jan 2020 05:24:23.000,243.433,9.688,1466.041750
7 Jan 2020 05:24:24.000,243.495,9.794,1459.364419
7 Jan 2020 05:24:25.000,243.557,9.900,1452.690681
7 Jan 2020 05:24:26.000,243.621,10.008,1446.020588
7 Jan 2020 05:24:27.000,243.685,10.116,1439.354207
7 Jan 2020 05:24:28.000,243.749,10.225,1432.691594
7 Jan 2020 05:24:29.000,243.814,10.334,1426.032808
7 Jan 2020 05:24:30.000,243.880,10.444,1419.377910
7 Jan 2020 05:24:31.000,243.946,10.555,1412.726966
7 Jan 2020 05:24:32.000,244.013,10.667,1406.080039
7 Jan 2020 05:24:33.000,244.081,10.779,1399.437193
7 Jan 2020 05:24:34.000,244.149,10.892,1392.798494
7 Jan 2020 05:24:35.000,244.218,11.006,1386.164007
7 Jan 2020 05:24:36.000,244.288,11.121,1379.533805
7 Jan 2020 05:24:37.000,244.359,11.236,1372.907956
7 Jan 2020 05:24:38.000,244.430,11.353,1366.286531
7 Jan 2020 05:24:39.000,244.502,11.470,1359.669601
7 Jan 2020 05:24:40.000,244.574,11.588,1353.057238
7 Jan 2020 05:24:41.000,244.648,11.706,1346.449523
7 Jan 2020 05:24:42.000,244.722,11.826,1339.846528
7 Jan 2020 05:24:43.000,244.797,11.946,1333.248332
7 Jan 2020 05:24:44.000,244.872,12.068,1326.655013
7 Jan 2020 05:24:45.000,244.949,12.190,1320.066650
7 Jan 2020 05:24:46.000,245.026,12.313,1313.483331
7 Jan 2020 05:24:47.000,245.104,12.437,1306.905136
7 Jan 2020 05:24:48.000,245.183,12.561,1300.332151
7 Jan 2020 05:24:49.000,245.263,12.687,1293.764463
7 Jan 2020 05:24:50.000,245.344,12.814,1287.202157
7 Jan 2020 05:24:51.000,245.426,12.942,1280.645330
7 Jan 2020 05:24:52.000,245.508,13.070,1274.094071
7 Jan 2020 05:24:53.000,245.592,13.200,1267.548474
7 Jan 2020 05:24:54.000,245.676,13.330,1261.008634
7 Jan 2020 05:24:55.000,245.761,13.462,1254.474647
7 Jan 2020 05:24:56.000,245.848,13.594,1247.946617
7 Jan 2020 05:24:57.000,245.935,13.728,1241.424643
7 Jan 2020 05:24:58.000,246.023,13.863,1234.908829
7 Jan 2020 05:24:59.000,246.112,13.998,1228.399280
7 Jan 2020 05:25:00.000,246.202,14.135,1221.896103
7 Jan 2020 05:25:01.000,246.294,14.273,1215.399406
7 Jan 2020 05:25:02.000,246.386,14.412,1208.909306
7 Jan 2020 05:25:03.000,246.480,14.552,1202.425915
7 Jan 2020 05:25:04.000,246.574,14.693,1195.949350
7 Jan 2020 05:25:05.000,246.670,14.835,1189.479728
7 Jan 2020 05:25:06.000,246.767,14.979,1183.017172
7 Jan 2020 05:25:07.000,246.865,15.123,1176.561802
7 Jan 2020 05:25:08.000,246.964,15.269,1170.113752
7 Jan 2020 05:25:09.000,247.064,15.416,1163.673146
7 Jan 2020 05:25:10.000,247.166,15.565,1157.240117
7 Jan 2020 05:25:11.000,247.269,15.714,1150.814798
7 Jan 2020 05:25:12.000,247.373,15.865,1144.397328
7 Jan 2020 05:25:13.000,247.479,16.017,1137.987846
7 Jan 2020 05:25:14.000,247.586,16.171,1131.586493
7 Jan 2020 05:25:15.000,247.694,16.326,1125.193420
7 Jan 2020 05:25:16.000,247.803,16.482,1118.808774
7 Jan 2020 05:25:17.000,247.914,16.639,1112.432708
7 Jan 2020 05:25:18.000,248.027,16.798,1106.065376
7 Jan 2020 05:25:19.000,248.140,16.958,1099.706938
7 Jan 2020 05:25:20.000,248.256,17.120,1093.357557
7 Jan 2020 05:25:21.000,248.373,17.283,1087.017398
7 Jan 2020 05:25:22.000,248.491,17.448,1080.686627
7 Jan 2020 05:25:23.000,248.611,17.614,1074.365425
7 Jan 2020 05:25:24.000,248.733,17.782,1068.053966
7 Jan 2020 05:25:25.000,248.856,17.951,1061.752429
7 Jan 2020 05:25:26.000,248.981,18.121,1055.461001
7 Jan 2020 05:25:27.000,249.107,18.294,1049.179870
7 Jan 2020 05:25:28.000,249.236,18.468,1042.909229
7 Jan 2020 05:25:29.000,249.366,18.643,1036.649276
7 Jan 2020 05:25:30.000,249.498,18.820,1030.400213
7 Jan 2020 05:25:31.000,249.632,18.999,1024.162247
7 Jan 2020 05:25:32.000,249.768,19.179,1017.935584
7 Jan 2020 05:25:33.000,249.905,19.362,1011.720449
7 Jan 2020 05:25:34.000,250.045,19.546,1005.517057
7 Jan 2020 05:25:35.000,250.187,19.731,999.325635
7 Jan 2020 05:25:36.000,250.330,19.919,993.146414
7 Jan 2020 05:25:37.000,250.476,20.108,986.979630
7 Jan 2020 05:25:38.000,250.624,20.299,980.825525
7 Jan 2020 05:25:39.000,250.774,20.493,974.684345
7 Jan 2020 05:25:40.000,250.927,20.687,968.556344
7 Jan 2020 05:25:41.000,251.082,20.884,962.441781
7 Jan 2020 05:25:42.000,251.239,21.083,956.340919
7 Jan 2020 05:25:43.000,251.398,21.284,950.254030
7 Jan 2020 05:25:44.000,251.560,21.487,944.181391
7 Jan 2020 05:25:45.000,251.725,21.692,938.123286
7 Jan 2020 05:25:46.000,251.892,21.899,932.080004
7 Jan 2020 05:25:47.000,252.061,22.108,926.051844
7 Jan 2020 05:25:48.000,252.234,22.319,920.039108
7 Jan 2020 05:25:49.000,252.409,22.532,914.042109
7 Jan 2020 05:25:50.000,252.587,22.748,908.061165
7 Jan 2020 05:25:51.000,252.768,22.966,902.096601
7 Jan 2020 05:25:52.000,252.952,23.186,896.148752
7 Jan 2020 05:25:53.000,253.139,23.408,890.217960
7 Jan 2020 05:25:54.000,253.329,23.633,884.304573
7 Jan 2020 05:25:55.000,253.522,23.860,878.408952
7 Jan 2020 05:25:56.000,253.718,24.089,872.531461
7 Jan 2020 05:25:57.000,253.918,24.321,866.672478
7 Jan 2020 05:25:58.000,254.121,24.555,860.832386
7 Jan 2020 05:25:59.000,254.328,24.791,855.011578
7 Jan 2020 05:26:00.000,254.538,25.030,849.210459
7 Jan 2020 05:26:01.000,254.752,25.272,843.429441
7 Jan 2020 05:26:02.000,254.970,25.516,837.668946
7 Jan 2020 05:26:03.000,255.191,25.763,831.929408
7 Jan 2020 05:26:04.000,255.417,26.012,826.211269
7 Jan 2020 05:26:05.000,255.646,26.264,820.514986
7 Jan 2020 05:26:06.000,255.880,26.519,814.841019
7 Jan 2020 05:26:07.000,256.118,26.776,809.189845
7 Jan 2020 05:26:08.000,256.361,27.037,803.561953
7 Jan 2020 05:26:09.000,256.608,27.300,797.957840
7 Jan 2020 05:26:10.000,256.859,27.565,792.378019
7 Jan 2020 05:26:11.000,257.116,27.834,786.823011
7 Jan 2020 05:26:12.000,257.377,28.105,781.293352
7 Jan 2020 05:26:13.000,257.643,28.379,775.789595
7 Jan 2020 05:26:14.000,257.915,28.656,770.312292
7 Jan 2020 05:26:15.000,258.192,28.937,764.862024
7 Jan 2020 05:26:16.000,258.474,29.220,759.439376
7 Jan 2020 05:26:17.000,258.762,29.505,754.044952
7 Jan 2020 05:26:18.000,259.055,29.794,748.679371
7 Jan 2020 05:26:19.000,259.355,30.086,743.343256
7 Jan 2020 05:26:20.000,259.660,30.381,738.037256
7 Jan 2020 05:26:21.000,259.972,30.679,732.762031
7 Jan 2020 05:26:22.000,260.290,30.980,727.518257
7 Jan 2020 05:26:23.000,260.615,31.284,722.306627
7 Jan 2020 05:26:24.000,260.946,31.592,717.127842
7 Jan 2020 05:26:25.000,261.285,31.902,711.982626
7 Jan 2020 05:26:26.000,261.631,32.215,706.871723
7 Jan 2020 05:26:27.000,261.984,32.531,701.795880
7 Jan 2020 05:26:28.000,262.345,32.851,696.755874
7 Jan 2020 05:26:29.000,262.713,33.173,691.752492
7 Jan 2020 05:26:30.000,263.090,33.499,686.786544
7 Jan 2020 05:26:31.000,263.475,33.828,681.858847
7 Jan 2020 05:26:32.000,263.869,34.159,676.970248
7 Jan 2020 05:26:33.000,264.271,34.494,672.121599
7 Jan 2020 05:26:34.000,264.683,34.831,667.313779
7 Jan 2020 05:26:35.000,265.104,35.172,662.547686
7 Jan 2020 05:26:36.000,265.534,35.515,657.824224
7 Jan 2020 05:26:37.000,265.974,35.862,653.144332
7 Jan 2020 05:26:38.000,266.425,36.211,648.508950
7 Jan 2020 05:26:39.000,266.886,36.563,643.919049
7 Jan 2020 05:26:40.000,267.358,36.917,639.375615
7 Jan 2020 05:26:41.000,267.841,37.274,634.879645
7 Jan 2020 05:26:42.000,268.335,37.634,630.432165
7 Jan 2020 05:26:43.000,268.842,37.996,626.034209
7 Jan 2020 05:26:44.000,269.360,38.360,621.686836
7 Jan 2020 05:26:45.000,269.891,38.727,617.391118
7 Jan 2020 05:26:46.000,270.435,39.096,613.148142
7 Jan 2020 05:26:47.000,270.992,39.466,608.959020
7 Jan 2020 05:26:48.000,271.563,39.839,604.824871
7 Jan 2020 05:26:49.000,272.148,40.213,600.746839
7 Jan 2020 05:26:50.000,272.747,40.589,596.726077
7 Jan 2020 05:26:51.000,273.362,40.966,592.763751
7 Jan 2020 05:26:52.000,273.991,41.344,588.861051
7 Jan 2020 05:26:53.000,274.637,41.723,585.019170
7 Jan 2020 05:26:54.000,275.298,42.103,581.239318
7 Jan 2020 05:26:55.000,275.976,42.483,577.522720
7 Jan 2020 05:26:56.000,276.671,42.864,573.870607
7 Jan 2020 05:26:57.000,277.384,43.244,570.284221
7 Jan 2020 05:26:58.000,278.115,43.625,566.764815
7 Jan 2020 05:26:59.000,278.864,44.004,563.313644
7 Jan 2020 05:27:00.000,279.631,44.383,559.931979
7 Jan 2020 05:27:01.000,280.419,44.760,556.621087
7 Jan 2020 05:27:02.000,281.225,45.136,553.382243
7 Jan 2020 05:27:03.000,282.052,45.510,550.216722
7 Jan 2020 05:27:04.000,282.900,45.881,547.125799
7 Jan 2020 05:27:05.000,283.768,46.250,544.110750
7 Jan 2020 05:27:06.000,284.658,46.615,541.172844
7 Jan 2020 05:27:07.000,285.569,46.977,538.313349
7 Jan 2020 05:27:08.000,286.503,47.335,535.533523
7 Jan 2020 05:27:09.000,287.458,47.687,532.834616
7 Jan 2020 05:27:10.000,288.437,48.035,530.217866
7 Jan 2020 05:27:11.000,289.438,48.377,527.684497
7 Jan 2020 05:27:12.000,290.462,48.713,525.235719
7 Jan 2020 05:27:13.000,291.509,49.043,522.872725
7 Jan 2020 05:27:14.000,292.579,49.365,520.596681
7 Jan 2020 05:27:15.000,293.673,49.679,518.408735
7 Jan 2020 05:27:16.000,294.790,49.984,516.310011
7 Jan 2020 05:27:17.000,295.930,50.281,514.301604
7 Jan 2020 05:27:18.000,297.092,50.568,512.384574
7 Jan 2020 05:27:19.000,298.277,50.845,510.559954
7 Jan 2020 05:27:20.000,299.485,51.111,508.828742
7 Jan 2020 05:27:21.000,300.714,51.365,507.191892
7 Jan 2020 05:27:22.000,301.964,51.608,505.650325
7 Jan 2020 05:27:23.000,303.235,51.838,504.204913
7 Jan 2020 05:27:24.000,304.526,52.055,502.856490
7 Jan 2020 05:27:25.000,305.836,52.258,501.605834
7 Jan 2020 05:27:26.000,307.163,52.447,500.453685
7 Jan 2020 05:27:27.000,308.507,52.621,499.400722
7 Jan 2020 05:27:28.000,309.867,52.780,498.447572
7 Jan 2020 05:27:29.000,311.242,52.923,497.594815
7 Jan 2020 05:27:30.000,312.630,53.051,496.842964
7 Jan 2020 05:27:31.000,314.029,53.162,496.192478
7 Jan 2020 05:27:32.000,315.438,53.256,495.643758
7 Jan 2020 05:27:33.000,316.856,53.333,495.197142
7 Jan 2020 05:27:34.000,318.280,53.393,494.852907
7 Jan 2020 05:27:35.000,319.710,53.436,494.611264
7 Jan 2020 05:27:36.000,321.143,53.461,494.472366
7 Jan 2020 05:27:37.000,322.578,53.468,494.436297
7 Jan 2020 05:27:38.000,324.012,53.458,494.503080
7 Jan 2020 05:27:39.000,325.445,53.430,494.672672
7 Jan 2020 05:27:40.000,326.873,53.385,494.944967
7 Jan 2020 05:27:41.000,328.297,53.322,495.319794
7 Jan 2020 05:27:42.000,329.713,53.242,495.796921
7 Jan 2020 05:27:43.000,331.120,53.145,496.376050
7 Jan 2020 05:27:44.000,332.517,53.032,497.056825
7 Jan 2020 05:27:45.000,333.902,52.902,497.838826
7 Jan 2020 05:27:46.000,335.274,52.756,498.721575
7 Jan 2020 05:27:47.000,336.630,52.595,499.704538
7 Jan 2020 05:27:48.000,337.971,52.418,500.787123
7 Jan 2020 05:27:49.000,339.295,52.227,501.968682
7 Jan 2020 05:27:50.000,340.601,52.022,503.248518
7 Jan 2020 05:27:51.000,341.888,51.803,504.625878
7 Jan 2020 05:27:52.000,343.155,51.572,506.099967
7 Jan 2020 05:27:53.000,344.401,51.327,507.669938
7 Jan 2020 05:27:54.000,345.625,51.071,509.334902
7 Jan 2020 05:27:55.000,346.828,50.804,511.093929
7 Jan 2020 05:27:56.000,348.009,50.526,512.946049
7 Jan 2020 05:27:57.000,349.167,50.238,514.890252
7 Jan 2020 05:27:58.000,350.302,49.940,516.925499
7 Jan 2020 05:27:59.000,351.414,49.634,519.050715
7 Jan 2020 05:28:00.000,352.503,49.319,521.264795
7 Jan 2020 05:28:01.000,353.569,48.996,523.566611
7 Jan 2020 05:28:02.000,354.611,48.666,525.955006
7 Jan 2020 05:28:03.000,355.630,48.330,528.428803
7 Jan 2020 05:28:04.000,356.627,47.988,530.986805
7 Jan 2020 05:28:05.000,357.600,47.640,533.627798
7 Jan 2020 05:28:06.000,358.552,47.287,536.350552
7 Jan 2020 05:28:07.000,359.480,46.929,539.153824
7 Jan 2020 05:28:08.000,0.387,46.568,542.036361
7 Jan 2020 05:28:09.000,1.273,46.202,544.996902
7 Jan 2020 05:28:10.000,2.137,45.834,548.034178
7 Jan 2020 05:28:11.000,2.980,45.463,551.146916
7 Jan 2020 05:28:12.000,3.803,45.090,554.333842
7 Jan 2020 05:28:13.000,4.606,44.715,557.593678
7 Jan 2020 05:28:14.000,5.389,44.338,560.925149
7 Jan 2020 05:28:15.000,6.153,43.960,564.326982
7 Jan 2020 05:28:16.000,6.898,43.581,567.797908
7 Jan 2020 05:28:17.000,7.625,43.201,571.336663
7 Jan 2020 05:28:18.000,8.334,42.822,574.941989
7 Jan 2020 05:28:19.000,9.026,42.442,578.612638
7 Jan 2020 05:28:20.000,9.701,42.063,582.347369
7 Jan 2020 05:28:21.000,10.359,41.684,586.144953
7 Jan 2020 05:28:22.000,11.001,41.306,590.004170
7 Jan 2020 05:28:23.000,11.628,40.929,593.923815
7 Jan 2020 05:28:24.000,12.239,40.553,597.902693
7 Jan 2020 05:28:25.000,12.835,40.178,601.939625
7 Jan 2020 05:28:26.000,13.417,39.805,606.033446
7 Jan 2020 05:28:27.000,13.986,39.434,610.183003
7 Jan 2020 05:28:28.000,14.540,39.065,614.387165
7 Jan 2020 05:28:29.000,15.082,38.697,618.644811
7 Jan 2020 05:28:30.000,15.610,38.332,622.954840
7 Jan 2020 05:28:31.000,16.126,37.969,627.316166
7 Jan 2020 05:28:32.000,16.630,37.608,631.727720
7 Jan 2020 05:28:33.000,17.122,37.250,636.188454
7 Jan 2020 05:28:34.000,17.603,36.894,640.697332
7 Jan 2020 05:28:35.000,18.073,36.541,645.253342
7 Jan 2020 05:28:36.000,18.532,36.190,649.855483
7 Jan 2020 05:28:37.000,18.981,35.842,654.502780
7 Jan 2020 05:28:38.000,19.419,35.497,659.194269
7 Jan 2020 05:28:39.000,19.848,35.155,663.929009
7 Jan 2020 05:28:40.000,20.267,34.816,668.706075
7 Jan 2020 05:28:41.000,20.676,34.480,673.524559
7 Jan 2020 05:28:42.000,21.077,34.147,678.383574
7 Jan 2020 05:28:43.000,21.469,33.816,683.282248
7 Jan 2020 05:28:44.000,21.853,33.489,688.219727
7 Jan 2020 05:28:45.000,22.228,33.165,693.195179
7 Jan 2020 05:28:46.000,22.595,32.843,698.207782
7 Jan 2020 05:28:47.000,22.954,32.525,703.256736
7 Jan 2020 05:28:48.000,23.306,32.210,708.341260
7 Jan 2020 05:28:49.000,23.651,31.898,713.460585
7 Jan 2020 05:28:50.000,23.988,31.589,718.613960
7 Jan 2020 05:28:51.000,24.319,31.283,723.800653
7 Jan 2020 05:28:52.000,24.642,30.980,729.019945
7 Jan 2020 05:28:53.000,24.959,30.681,734.271134
7 Jan 2020 05:28:54.000,25.270,30.384,739.553535
7 Jan 2020 05:28:55.000,25.574,30.090,744.866479
7 Jan 2020 05:28:56.000,25.873,29.799,750.209306
7 Jan 2020 05:28:57.000,26.165,29.512,755.581378
7 Jan 2020 05:28:58.000,26.452,29.227,760.982069
7 Jan 2020 05:28:59.000,26.734,28.945,766.410767
7 Jan 2020 05:29:00.000,27.009,28.666,771.866875
7 Jan 2020 05:29:01.000,27.280,28.390,777.349807
7 Jan 2020 05:29:02.000,27.546,28.117,782.858993
7 Jan 2020 05:29:03.000,27.806,27.847,788.393877
7 Jan 2020 05:29:04.000,28.062,27.579,793.953913
7 Jan 2020 05:29:05.000,28.313,27.315,799.538571
7 Jan 2020 05:29:06.000,28.559,27.053,805.147331
7 Jan 2020 05:29:07.000,28.801,26.794,810.779688
7 Jan 2020 05:29:08.000,29.038,26.537,816.435142
7 Jan 2020 05:29:09.000,29.272,26.284,822.113212
7 Jan 2020 05:29:10.000,29.501,26.033,827.813425
7 Jan 2020 05:29:11.000,29.726,25.784,833.535320
7 Jan 2020 05:29:12.000,29.947,25.538,839.278446
7 Jan 2020 05:29:13.000,30.164,25.295,845.042363
7 Jan 2020 05:29:14.000,30.377,25.054,850.826642
7 Jan 2020 05:29:15.000,30.587,24.816,856.630863
7 Jan 2020 05:29:16.000,30.793,24.581,862.454616
7 Jan 2020 05:29:17.000,30.996,24.347,868.297501
7 Jan 2020 05:29:18.000,31.195,24.117,874.159128
7 Jan 2020 05:29:19.000,31.391,23.888,880.039113
7 Jan 2020 05:29:20.000,31.584,23.662,885.937084
7 Jan 2020 05:29:21.000,31.774,23.438,891.852677
7 Jan 2020 05:29:22.000,31.960,23.217,897.785537
7 Jan 2020 05:29:23.000,32.144,22.998,903.735316
7 Jan 2020 05:29:24.000,32.325,22.781,909.701675
7 Jan 2020 05:29:25.000,32.502,22.566,915.684282
7 Jan 2020 05:29:26.000,32.677,22.354,921.682814
7 Jan 2020 05:29:27.000,32.849,22.143,927.696954
7 Jan 2020 05:29:28.000,33.019,21.935,933.726393
7 Jan 2020 05:29:29.000,33.186,21.729,939.770829
7 Jan 2020 05:29:30.000,33.350,21.525,945.829968
7 Jan 2020 05:29:31.000,33.512,21.322,951.903521
7 Jan 2020 05:29:32.000,33.671,21.122,957.991207
7 Jan 2020 05:29:33.000,33.828,20.924,964.092749
7 Jan 2020 05:29:34.000,33.983,20.728,970.207880
7 Jan 2020 05:29:35.000,34.135,20.534,976.336335
7 Jan 2020 05:29:36.000,34.285,20.341,982.477860
7 Jan 2020 05:29:37.000,34.433,20.151,988.632202
7 Jan 2020 05:29:38.000,34.579,19.962,994.799117
7 Jan 2020 05:29:39.000,34.723,19.775,1000.978363
7 Jan 2020 05:29:40.000,34.864,19.590,1007.169707
7 Jan 2020 05:29:41.000,35.004,19.407,1013.372919
7 Jan 2020 05:29:42.000,35.142,19.225,1019.587775
7 Jan 2020 05:29:43.000,35.277,19.045,1025.814055
7 Jan 2020 05:29:44.000,35.411,18.867,1032.051546
7 Jan 2020 05:29:45.000,35.543,18.691,1038.300038
7 Jan 2020 05:29:46.000,35.673,18.516,1044.559324
7 Jan 2020 05:29:47.000,35.802,18.342,1050.829206
7 Jan 2020 05:29:48.000,35.928,18.171,1057.109486
7 Jan 2020 05:29:49.000,36.053,18.001,1063.399971
7 Jan 2020 05:29:50.000,36.177,17.832,1069.700477
7 Jan 2020 05:29:51.000,36.298,17.665,1076.010819
7 Jan 2020 05:29:52.000,36.418,17.499,1082.330815
7 Jan 2020 05:29:53.000,36.537,17.335,1088.660292
7 Jan 2020 05:29:54.000,36.654,17.173,1094.999076
7 Jan 2020 05:29:55.000,36.769,17.012,1101.346999
7 Jan 2020 05:29:56.000,36.883,16.852,1107.703896
7 Jan 2020 05:29:57.000,36.996,16.694,1114.069606
7 Jan 2020 05:29:58.000,37.107,16.537,1120.443968
7 Jan 2020 05:29:59.000,37.217,16.381,1126.826833
7 Jan 2020 05:30:00.000,37.325,16.227,1133.218046
7 Jan 2020 05:30:01.000,37.432,16.074,1139.617460
7 Jan 2020 05:30:02.000,37.537,15.922,1146.024929
7 Jan 2020 05:30:03.000,37.642,15.772,1152.440311
7 Jan 2020 05:30:04.000,37.745,15.622,1158.863467
7 Jan 2020 05:30:05.000,37.847,15.475,1165.294258
7 Jan 2020 05:30:06.000,37.947,15.328,1171.732556
7 Jan 2020 05:30:07.000,38.047,15.183,1178.178226
7 Jan 2020 05:30:08.000,38.145,15.038,1184.631141
7 Jan 2020 05:30:09.000,38.242,14.895,1191.091175
7 Jan 2020 05:30:10.000,38.338,14.753,1197.558205
7 Jan 2020 05:30:11.000,38.433,14.613,1204.032110
7 Jan 2020 05:30:12.000,38.527,14.473,1210.512771
7 Jan 2020 05:30:13.000,38.619,14.334,1217.000075
7 Jan 2020 05:30:14.000,38.711,14.197,1223.493907
7 Jan 2020 05:30:15.000,38.801,14.061,1229.994156
7 Jan 2020 05:30:16.000,38.891,13.925,1236.500712
7 Jan 2020 05:30:17.000,38.979,13.791,1243.013468
7 Jan 2020 05:30:18.000,39.067,13.658,1249.532318
7 Jan 2020 05:30:19.000,39.153,13.526,1256.057163
7 Jan 2020 05:30:20.000,39.239,13.395,1262.587900
7 Jan 2020 05:30:21.000,39.324,13.264,1269.124430
7 Jan 2020 05:30:22.000,39.407,13.135,1275.666656
7 Jan 2020 05:30:23.000,39.490,13.007,1282.214483
7 Jan 2020 05:30:24.000,39.572,12.880,1288.767816
7 Jan 2020 05:30:25.000,39.653,12.753,1295.326566
7 Jan 2020 05:30:26.000,39.733,12.628,1301.890643
7 Jan 2020 05:30:27.000,39.813,12.504,1308.459958
7 Jan 2020 05:30:28.000,39.891,12.380,1315.034425
7 Jan 2020 05:30:29.000,39.969,12.257,1321.613956
7 Jan 2020 05:30:30.000,40.046,12.135,1328.198472
7 Jan 2020 05:30:31.000,40.122,12.015,1334.787891
7 Jan 2020 05:30:32.000,40.197,11.894,1341.382131
7 Jan 2020 05:30:33.000,40.272,11.775,1347.981114
7 Jan 2020 05:30:34.000,40.345,11.657,1354.584760
7 Jan 2020 05:30:35.000,40.419,11.539,1361.192997
7 Jan 2020 05:30:36.000,40.491,11.422,1367.805750
7 Jan 2020 05:30:37.000,40.562,11.307,1374.422944
7 Jan 2020 05:30:38.000,40.633,11.191,1381.044509
7 Jan 2020 05:30:39.000,40.703,11.077,1387.670370
7 Jan 2020 05:30:40.000,40.773,10.963,1394.300464
7 Jan 2020 05:30:41.000,40.842,10.851,1400.934720
7 Jan 2020 05:30:42.000,40.910,10.738,1407.573070
7 Jan 2020 05:30:43.000,40.977,10.627,1414.215451
7 Jan 2020 05:30:44.000,41.044,10.516,1420.861793
7 Jan 2020 05:30:45.000,41.110,10.406,1427.512039
7 Jan 2020 05:30:46.000,41.176,10.297,1434.166125
7 Jan 2020 05:30:47.000,41.241,10.189,1440.823988
7 Jan 2020 05:30:48.000,41.305,10.081,1447.485566
7 Jan 2020 05:30:49.000,41.369,9.974,1454.150805
7 Jan 2020 05:30:50.000,41.432,9.867,1460.819645
7 Jan 2020 05:30:51.000,41.494,9.762,1467.492028
7 Jan 2020 05:30:52.000,41.556,9.657,1474.167897
7 Jan 2020 05:30:53.000,41.618,9.552,1480.847196
7 Jan 2020 05:30:54.000,41.679,9.448,1487.529875
7 Jan 2020 05:30:55.000,41.739,9.345,1494.215878
7 Jan 2020 05:30:56.000,41.799,9.243,1500.905153
7 Jan 2020 05:30:57.000,41.858,9.141,1507.597645
7 Jan 2020 05:30:58.000,41.916,9.039,1514.293309
7 Jan 2020 05:30:59.000,41.975,8.939,1520.992091
7 Jan 2020 05:31:00.000,42.032,8.839,1527.693944
7 Jan 2020 05:31:01.000,42.089,8.739,1534.398816
7 Jan 2020 05:31:02.000,42.146,8.640,1541.106665
7 Jan 2020 05:31:03.000,42.202,8.542,1547.817442
7 Jan 2020 05:31:04.000,42.258,8.444,1554.531099
7 Jan 2020 05:31:05.000,42.313,8.347,1561.247591
7 Jan 2020 05:31:06.000,42.368,8.250,1567.966876
7 Jan 2020 05:31:07.000,42.422,8.154,1574.688909
7 Jan 2020 05:31:08.000,42.476,8.058,1581.413647
7 Jan 2020 05:31:09.000,42.529,7.963,1588.141047
7 Jan 2020 05:31:10.000,42.582,7.869,1594.871065
7 Jan 2020 05:31:11.000,42.634,7.775,1601.603664
7 Jan 2020 05:31:12.000,42.686,7.681,1608.338802
7 Jan 2020 05:31:13.000,42.738,7.588,1615.076439
7 Jan 2020 05:31:14.000,42.789,7.496,1621.816533
7 Jan 2020 05:31:15.000,42.840,7.404,1628.559050
7 Jan 2020 05:31:16.000,42.890,7.312,1635.303950
7 Jan 2020 05:31:17.000,42.940,7.221,1642.051195
7 Jan 2020 05:31:18.000,42.990,7.131,1648.800746
7 Jan 2020 05:31:19.000,43.039,7.041,1655.552572
7 Jan 2020 05:31:20.000,43.088,6.951,1662.306633
7 Jan 2020 05:31:21.000,43.136,6.862,1669.062896
7 Jan 2020 05:31:22.000,43.184,6.774,1675.821322
7 Jan 2020 05:31:23.000,43.231,6.686,1682.581882
7 Jan 2020 05:31:24.000,43.279,6.598,1689.344541
7 Jan 2020 05:31:25.000,43.326,6.511,1696.109261
7 Jan 2020 05:31:26.000,43.372,6.424,1702.876017
7 Jan 2020 05:31:27.000,43.418,6.337,1709.644772
7 Jan 2020 05:31:28.000,43.464,6.251,1716.415496
7 Jan 2020 05:31:29.000,43.509,6.166,1723.188153
7 Jan 2020 05:31:30.000,43.554,6.081,1729.962719
7 Jan 2020 05:31:31.000,43.599,5.996,1736.739160
7 Jan 2020 05:31:32.000,43.644,5.912,1743.517446
7 Jan 2020 05:31:33.000,43.688,5.828,1750.297546
7 Jan 2020 05:31:34.000,43.731,5.744,1757.079435
7 Jan 2020 05:31:35.000,43.775,5.661,1763.863081
7 Jan 2020 05:31:36.000,43.818,5.578,1770.648457
7 Jan 2020 05:31:37.000,43.861,5.496,1777.435531
7 Jan 2020 05:31:38.000,43.903,5.414,1784.224282
7 Jan 2020 05:31:39.000,43.945,5.333,1791.014679
7 Jan 2020 05:31:40.000,43.987,5.251,1797.806697
7 Jan 2020 05:31:41.000,44.029,5.171,1804.600305
7 Jan 2020 05:31:42.000,44.070,5.090,1811.395483
7 Jan 2020 05:31:43.000,44.111,5.010,1818.192202
7 Jan 2020 05:31:44.000,44.152,4.930,1824.990438
7 Jan 2020 05:31:45.000,44.192,4.851,1831.790162
7 Jan 2020 05:31:46.000,44.232,4.772,1838.591354
7 Jan 2020 05:31:47.000,44.272,4.693,1845.393989
7 Jan 2020 05:31:48.000,44.312,4.615,1852.198039
7 Jan 2020 05:31:49.000,44.351,4.537,1859.003486
7 Jan 2020 05:31:50.000,44.390,4.459,1865.810303
7 Jan 2020 05:31:51.000,44.429,4.382,1872.618468
7 Jan 2020 05:31:52.000,44.467,4.305,1879.427956
7 Jan 2020 05:31:53.000,44.505,4.229,1886.238747
7 Jan 2020 05:31:54.000,44.543,4.152,1893.050819
7 Jan 2020 05:31:55.000,44.581,4.076,1899.864149
7 Jan 2020 05:31:56.000,44.619,4.001,1906.678713
7 Jan 2020 05:31:57.000,44.656,3.925,1913.494494
7 Jan 2020 05:31:58.000,44.693,3.850,1920.311469
7 Jan 2020 05:31:59.000,44.729,3.775,1927.129614
7 Jan 2020 05:32:00.000,44.766,3.701,1933.948915
7 Jan 2020 05:32:01.000,44.802,3.627,1940.769347
7 Jan 2020 05:32:02.000,44.838,3.553,1947.590892
7 Jan 2020 05:32:03.000,44.874,3.479,1954.413525
7 Jan 2020 05:32:04.000,44.909,3.406,1961.237234
7 Jan 2020 05:32:05.000,44.945,3.333,1968.061997
7 Jan 2020 05:32:06.000,44.980,3.260,1974.887793
7 Jan 2020 05:32:07.000,45.015,3.188,1981.714602
7 Jan 2020 05:32:08.000,45.049,3.116,1988.542410
7 Jan 2020 05:32:09.000,45.084,3.044,1995.371196
7 Jan 2020 05:32:10.000,45.118,2.973,2002.200939
7 Jan 2020 05:32:11.000,45.152,2.901,2009.031627
7 Jan 2020 05:32:12.000,45.186,2.830,2015.863239
7 Jan 2020 05:32:13.000,45.219,2.759,2022.695758
7 Jan 2020 05:32:14.000,45.253,2.689,2029.529163
7 Jan 2020 05:32:15.000,45.286,2.619,2036.363443
7 Jan 2020 05:32:16.000,45.319,2.549,2043.198579
7 Jan 2020 05:32:17.000,45.351,2.479,2050.034550
7 Jan 2020 05:32:18.000,45.384,2.410,2056.871345
7 Jan 2020 05:32:19.000,45.416,2.340,2063.708946
7 Jan 2020 05:32:20.000,45.448,2.271,2070.547336
7 Jan 2020 05:32:21.000,45.480,2.203,2077.386497
7 Jan 2020 05:32:22.000,45.512,2.134,2084.226418
7 Jan 2020 05:32:23.000,45.544,2.066,2091.067081
7 Jan 2020 05:32:24.000,45.575,1.998,2097.908468
7 Jan 2020 05:32:25.000,45.606,1.930,2104.750568
7 Jan 2020 05:32:26.000,45.637,1.863,2111.593365
7 Jan 2020 05:32:27.000,45.668,1.796,2118.436842
7 Jan 2020 05:32:28.000,45.699,1.729,2125.280983
7 Jan 2020 05:32:29.000,45.729,1.662,2132.125778
7 Jan 2020 05:32:30.000,45.760,1.595,2138.971211
7 Jan 2020 05:32:31.000,45.790,1.529,2145.817266
7 Jan 2020 05:32:32.000,45.820,1.463,2152.663928
7 Jan 2020 05:32:33.000,45.850,1.397,2159.511187
7 Jan 2020 05:32:34.000,45.879,1.331,2166.359027
7 Jan 2020 05:32:35.000,45.909,1.265,2173.207431
7 Jan 2020 05:32:36.000,45.938,1.200,2180.056392
7 Jan 2020 05:32:37.000,45.967,1.135,2186.905893
7 Jan 2020 05:32:38.000,45.996,1.070,2193.755921
7 Jan 2020 05:32:39.000,46.025,1.006,2200.606460
7 Jan 2020 05:32:40.000,46.053,0.941,2207.457503
7 Jan 2020 05:32:41.000,46.082,0.877,2214.309034
7 Jan 2020 05:32:42.000,46.110,0.813,2221.161037
7 Jan 2020 05:32:43.000,46.138,0.749,2228.013506
7 Jan 2020 05:32:44.000,46.167,0.686,2234.866425
7 Jan 2020 05:32:45.000,46.194,0.622,2241.719782
7 Jan 2020 05:32:46.000,46.222,0.559,2248.573562
7 Jan 2020 05:32:47.000,46.250,0.496,2255.427759
7 Jan 2020 05:32:48.000,46.277,0.433,2262.282357
7 Jan 2020 05:32:49.000,46.304,0.370,2269.137342
7 Jan 2020 05:32:50.000,46.332,0.308,2275.992708
7 Jan 2020 05:32:51.000,46.359,0.246,2282.848440
7 Jan 2020 05:32:52.000,46.385,0.183,2289.704528
7 Jan 2020 05:32:53.000,46.412,0.122,2296.560956
7 Jan 2020 05:32:54.000,46.439,0.060,2303.417719
7 Jan 2020 05:32:55.000,46.465,-0.002,2310.274804
7 Jan 2020 05:32:55.874,46.488,-0.055,2316.264813
7 Jan 2020 07:00:11.958,283.730,-0.055,2312.568218
7 Jan 2020 07:00:12.000,283.734,-0.053,2312.336162
7 Jan 2020 07:00:13.000,283.843,-0.003,2306.773335
7 Jan 2020 07:00:14.000,283.953,0.047,2301.217560
7 Jan 2020 07:00:15.000,284.063,0.097,2295.668889
7 Jan 2020 07:00:16.000,284.173,0.147,2290.127381
7 Jan 2020 07:00:17.000,284.284,0.197,2284.593097
7 Jan 2020 07:00:18.000,284.396,0.247,2279.066093
7 Jan 2020 07:00:19.000,284.508,0.298,2273.546431
7 Jan 2020 07:00:20.000,284.621,0.348,2268.034172
7 Jan 2020 07:00:21.000,284.734,0.399,2262.529371
7 Jan 2020 07:00:22.000,284.848,0.449,2257.032092
7 Jan 2020 07:00:23.000,284.962,0.500,2251.542395
7 Jan 2020 07:00:24.000,285.077,0.550,2246.060343
7 Jan 2020 07:00:25.000,285.193,0.601,2240.585997
7 Jan 2020 07:00:26.000,285.309,0.652,2235.119425
7 Jan 2020 07:00:27.000,285.425,0.702,2229.660682
7 Jan 2020 07:00:28.000,285.542,0.753,2224.209836
7 Jan 2020 07:00:29.000,285.660,0.804,2218.766950
7 Jan 2020 07:00:30.000,285.778,0.855,2213.332091
7 Jan 2020 07:00:31.000,285.897,0.906,2207.905322
7 Jan 2020 07:00:32.000,286.016,0.957,2202.486714
7 Jan 2020 07:00:33.000,286.136,1.008,2197.076325
7 Jan 2020 07:00:34.000,286.257,1.060,2191.674227
