vcc_sched/network/input/aer_wff_wff_vcc-c_44430.csv

"Time (UTCG)","Azimuth (deg)","Elevation (deg)","Range (km)"
7 Jan 2020 03:47:29.209,196.924,-0.079,2304.946321
7 Jan 2020 03:47:30.000,196.864,-0.034,2299.940327
7 Jan 2020 03:47:31.000,196.789,0.024,2293.612680
7 Jan 2020 03:47:32.000,196.713,0.081,2287.288701
7 Jan 2020 03:47:33.000,196.637,0.138,2280.968429
7 Jan 2020 03:47:34.000,196.561,0.196,2274.651901
7 Jan 2020 03:47:35.000,196.484,0.253,2268.339159
7 Jan 2020 03:47:36.000,196.406,0.311,2262.030240
7 Jan 2020 03:47:37.000,196.328,0.369,2255.725184
7 Jan 2020 03:47:38.000,196.250,0.427,2249.424034
7 Jan 2020 03:47:39.000,196.171,0.485,2243.126828
7 Jan 2020 03:47:40.000,196.092,0.543,2236.833609
7 Jan 2020 03:47:41.000,196.012,0.601,2230.544418
7 Jan 2020 03:47:42.000,195.932,0.660,2224.259296
7 Jan 2020 03:47:43.000,195.852,0.718,2217.978287
7 Jan 2020 03:47:44.000,195.771,0.777,2211.701433
7 Jan 2020 03:47:45.000,195.689,0.836,2205.428777
7 Jan 2020 03:47:46.000,195.607,0.895,2199.160363
7 Jan 2020 03:47:47.000,195.525,0.954,2192.896235
7 Jan 2020 03:47:48.000,195.442,1.013,2186.636439
7 Jan 2020 03:47:49.000,195.358,1.073,2180.381019
7 Jan 2020 03:47:50.000,195.274,1.132,2174.130021
7 Jan 2020 03:47:51.000,195.190,1.192,2167.883491
7 Jan 2020 03:47:52.000,195.105,1.252,2161.641474
7 Jan 2020 03:47:53.000,195.019,1.312,2155.404020
7 Jan 2020 03:47:54.000,194.933,1.372,2149.171174
7 Jan 2020 03:47:55.000,194.847,1.432,2142.942985
7 Jan 2020 03:47:56.000,194.760,1.493,2136.719501
7 Jan 2020 03:47:57.000,194.672,1.553,2130.500772
7 Jan 2020 03:47:58.000,194.584,1.614,2124.286847
7 Jan 2020 03:47:59.000,194.496,1.675,2118.077775
7 Jan 2020 03:48:00.000,194.407,1.736,2111.873607
7 Jan 2020 03:48:01.000,194.317,1.797,2105.674396
7 Jan 2020 03:48:02.000,194.227,1.859,2099.480192
7 Jan 2020 03:48:03.000,194.136,1.920,2093.291047
7 Jan 2020 03:48:04.000,194.045,1.982,2087.107015
7 Jan 2020 03:48:05.000,193.953,2.043,2080.928148
7 Jan 2020 03:48:06.000,193.860,2.105,2074.754501
7 Jan 2020 03:48:07.000,193.767,2.167,2068.586127
7 Jan 2020 03:48:08.000,193.674,2.230,2062.423082
7 Jan 2020 03:48:09.000,193.580,2.292,2056.265422
7 Jan 2020 03:48:10.000,193.485,2.355,2050.113202
7 Jan 2020 03:48:11.000,193.390,2.417,2043.966480
7 Jan 2020 03:48:12.000,193.294,2.480,2037.825313
7 Jan 2020 03:48:13.000,193.197,2.543,2031.689759
7 Jan 2020 03:48:14.000,193.100,2.606,2025.559877
7 Jan 2020 03:48:15.000,193.002,2.670,2019.435726
7 Jan 2020 03:48:16.000,192.904,2.733,2013.317366
7 Jan 2020 03:48:17.000,192.805,2.797,2007.204858
7 Jan 2020 03:48:18.000,192.706,2.861,2001.098261
7 Jan 2020 03:48:19.000,192.605,2.925,1994.997641
7 Jan 2020 03:48:20.000,192.505,2.989,1988.903057
7 Jan 2020 03:48:21.000,192.403,3.053,1982.814575
7 Jan 2020 03:48:22.000,192.301,3.118,1976.732258
7 Jan 2020 03:48:23.000,192.198,3.182,1970.656170
7 Jan 2020 03:48:24.000,192.095,3.247,1964.586377
7 Jan 2020 03:48:25.000,191.991,3.312,1958.522945
7 Jan 2020 03:48:26.000,191.886,3.377,1952.465941
7 Jan 2020 03:48:27.000,191.780,3.442,1946.415432
7 Jan 2020 03:48:28.000,191.674,3.508,1940.371488
7 Jan 2020 03:48:29.000,191.568,3.574,1934.334176
7 Jan 2020 03:48:30.000,191.460,3.639,1928.303567
7 Jan 2020 03:48:31.000,191.352,3.705,1922.279732
7 Jan 2020 03:48:32.000,191.243,3.772,1916.262742
7 Jan 2020 03:48:33.000,191.133,3.838,1910.252669
7 Jan 2020 03:48:34.000,191.023,3.904,1904.249586
7 Jan 2020 03:48:35.000,190.912,3.971,1898.253568
7 Jan 2020 03:48:36.000,190.800,4.038,1892.264688
7 Jan 2020 03:48:37.000,190.687,4.105,1886.283022
7 Jan 2020 03:48:38.000,190.574,4.172,1880.308647
7 Jan 2020 03:48:39.000,190.460,4.240,1874.341640
7 Jan 2020 03:48:40.000,190.345,4.307,1868.382079
7 Jan 2020 03:48:41.000,190.230,4.375,1862.430043
7 Jan 2020 03:48:42.000,190.113,4.443,1856.485612
7 Jan 2020 03:48:43.000,189.996,4.511,1850.548866
7 Jan 2020 03:48:44.000,189.878,4.580,1844.619888
7 Jan 2020 03:48:45.000,189.760,4.648,1838.698759
7 Jan 2020 03:48:46.000,189.640,4.717,1832.785564
7 Jan 2020 03:48:47.000,189.520,4.786,1826.880386
7 Jan 2020 03:48:48.000,189.399,4.855,1820.983312
7 Jan 2020 03:48:49.000,189.277,4.924,1815.094428
7 Jan 2020 03:48:50.000,189.154,4.994,1809.213820
7 Jan 2020 03:48:51.000,189.030,5.063,1803.341578
7 Jan 2020 03:48:52.000,188.906,5.133,1797.477791
7 Jan 2020 03:48:53.000,188.781,5.203,1791.622549
7 Jan 2020 03:48:54.000,188.655,5.273,1785.775944
7 Jan 2020 03:48:55.000,188.528,5.344,1779.938067
7 Jan 2020 03:48:56.000,188.400,5.414,1774.109013
7 Jan 2020 03:48:57.000,188.271,5.485,1768.288877
7 Jan 2020 03:48:58.000,188.141,5.556,1762.477753
7 Jan 2020 03:48:59.000,188.011,5.627,1756.675739
7 Jan 2020 03:49:00.000,187.879,5.699,1750.882933
7 Jan 2020 03:49:01.000,187.747,5.770,1745.099433
7 Jan 2020 03:49:02.000,187.613,5.842,1739.325340
7 Jan 2020 03:49:03.000,187.479,5.914,1733.560754
7 Jan 2020 03:49:04.000,187.344,5.986,1727.805779
7 Jan 2020 03:49:05.000,187.208,6.058,1722.060519
7 Jan 2020 03:49:06.000,187.071,6.131,1716.325076
7 Jan 2020 03:49:07.000,186.932,6.204,1710.599560
7 Jan 2020 03:49:08.000,186.793,6.276,1704.884074
7 Jan 2020 03:49:09.000,186.653,6.350,1699.178730
7 Jan 2020 03:49:10.000,186.512,6.423,1693.483635
7 Jan 2020 03:49:11.000,186.370,6.496,1687.798902
7 Jan 2020 03:49:12.000,186.227,6.570,1682.124642
7 Jan 2020 03:49:13.000,186.083,6.644,1676.460968
7 Jan 2020 03:49:14.000,185.938,6.718,1670.807997
7 Jan 2020 03:49:15.000,185.792,6.792,1665.165843
7 Jan 2020 03:49:16.000,185.645,6.867,1659.534625
7 Jan 2020 03:49:17.000,185.496,6.942,1653.914461
7 Jan 2020 03:49:18.000,185.347,7.017,1648.305472
7 Jan 2020 03:49:19.000,185.196,7.092,1642.707778
7 Jan 2020 03:49:20.000,185.045,7.167,1637.121503
7 Jan 2020 03:49:21.000,184.892,7.243,1631.546771
7 Jan 2020 03:49:22.000,184.739,7.318,1625.983708
7 Jan 2020 03:49:23.000,184.584,7.394,1620.432442
7 Jan 2020 03:49:24.000,184.428,7.470,1614.893100
7 Jan 2020 03:49:25.000,184.271,7.547,1609.365814
7 Jan 2020 03:49:26.000,184.112,7.623,1603.850714
7 Jan 2020 03:49:27.000,183.953,7.700,1598.347934
7 Jan 2020 03:49:28.000,183.792,7.777,1592.857609
7 Jan 2020 03:49:29.000,183.631,7.854,1587.379874
7 Jan 2020 03:49:30.000,183.468,7.931,1581.914868
7 Jan 2020 03:49:31.000,183.303,8.009,1576.462730
7 Jan 2020 03:49:32.000,183.138,8.086,1571.023600
7 Jan 2020 03:49:33.000,182.971,8.164,1565.597622
7 Jan 2020 03:49:34.000,182.804,8.242,1560.184939
7 Jan 2020 03:49:35.000,182.635,8.320,1554.785696
7 Jan 2020 03:49:36.000,182.464,8.399,1549.400043
7 Jan 2020 03:49:37.000,182.293,8.478,1544.028126
7 Jan 2020 03:49:38.000,182.120,8.556,1538.670098
7 Jan 2020 03:49:39.000,181.945,8.635,1533.326111
7 Jan 2020 03:49:40.000,181.770,8.715,1527.996318
7 Jan 2020 03:49:41.000,181.593,8.794,1522.680875
7 Jan 2020 03:49:42.000,181.415,8.874,1517.379941
7 Jan 2020 03:49:43.000,181.235,8.953,1512.093674
7 Jan 2020 03:49:44.000,181.055,9.033,1506.822236
7 Jan 2020 03:49:45.000,180.872,9.113,1501.565789
7 Jan 2020 03:49:46.000,180.689,9.194,1496.324498
7 Jan 2020 03:49:47.000,180.504,9.274,1491.098530
7 Jan 2020 03:49:48.000,180.318,9.355,1485.888053
7 Jan 2020 03:49:49.000,180.130,9.436,1480.693237
7 Jan 2020 03:49:50.000,179.941,9.517,1475.514254
7 Jan 2020 03:49:51.000,179.750,9.598,1470.351278
7 Jan 2020 03:49:52.000,179.558,9.679,1465.204485
7 Jan 2020 03:49:53.000,179.364,9.761,1460.074053
7 Jan 2020 03:49:54.000,179.169,9.843,1454.960161
7 Jan 2020 03:49:55.000,178.973,9.925,1449.862991
7 Jan 2020 03:49:56.000,178.775,10.007,1444.782726
7 Jan 2020 03:49:57.000,178.575,10.089,1439.719552
7 Jan 2020 03:49:58.000,178.374,10.171,1434.673656
7 Jan 2020 03:49:59.000,178.172,10.254,1429.645228
7 Jan 2020 03:50:00.000,177.968,10.336,1424.634459
7 Jan 2020 03:50:01.000,177.762,10.419,1419.641542
7 Jan 2020 03:50:02.000,177.555,10.502,1414.666673
7 Jan 2020 03:50:03.000,177.346,10.585,1409.710049
7 Jan 2020 03:50:04.000,177.136,10.668,1404.771871
7 Jan 2020 03:50:05.000,176.924,10.752,1399.852338
7 Jan 2020 03:50:06.000,176.710,10.835,1394.951656
7 Jan 2020 03:50:07.000,176.495,10.919,1390.070029
7 Jan 2020 03:50:08.000,176.278,11.003,1385.207665
7 Jan 2020 03:50:09.000,176.059,11.087,1380.364775
7 Jan 2020 03:50:10.000,175.839,11.171,1375.541569
7 Jan 2020 03:50:11.000,175.617,11.255,1370.738263
7 Jan 2020 03:50:12.000,175.393,11.339,1365.955072
7 Jan 2020 03:50:13.000,175.168,11.423,1361.192213
7 Jan 2020 03:50:14.000,174.941,11.508,1356.449909
7 Jan 2020 03:50:15.000,174.712,11.592,1351.728381
7 Jan 2020 03:50:16.000,174.481,11.677,1347.027854
7 Jan 2020 03:50:17.000,174.249,11.761,1342.348554
7 Jan 2020 03:50:18.000,174.015,11.846,1337.690710
7 Jan 2020 03:50:19.000,173.779,11.931,1333.054554
7 Jan 2020 03:50:20.000,173.541,12.016,1328.440317
7 Jan 2020 03:50:21.000,173.301,12.101,1323.848236
7 Jan 2020 03:50:22.000,173.060,12.186,1319.278547
7 Jan 2020 03:50:23.000,172.817,12.271,1314.731490
7 Jan 2020 03:50:24.000,172.571,12.356,1310.207307
7 Jan 2020 03:50:25.000,172.324,12.441,1305.706241
7 Jan 2020 03:50:26.000,172.076,12.526,1301.228538
7 Jan 2020 03:50:27.000,171.825,12.612,1296.774445
7 Jan 2020 03:50:28.000,171.572,12.697,1292.344213
7 Jan 2020 03:50:29.000,171.318,12.782,1287.938094
7 Jan 2020 03:50:30.000,171.061,12.867,1283.556341
7 Jan 2020 03:50:31.000,170.803,12.953,1279.199212
7 Jan 2020 03:50:32.000,170.542,13.038,1274.866962
7 Jan 2020 03:50:33.000,170.280,13.123,1270.559854
7 Jan 2020 03:50:34.000,170.015,13.208,1266.278149
7 Jan 2020 03:50:35.000,169.749,13.293,1262.022111
7 Jan 2020 03:50:36.000,169.481,13.378,1257.792007
7 Jan 2020 03:50:37.000,169.210,13.463,1253.588104
7 Jan 2020 03:50:38.000,168.938,13.548,1249.410673
7 Jan 2020 03:50:39.000,168.663,13.633,1245.259984
7 Jan 2020 03:50:40.000,168.387,13.718,1241.136312
7 Jan 2020 03:50:41.000,168.109,13.803,1237.039934
7 Jan 2020 03:50:42.000,167.828,13.887,1232.971125
7 Jan 2020 03:50:43.000,167.545,13.972,1228.930165
7 Jan 2020 03:50:44.000,167.261,14.056,1224.917336
7 Jan 2020 03:50:45.000,166.974,14.140,1220.932918
7 Jan 2020 03:50:46.000,166.685,14.224,1216.977198
7 Jan 2020 03:50:47.000,166.394,14.308,1213.050461
7 Jan 2020 03:50:48.000,166.101,14.392,1209.152994
7 Jan 2020 03:50:49.000,165.805,14.476,1205.285087
7 Jan 2020 03:50:50.000,165.508,14.559,1201.447030
7 Jan 2020 03:50:51.000,165.208,14.642,1197.639115
7 Jan 2020 03:50:52.000,164.907,14.725,1193.861635
7 Jan 2020 03:50:53.000,164.603,14.808,1190.114886
7 Jan 2020 03:50:54.000,164.297,14.890,1186.399164
7 Jan 2020 03:50:55.000,163.989,14.973,1182.714765
7 Jan 2020 03:50:56.000,163.678,15.055,1179.061989
7 Jan 2020 03:50:57.000,163.366,15.136,1175.441134
7 Jan 2020 03:50:58.000,163.051,15.218,1171.852504
7 Jan 2020 03:50:59.000,162.734,15.299,1168.296396
7 Jan 2020 03:51:00.000,162.415,15.379,1164.773116
7 Jan 2020 03:51:01.000,162.094,15.460,1161.282966
7 Jan 2020 03:51:02.000,161.771,15.540,1157.826252
7 Jan 2020 03:51:03.000,161.445,15.619,1154.403276
7 Jan 2020 03:51:04.000,161.117,15.699,1151.014348
7 Jan 2020 03:51:05.000,160.787,15.778,1147.659769
7 Jan 2020 03:51:06.000,160.455,15.856,1144.339849
7 Jan 2020 03:51:07.000,160.120,15.934,1141.054894
7 Jan 2020 03:51:08.000,159.784,16.012,1137.805211
7 Jan 2020 03:51:09.000,159.445,16.089,1134.591108
7 Jan 2020 03:51:10.000,159.104,16.166,1131.412892
7 Jan 2020 03:51:11.000,158.761,16.242,1128.270871
7 Jan 2020 03:51:12.000,158.416,16.317,1125.165353
7 Jan 2020 03:51:13.000,158.068,16.393,1122.096644
7 Jan 2020 03:51:14.000,157.718,16.467,1119.065051
7 Jan 2020 03:51:15.000,157.366,16.541,1116.070882
7 Jan 2020 03:51:16.000,157.012,16.615,1113.114442
7 Jan 2020 03:51:17.000,156.656,16.687,1110.196036
7 Jan 2020 03:51:18.000,156.298,16.760,1107.315970
7 Jan 2020 03:51:19.000,155.937,16.831,1104.474547
7 Jan 2020 03:51:20.000,155.575,16.902,1101.672070
7 Jan 2020 03:51:21.000,155.210,16.972,1098.908841
7 Jan 2020 03:51:22.000,154.843,17.042,1096.185161
7 Jan 2020 03:51:23.000,154.474,17.111,1093.501329
7 Jan 2020 03:51:24.000,154.103,17.179,1090.857642
7 Jan 2020 03:51:25.000,153.730,17.246,1088.254396
7 Jan 2020 03:51:26.000,153.355,17.313,1085.691886
7 Jan 2020 03:51:27.000,152.977,17.379,1083.170406
7 Jan 2020 03:51:28.000,152.598,17.444,1080.690246
7 Jan 2020 03:51:29.000,152.217,17.508,1078.251695
7 Jan 2020 03:51:30.000,151.834,17.571,1075.855037
7 Jan 2020 03:51:31.000,151.448,17.634,1073.500559
7 Jan 2020 03:51:32.000,151.061,17.695,1071.188539
7 Jan 2020 03:51:33.000,150.672,17.756,1068.919259
7 Jan 2020 03:51:34.000,150.281,17.816,1066.692994
7 Jan 2020 03:51:35.000,149.888,17.875,1064.510017
7 Jan 2020 03:51:36.000,149.493,17.933,1062.370597
7 Jan 2020 03:51:37.000,149.097,17.990,1060.275002
7 Jan 2020 03:51:38.000,148.698,18.046,1058.223495
7 Jan 2020 03:51:39.000,148.298,18.101,1056.216334
7 Jan 2020 03:51:40.000,147.896,18.155,1054.253779
7 Jan 2020 03:51:41.000,147.492,18.208,1052.336080
7 Jan 2020 03:51:42.000,147.086,18.259,1050.463484
7 Jan 2020 03:51:43.000,146.679,18.310,1048.636239
7 Jan 2020 03:51:44.000,146.271,18.360,1046.854584
7 Jan 2020 03:51:45.000,145.860,18.408,1045.118751
7 Jan 2020 03:51:46.000,145.448,18.456,1043.428977
7 Jan 2020 03:51:47.000,145.034,18.502,1041.785484
7 Jan 2020 03:51:48.000,144.619,18.547,1040.188498
7 Jan 2020 03:51:49.000,144.203,18.591,1038.638231
7 Jan 2020 03:51:50.000,143.785,18.634,1037.134900
7 Jan 2020 03:51:51.000,143.365,18.675,1035.678707
7 Jan 2020 03:51:52.000,142.945,18.716,1034.269858
7 Jan 2020 03:51:53.000,142.522,18.755,1032.908545
7 Jan 2020 03:51:54.000,142.099,18.792,1031.594961
7 Jan 2020 03:51:55.000,141.674,18.829,1030.329288
7 Jan 2020 03:51:56.000,141.248,18.864,1029.111708
7 Jan 2020 03:51:57.000,140.821,18.898,1027.942390
7 Jan 2020 03:51:58.000,140.393,18.930,1026.821503
7 Jan 2020 03:51:59.000,139.964,18.962,1025.749210
7 Jan 2020 03:52:00.000,139.534,18.992,1024.725660
7 Jan 2020 03:52:01.000,139.102,19.020,1023.751005
7 Jan 2020 03:52:02.000,138.670,19.047,1022.825386
7 Jan 2020 03:52:03.000,138.237,19.073,1021.948935
7 Jan 2020 03:52:04.000,137.803,19.098,1021.121783
7 Jan 2020 03:52:05.000,137.368,19.121,1020.344052
7 Jan 2020 03:52:06.000,136.932,19.142,1019.615854
7 Jan 2020 03:52:07.000,136.496,19.162,1018.937296
7 Jan 2020 03:52:08.000,136.059,19.181,1018.308481
7 Jan 2020 03:52:09.000,135.622,19.199,1017.729502
7 Jan 2020 03:52:10.000,135.183,19.215,1017.200447
7 Jan 2020 03:52:11.000,134.745,19.229,1016.721391
7 Jan 2020 03:52:12.000,134.306,19.242,1016.292407
7 Jan 2020 03:52:13.000,133.866,19.254,1015.913560
7 Jan 2020 03:52:14.000,133.426,19.264,1015.584908
7 Jan 2020 03:52:15.000,132.986,19.272,1015.306500
7 Jan 2020 03:52:16.000,132.545,19.280,1015.078378
7 Jan 2020 03:52:17.000,132.105,19.285,1014.900576
7 Jan 2020 03:52:18.000,131.664,19.290,1014.773125
7 Jan 2020 03:52:19.000,131.223,19.292,1014.696039
7 Jan 2020 03:52:20.000,130.782,19.294,1014.669332
7 Jan 2020 03:52:21.000,130.341,19.294,1014.693010
7 Jan 2020 03:52:22.000,129.899,19.292,1014.767069
7 Jan 2020 03:52:23.000,129.459,19.289,1014.891497
7 Jan 2020 03:52:24.000,129.018,19.284,1015.066276
7 Jan 2020 03:52:25.000,128.577,19.278,1015.291383
7 Jan 2020 03:52:26.000,128.137,19.271,1015.566784
7 Jan 2020 03:52:27.000,127.697,19.262,1015.892437
7 Jan 2020 03:52:28.000,127.257,19.251,1016.268295
7 Jan 2020 03:52:29.000,126.818,19.239,1016.694301
7 Jan 2020 03:52:30.000,126.379,19.226,1017.170393
7 Jan 2020 03:52:31.000,125.941,19.211,1017.696500
7 Jan 2020 03:52:32.000,125.503,19.195,1018.272541
7 Jan 2020 03:52:33.000,125.066,19.177,1018.898438
7 Jan 2020 03:52:34.000,124.630,19.158,1019.574096
7 Jan 2020 03:52:35.000,124.194,19.137,1020.299415
7 Jan 2020 03:52:36.000,123.759,19.115,1021.074289
7 Jan 2020 03:52:37.000,123.325,19.092,1021.898602
7 Jan 2020 03:52:38.000,122.892,19.067,1022.772240
7 Jan 2020 03:52:39.000,122.459,19.041,1023.695073
7 Jan 2020 03:52:40.000,122.028,19.014,1024.666965
7 Jan 2020 03:52:41.000,121.597,18.985,1025.687781
7 Jan 2020 03:52:42.000,121.168,18.955,1026.757371
7 Jan 2020 03:52:43.000,120.739,18.923,1027.875581
7 Jan 2020 03:52:44.000,120.312,18.890,1029.042255
7 Jan 2020 03:52:45.000,119.886,18.856,1030.257226
7 Jan 2020 03:52:46.000,119.461,18.821,1031.520320
7 Jan 2020 03:52:47.000,119.038,18.784,1032.831363
7 Jan 2020 03:52:48.000,118.615,18.746,1034.190168
7 Jan 2020 03:52:49.000,118.194,18.707,1035.596551
7 Jan 2020 03:52:50.000,117.775,18.667,1037.050310
7 Jan 2020 03:52:51.000,117.356,18.625,1038.551253
7 Jan 2020 03:52:52.000,116.940,18.582,1040.099166
7 Jan 2020 03:52:53.000,116.524,18.538,1041.693846
7 Jan 2020 03:52:54.000,116.110,18.493,1043.335071
7 Jan 2020 03:52:55.000,115.698,18.446,1045.022625
7 Jan 2020 03:52:56.000,115.287,18.399,1046.756278
7 Jan 2020 03:52:57.000,114.878,18.350,1048.535804
7 Jan 2020 03:52:58.000,114.471,18.300,1050.360963
7 Jan 2020 03:52:59.000,114.065,18.249,1052.231519
7 Jan 2020 03:53:00.000,113.661,18.197,1054.147232
7 Jan 2020 03:53:01.000,113.259,18.144,1056.107847
7 Jan 2020 03:53:02.000,112.858,18.090,1058.113116
7 Jan 2020 03:53:03.000,112.460,18.035,1060.162788
7 Jan 2020 03:53:04.000,112.063,17.979,1062.256596
7 Jan 2020 03:53:05.000,111.668,17.922,1064.394282
7 Jan 2020 03:53:06.000,111.274,17.864,1066.575582
7 Jan 2020 03:53:07.000,110.883,17.805,1068.800221
7 Jan 2020 03:53:08.000,110.494,17.745,1071.067931
7 Jan 2020 03:53:09.000,110.106,17.685,1073.378435
7 Jan 2020 03:53:10.000,109.721,17.623,1075.731459
7 Jan 2020 03:53:11.000,109.337,17.561,1078.126715
7 Jan 2020 03:53:12.000,108.955,17.497,1080.563924
7 Jan 2020 03:53:13.000,108.576,17.433,1083.042800
7 Jan 2020 03:53:14.000,108.198,17.368,1085.563055
7 Jan 2020 03:53:15.000,107.823,17.302,1088.124399
7 Jan 2020 03:53:16.000,107.449,17.236,1090.726543
7 Jan 2020 03:53:17.000,107.078,17.168,1093.369186
7 Jan 2020 03:53:18.000,106.709,17.100,1096.052036
7 Jan 2020 03:53:19.000,106.342,17.032,1098.774796
7 Jan 2020 03:53:20.000,105.977,16.962,1101.537167
7 Jan 2020 03:53:21.000,105.614,16.892,1104.338849
7 Jan 2020 03:53:22.000,105.253,16.821,1107.179540
7 Jan 2020 03:53:23.000,104.894,16.750,1110.058939
7 Jan 2020 03:53:24.000,104.538,16.678,1112.976741
7 Jan 2020 03:53:25.000,104.183,16.605,1115.932642
7 Jan 2020 03:53:26.000,103.831,16.532,1118.926338
7 Jan 2020 03:53:27.000,103.481,16.458,1121.957522
7 Jan 2020 03:53:28.000,103.133,16.384,1125.025888
7 Jan 2020 03:53:29.000,102.788,16.309,1128.131130
7 Jan 2020 03:53:30.000,102.444,16.233,1131.272940
7 Jan 2020 03:53:31.000,102.103,16.157,1134.451013
7 Jan 2020 03:53:32.000,101.764,16.081,1137.665039
7 Jan 2020 03:53:33.000,101.427,16.004,1140.914712
7 Jan 2020 03:53:34.000,101.092,15.926,1144.199725
7 Jan 2020 03:53:35.000,100.760,15.849,1147.519771
7 Jan 2020 03:53:36.000,100.430,15.770,1150.874542
7 Jan 2020 03:53:37.000,100.102,15.692,1154.263734
7 Jan 2020 03:53:38.000,99.776,15.613,1157.687035
7 Jan 2020 03:53:39.000,99.452,15.533,1161.144148
7 Jan 2020 03:53:40.000,99.130,15.453,1164.634764
7 Jan 2020 03:53:41.000,98.811,15.373,1168.158579
7 Jan 2020 03:53:42.000,98.494,15.293,1171.715291
7 Jan 2020 03:53:43.000,98.179,15.212,1175.304595
7 Jan 2020 03:53:44.000,97.866,15.131,1178.926188
7 Jan 2020 03:53:45.000,97.556,15.050,1182.579776
7 Jan 2020 03:53:46.000,97.248,14.968,1186.265055
7 Jan 2020 03:53:47.000,96.941,14.886,1189.981728
7 Jan 2020 03:53:48.000,96.637,14.804,1193.729492
7 Jan 2020 03:53:49.000,96.335,14.721,1197.508060
7 Jan 2020 03:53:50.000,96.036,14.639,1201.317133
7 Jan 2020 03:53:51.000,95.738,14.556,1205.156418
7 Jan 2020 03:53:52.000,95.443,14.473,1209.025618
7 Jan 2020 03:53:53.000,95.149,14.390,1212.924451
7 Jan 2020 03:53:54.000,94.858,14.306,1216.852624
7 Jan 2020 03:53:55.000,94.569,14.223,1220.809846
7 Jan 2020 03:53:56.000,94.282,14.139,1224.795838
7 Jan 2020 03:53:57.000,93.997,14.055,1228.810312
7 Jan 2020 03:53:58.000,93.714,13.971,1232.852981
7 Jan 2020 03:53:59.000,93.434,13.887,1236.923573
7 Jan 2020 03:54:00.000,93.155,13.803,1241.021804
7 Jan 2020 03:54:01.000,92.879,13.719,1245.147393
7 Jan 2020 03:54:02.000,92.604,13.634,1249.300072
7 Jan 2020 03:54:03.000,92.332,13.550,1253.479563
7 Jan 2020 03:54:04.000,92.061,13.465,1257.685590
7 Jan 2020 03:54:05.000,91.793,13.380,1261.917892
7 Jan 2020 03:54:06.000,91.526,13.296,1266.176192
7 Jan 2020 03:54:07.000,91.262,13.211,1270.460232
7 Jan 2020 03:54:08.000,90.999,13.126,1274.769744
7 Jan 2020 03:54:09.000,90.739,13.041,1279.104461
7 Jan 2020 03:54:10.000,90.480,12.957,1283.464132
7 Jan 2020 03:54:11.000,90.224,12.872,1287.848489
7 Jan 2020 03:54:12.000,89.969,12.787,1292.257285
7 Jan 2020 03:54:13.000,89.716,12.702,1296.690259
7 Jan 2020 03:54:14.000,89.465,12.617,1301.147164
7 Jan 2020 03:54:15.000,89.217,12.533,1305.627744
7 Jan 2020 03:54:16.000,88.970,12.448,1310.131758
7 Jan 2020 03:54:17.000,88.724,12.363,1314.658953
7 Jan 2020 03:54:18.000,88.481,12.278,1319.209093
7 Jan 2020 03:54:19.000,88.240,12.194,1323.781929
7 Jan 2020 03:54:20.000,88.000,12.109,1328.377227
7 Jan 2020 03:54:21.000,87.762,12.024,1332.994745
7 Jan 2020 03:54:22.000,87.526,11.940,1337.634253
7 Jan 2020 03:54:23.000,87.292,11.856,1342.295511
7 Jan 2020 03:54:24.000,87.060,11.771,1346.978295
7 Jan 2020 03:54:25.000,86.829,11.687,1351.682369
7 Jan 2020 03:54:26.000,86.601,11.603,1356.407511
7 Jan 2020 03:54:27.000,86.373,11.519,1361.153497
7 Jan 2020 03:54:28.000,86.148,11.435,1365.920100
7 Jan 2020 03:54:29.000,85.925,11.351,1370.707106
7 Jan 2020 03:54:30.000,85.703,11.267,1375.514288
7 Jan 2020 03:54:31.000,85.482,11.183,1380.341435
7 Jan 2020 03:54:32.000,85.264,11.100,1385.188336
7 Jan 2020 03:54:33.000,85.047,11.016,1390.054771
7 Jan 2020 03:54:34.000,84.832,10.933,1394.940539
7 Jan 2020 03:54:35.000,84.618,10.850,1399.845422
7 Jan 2020 03:54:36.000,84.406,10.767,1404.769220
7 Jan 2020 03:54:37.000,84.196,10.684,1409.711733
7 Jan 2020 03:54:38.000,83.987,10.601,1414.672751
7 Jan 2020 03:54:39.000,83.780,10.518,1419.652078
7 Jan 2020 03:54:40.000,83.575,10.436,1424.649520
7 Jan 2020 03:54:41.000,83.371,10.353,1429.664875
7 Jan 2020 03:54:42.000,83.168,10.271,1434.697952
7 Jan 2020 03:54:43.000,82.968,10.189,1439.748564
7 Jan 2020 03:54:44.000,82.768,10.107,1444.816514
7 Jan 2020 03:54:45.000,82.570,10.025,1449.901617
7 Jan 2020 03:54:46.000,82.374,9.943,1455.003692
7 Jan 2020 03:54:47.000,82.179,9.862,1460.122548
7 Jan 2020 03:54:48.000,81.986,9.781,1465.258007
7 Jan 2020 03:54:49.000,81.794,9.699,1470.409888
7 Jan 2020 03:54:50.000,81.604,9.618,1475.578019
7 Jan 2020 03:54:51.000,81.415,9.538,1480.762214
7 Jan 2020 03:54:52.000,81.227,9.457,1485.962305
7 Jan 2020 03:54:53.000,81.041,9.377,1491.178118
7 Jan 2020 03:54:54.000,80.856,9.296,1496.409487
7 Jan 2020 03:54:55.000,80.673,9.216,1501.656237
7 Jan 2020 03:54:56.000,80.491,9.136,1506.918204
7 Jan 2020 03:54:57.000,80.311,9.056,1512.195223
7 Jan 2020 03:54:58.000,80.131,8.977,1517.487135
7 Jan 2020 03:54:59.000,79.953,8.897,1522.793772
7 Jan 2020 03:55:00.000,79.777,8.818,1528.114977
7 Jan 2020 03:55:01.000,79.602,8.739,1533.450593
7 Jan 2020 03:55:02.000,79.428,8.660,1538.800467
7 Jan 2020 03:55:03.000,79.255,8.582,1544.164438
7 Jan 2020 03:55:04.000,79.084,8.503,1549.542357
7 Jan 2020 03:55:05.000,78.914,8.425,1554.934074
7 Jan 2020 03:55:06.000,78.745,8.347,1560.339438
7 Jan 2020 03:55:07.000,78.578,8.269,1565.758306
7 Jan 2020 03:55:08.000,78.411,8.191,1571.190525
7 Jan 2020 03:55:09.000,78.246,8.114,1576.635954
7 Jan 2020 03:55:10.000,78.082,8.036,1582.094451
7 Jan 2020 03:55:11.000,77.920,7.959,1587.565875
7 Jan 2020 03:55:12.000,77.758,7.882,1593.050089
7 Jan 2020 03:55:13.000,77.598,7.806,1598.546948
7 Jan 2020 03:55:14.000,77.439,7.729,1604.056321
7 Jan 2020 03:55:15.000,77.281,7.653,1609.578071
7 Jan 2020 03:55:16.000,77.124,7.577,1615.112067
7 Jan 2020 03:55:17.000,76.969,7.501,1620.658175
7 Jan 2020 03:55:18.000,76.814,7.425,1626.216269
7 Jan 2020 03:55:19.000,76.661,7.349,1631.786214
7 Jan 2020 03:55:20.000,76.509,7.274,1637.367885
7 Jan 2020 03:55:21.000,76.358,7.199,1642.961157
7 Jan 2020 03:55:22.000,76.208,7.124,1648.565905
7 Jan 2020 03:55:23.000,76.059,7.049,1654.182005
7 Jan 2020 03:55:24.000,75.911,6.974,1659.809337
7 Jan 2020 03:55:25.000,75.764,6.900,1665.447780
7 Jan 2020 03:55:26.000,75.619,6.826,1671.097218
7 Jan 2020 03:55:27.000,75.474,6.752,1676.757527
7 Jan 2020 03:55:28.000,75.330,6.678,1682.428595
7 Jan 2020 03:55:29.000,75.188,6.604,1688.110305
7 Jan 2020 03:55:30.000,75.046,6.531,1693.802545
7 Jan 2020 03:55:31.000,74.905,6.458,1699.505202
7 Jan 2020 03:55:32.000,74.766,6.385,1705.218165
7 Jan 2020 03:55:33.000,74.627,6.312,1710.941325
7 Jan 2020 03:55:34.000,74.490,6.239,1716.674572
7 Jan 2020 03:55:35.000,74.353,6.167,1722.417799
7 Jan 2020 03:55:36.000,74.217,6.095,1728.170904
7 Jan 2020 03:55:37.000,74.083,6.023,1733.933775
7 Jan 2020 03:55:38.000,73.949,5.951,1739.706312
7 Jan 2020 03:55:39.000,73.816,5.879,1745.488411
7 Jan 2020 03:55:40.000,73.684,5.808,1751.279972
7 Jan 2020 03:55:41.000,73.553,5.736,1757.080895
7 Jan 2020 03:55:42.000,73.423,5.665,1762.891079
7 Jan 2020 03:55:43.000,73.294,5.595,1768.710428
7 Jan 2020 03:55:44.000,73.166,5.524,1774.538845
7 Jan 2020 03:55:45.000,73.038,5.453,1780.376233
7 Jan 2020 03:55:46.000,72.912,5.383,1786.222498
7 Jan 2020 03:55:47.000,72.786,5.313,1792.077546
7 Jan 2020 03:55:48.000,72.662,5.243,1797.941285
7 Jan 2020 03:55:49.000,72.538,5.173,1803.813623
7 Jan 2020 03:55:50.000,72.415,5.104,1809.694470
7 Jan 2020 03:55:51.000,72.293,5.034,1815.583736
7 Jan 2020 03:55:52.000,72.171,4.965,1821.481333
7 Jan 2020 03:55:53.000,72.051,4.896,1827.387173
7 Jan 2020 03:55:54.000,71.931,4.827,1833.301169
7 Jan 2020 03:55:55.000,71.812,4.759,1839.223241
7 Jan 2020 03:55:56.000,71.694,4.690,1845.153295
7 Jan 2020 03:55:57.000,71.577,4.622,1851.091253
7 Jan 2020 03:55:58.000,71.460,4.554,1857.037031
7 Jan 2020 03:55:59.000,71.345,4.486,1862.990547
7 Jan 2020 03:56:00.000,71.230,4.418,1868.951722
7 Jan 2020 03:56:01.000,71.116,4.351,1874.920474
7 Jan 2020 03:56:02.000,71.002,4.283,1880.896725
7 Jan 2020 03:56:03.000,70.890,4.216,1886.880396
7 Jan 2020 03:56:04.000,70.778,4.149,1892.871411
7 Jan 2020 03:56:05.000,70.667,4.082,1898.869692
7 Jan 2020 03:56:06.000,70.556,4.016,1904.875165
7 Jan 2020 03:56:07.000,70.446,3.949,1910.887754
7 Jan 2020 03:56:08.000,70.338,3.883,1916.907386
7 Jan 2020 03:56:09.000,70.229,3.817,1922.933987
7 Jan 2020 03:56:10.000,70.122,3.751,1928.967485
7 Jan 2020 03:56:11.000,70.015,3.685,1935.007809
7 Jan 2020 03:56:12.000,69.909,3.619,1941.054887
7 Jan 2020 03:56:13.000,69.803,3.554,1947.108651
7 Jan 2020 03:56:14.000,69.699,3.489,1953.169030
7 Jan 2020 03:56:15.000,69.595,3.424,1959.235956
7 Jan 2020 03:56:16.000,69.491,3.359,1965.309359
7 Jan 2020 03:56:17.000,69.389,3.294,1971.389177
7 Jan 2020 03:56:18.000,69.287,3.229,1977.475343
7 Jan 2020 03:56:19.000,69.185,3.165,1983.567789
7 Jan 2020 03:56:20.000,69.084,3.101,1989.666451
7 Jan 2020 03:56:21.000,68.984,3.037,1995.771265
7 Jan 2020 03:56:22.000,68.885,2.973,2001.882168
7 Jan 2020 03:56:23.000,68.786,2.909,2007.999097
7 Jan 2020 03:56:24.000,68.688,2.845,2014.121991
7 Jan 2020 03:56:25.000,68.590,2.782,2020.250787
7 Jan 2020 03:56:26.000,68.493,2.718,2026.385424
7 Jan 2020 03:56:27.000,68.397,2.655,2032.525844
7 Jan 2020 03:56:28.000,68.301,2.592,2038.671987
7 Jan 2020 03:56:29.000,68.206,2.530,2044.823793
7 Jan 2020 03:56:30.000,68.112,2.467,2050.981205
7 Jan 2020 03:56:31.000,68.018,2.404,2057.144165
7 Jan 2020 03:56:32.000,67.925,2.342,2063.312617
7 Jan 2020 03:56:33.000,67.832,2.280,2069.486504
7 Jan 2020 03:56:34.000,67.740,2.218,2075.665770
7 Jan 2020 03:56:35.000,67.648,2.156,2081.850360
7 Jan 2020 03:56:36.000,67.557,2.094,2088.040220
7 Jan 2020 03:56:37.000,67.467,2.033,2094.235296
7 Jan 2020 03:56:38.000,67.377,1.971,2100.435531
7 Jan 2020 03:56:39.000,67.287,1.910,2106.640879
7 Jan 2020 03:56:40.000,67.199,1.849,2112.851284
7 Jan 2020 03:56:41.000,67.110,1.788,2119.066695
7 Jan 2020 03:56:42.000,67.023,1.727,2125.287061
7 Jan 2020 03:56:43.000,66.935,1.666,2131.512331
7 Jan 2020 03:56:44.000,66.849,1.606,2137.742454
7 Jan 2020 03:56:45.000,66.763,1.545,2143.977382
7 Jan 2020 03:56:46.000,66.677,1.485,2150.217065
7 Jan 2020 03:56:47.000,66.592,1.425,2156.461455
7 Jan 2020 03:56:48.000,66.507,1.365,2162.710503
7 Jan 2020 03:56:49.000,66.423,1.305,2168.964163
7 Jan 2020 03:56:50.000,66.340,1.245,2175.222386
7 Jan 2020 03:56:51.000,66.257,1.186,2181.485124
7 Jan 2020 03:56:52.000,66.174,1.126,2187.752336
7 Jan 2020 03:56:53.000,66.092,1.067,2194.023974
7 Jan 2020 03:56:54.000,66.011,1.008,2200.299992
7 Jan 2020 03:56:55.000,65.929,0.949,2206.580346
7 Jan 2020 03:56:56.000,65.849,0.890,2212.864992
7 Jan 2020 03:56:57.000,65.769,0.831,2219.153886
7 Jan 2020 03:56:58.000,65.689,0.773,2225.446984
7 Jan 2020 03:56:59.000,65.610,0.714,2231.744243
7 Jan 2020 03:57:00.000,65.531,0.656,2238.045622
7 Jan 2020 03:57:01.000,65.453,0.598,2244.351074
7 Jan 2020 03:57:02.000,65.375,0.540,2250.660565
7 Jan 2020 03:57:03.000,65.298,0.482,2256.974051
7 Jan 2020 03:57:04.000,65.221,0.424,2263.291489
7 Jan 2020 03:57:05.000,65.144,0.366,2269.612841
7 Jan 2020 03:57:06.000,65.068,0.309,2275.938066
7 Jan 2020 03:57:07.000,64.993,0.251,2282.267124
7 Jan 2020 03:57:08.000,64.918,0.194,2288.599976
7 Jan 2020 03:57:09.000,64.843,0.137,2294.936584
7 Jan 2020 03:57:10.000,64.769,0.080,2301.276905
7 Jan 2020 03:57:11.000,64.695,0.023,2307.620908
7 Jan 2020 03:57:12.000,64.621,-0.034,2313.968553
7 Jan 2020 03:57:12.779,64.564,-0.078,2318.917729
7 Jan 2020 05:23:20.278,247.038,-0.079,2311.094437
7 Jan 2020 05:23:21.000,247.069,-0.035,2306.224552
7 Jan 2020 05:23:22.000,247.111,0.026,2299.479976
7 Jan 2020 05:23:23.000,247.154,0.087,2292.736428
7 Jan 2020 05:23:24.000,247.197,0.148,2285.993926
7 Jan 2020 05:23:25.000,247.240,0.209,2279.252482
7 Jan 2020 05:23:26.000,247.283,0.271,2272.512122
7 Jan 2020 05:23:27.000,247.327,0.332,2265.772859
7 Jan 2020 05:23:28.000,247.371,0.394,2259.034710
7 Jan 2020 05:23:29.000,247.415,0.456,2252.297691
7 Jan 2020 05:23:30.000,247.460,0.518,2245.561826
7 Jan 2020 05:23:31.000,247.504,0.580,2238.827130
7 Jan 2020 05:23:32.000,247.549,0.643,2232.093620
7 Jan 2020 05:23:33.000,247.594,0.706,2225.361314
7 Jan 2020 05:23:34.000,247.640,0.769,2218.630235
7 Jan 2020 05:23:35.000,247.685,0.832,2211.900400
7 Jan 2020 05:23:36.000,247.731,0.895,2205.171828
7 Jan 2020 05:23:37.000,247.778,0.958,2198.444534
7 Jan 2020 05:23:38.000,247.824,1.022,2191.718546
7 Jan 2020 05:23:39.000,247.871,1.086,2184.993879
7 Jan 2020 05:23:40.000,247.918,1.150,2178.270554
7 Jan 2020 05:23:41.000,247.965,1.214,2171.548587
7 Jan 2020 05:23:42.000,248.013,1.278,2164.828006
7 Jan 2020 05:23:43.000,248.061,1.343,2158.108828
7 Jan 2020 05:23:44.000,248.109,1.408,2151.391074
7 Jan 2020 05:23:45.000,248.158,1.473,2144.674762
7 Jan 2020 05:23:46.000,248.206,1.538,2137.959919
7 Jan 2020 05:23:47.000,248.255,1.604,2131.246565
7 Jan 2020 05:23:48.000,248.305,1.669,2124.534721
7 Jan 2020 05:23:49.000,248.355,1.735,2117.824406
7 Jan 2020 05:23:50.000,248.405,1.801,2111.115648
7 Jan 2020 05:23:51.000,248.455,1.868,2104.408468
7 Jan 2020 05:23:52.000,248.505,1.934,2097.702887
7 Jan 2020 05:23:53.000,248.556,2.001,2090.998930
7 Jan 2020 05:23:54.000,248.608,2.068,2084.296617
7 Jan 2020 05:23:55.000,248.659,2.135,2077.595977
7 Jan 2020 05:23:56.000,248.711,2.202,2070.897031
7 Jan 2020 05:23:57.000,248.763,2.270,2064.199804
7 Jan 2020 05:23:58.000,248.816,2.338,2057.504316
7 Jan 2020 05:23:59.000,248.869,2.406,2050.810600
7 Jan 2020 05:24:00.000,248.922,2.474,2044.118677
7 Jan 2020 05:24:01.000,248.975,2.543,2037.428572
7 Jan 2020 05:24:02.000,249.029,2.612,2030.740308
7 Jan 2020 05:24:03.000,249.084,2.681,2024.053917
7 Jan 2020 05:24:04.000,249.138,2.750,2017.369423
7 Jan 2020 05:24:05.000,249.193,2.820,2010.686852
7 Jan 2020 05:24:06.000,249.249,2.889,2004.006228
7 Jan 2020 05:24:07.000,249.304,2.959,1997.327584
7 Jan 2020 05:24:08.000,249.360,3.030,1990.650945
7 Jan 2020 05:24:09.000,249.417,3.100,1983.976340
7 Jan 2020 05:24:10.000,249.473,3.171,1977.303795
7 Jan 2020 05:24:11.000,249.531,3.242,1970.633337
7 Jan 2020 05:24:12.000,249.588,3.313,1963.965001
7 Jan 2020 05:24:13.000,249.646,3.385,1957.298814
7 Jan 2020 05:24:14.000,249.704,3.457,1950.634804
7 Jan 2020 05:24:15.000,249.763,3.529,1943.972999
7 Jan 2020 05:24:16.000,249.822,3.601,1937.313436
7 Jan 2020 05:24:17.000,249.882,3.674,1930.656143
7 Jan 2020 05:24:18.000,249.942,3.747,1924.001150
7 Jan 2020 05:24:19.000,250.002,3.820,1917.348489
7 Jan 2020 05:24:20.000,250.063,3.894,1910.698189
7 Jan 2020 05:24:21.000,250.124,3.967,1904.050289
7 Jan 2020 05:24:22.000,250.185,4.042,1897.404819
7 Jan 2020 05:24:23.000,250.247,4.116,1890.761812
7 Jan 2020 05:24:24.000,250.310,4.191,1884.121298
7 Jan 2020 05:24:25.000,250.373,4.265,1877.483318
7 Jan 2020 05:24:26.000,250.436,4.341,1870.847904
7 Jan 2020 05:24:27.000,250.500,4.416,1864.215090
7 Jan 2020 05:24:28.000,250.564,4.492,1857.584911
7 Jan 2020 05:24:29.000,250.629,4.568,1850.957401
7 Jan 2020 05:24:30.000,250.694,4.645,1844.332603
7 Jan 2020 05:24:31.000,250.760,4.722,1837.710551
7 Jan 2020 05:24:32.000,250.826,4.799,1831.091280
7 Jan 2020 05:24:33.000,250.892,4.876,1824.474831
7 Jan 2020 05:24:34.000,250.959,4.954,1817.861237
7 Jan 2020 05:24:35.000,251.027,5.032,1811.250544
7 Jan 2020 05:24:36.000,251.095,5.110,1804.642789
7 Jan 2020 05:24:37.000,251.163,5.189,1798.038011
7 Jan 2020 05:24:38.000,251.232,5.268,1791.436251
7 Jan 2020 05:24:39.000,251.302,5.347,1784.837546
7 Jan 2020 05:24:40.000,251.372,5.427,1778.241946
7 Jan 2020 05:24:41.000,251.442,5.507,1771.649488
7 Jan 2020 05:24:42.000,251.514,5.588,1765.060217
7 Jan 2020 05:24:43.000,251.585,5.668,1758.474174
7 Jan 2020 05:24:44.000,251.657,5.749,1751.891401
7 Jan 2020 05:24:45.000,251.730,5.831,1745.311949
7 Jan 2020 05:24:46.000,251.803,5.913,1738.735860
7 Jan 2020 05:24:47.000,251.877,5.995,1732.163180
7 Jan 2020 05:24:48.000,251.952,6.078,1725.593955
7 Jan 2020 05:24:49.000,252.027,6.161,1719.028229
7 Jan 2020 05:24:50.000,252.102,6.244,1712.466056
7 Jan 2020 05:24:51.000,252.178,6.328,1705.907483
7 Jan 2020 05:24:52.000,252.255,6.412,1699.352558
7 Jan 2020 05:24:53.000,252.332,6.496,1692.801330
7 Jan 2020 05:24:54.000,252.410,6.581,1686.253848
7 Jan 2020 05:24:55.000,252.489,6.666,1679.710169
7 Jan 2020 05:24:56.000,252.568,6.752,1673.170342
7 Jan 2020 05:24:57.000,252.648,6.838,1666.634420
7 Jan 2020 05:24:58.000,252.728,6.924,1660.102456
7 Jan 2020 05:24:59.000,252.810,7.011,1653.574505
7 Jan 2020 05:25:00.000,252.891,7.099,1647.050619
7 Jan 2020 05:25:01.000,252.974,7.186,1640.530861
7 Jan 2020 05:25:02.000,253.057,7.275,1634.015283
7 Jan 2020 05:25:03.000,253.141,7.363,1627.503945
7 Jan 2020 05:25:04.000,253.225,7.452,1620.996903
7 Jan 2020 05:25:05.000,253.310,7.542,1614.494218
7 Jan 2020 05:25:06.000,253.396,7.632,1607.995947
7 Jan 2020 05:25:07.000,253.483,7.722,1601.502157
7 Jan 2020 05:25:08.000,253.570,7.813,1595.012907
7 Jan 2020 05:25:09.000,253.658,7.904,1588.528261
7 Jan 2020 05:25:10.000,253.747,7.996,1582.048283
7 Jan 2020 05:25:11.000,253.836,8.088,1575.573036
7 Jan 2020 05:25:12.000,253.927,8.180,1569.102585
7 Jan 2020 05:25:13.000,254.018,8.274,1562.637003
7 Jan 2020 05:25:14.000,254.109,8.367,1556.176354
7 Jan 2020 05:25:15.000,254.202,8.461,1549.720708
7 Jan 2020 05:25:16.000,254.295,8.556,1543.270135
7 Jan 2020 05:25:17.000,254.390,8.651,1536.824705
7 Jan 2020 05:25:18.000,254.485,8.747,1530.384489
7 Jan 2020 05:25:19.000,254.581,8.843,1523.949566
7 Jan 2020 05:25:20.000,254.677,8.939,1517.520008
7 Jan 2020 05:25:21.000,254.775,9.036,1511.095890
7 Jan 2020 05:25:22.000,254.873,9.134,1504.677289
7 Jan 2020 05:25:23.000,254.973,9.232,1498.264285
7 Jan 2020 05:25:24.000,255.073,9.331,1491.856955
7 Jan 2020 05:25:25.000,255.174,9.430,1485.455378
7 Jan 2020 05:25:26.000,255.276,9.530,1479.059642
7 Jan 2020 05:25:27.000,255.379,9.630,1472.669828
7 Jan 2020 05:25:28.000,255.483,9.731,1466.286020
7 Jan 2020 05:25:29.000,255.587,9.833,1459.908304
7 Jan 2020 05:25:30.000,255.693,9.935,1453.536767
7 Jan 2020 05:25:31.000,255.800,10.037,1447.171499
7 Jan 2020 05:25:32.000,255.908,10.140,1440.812590
7 Jan 2020 05:25:33.000,256.017,10.244,1434.460128
7 Jan 2020 05:25:34.000,256.126,10.348,1428.114214
7 Jan 2020 05:25:35.000,256.237,10.453,1421.774938
7 Jan 2020 05:25:36.000,256.349,10.559,1415.442398
7 Jan 2020 05:25:37.000,256.462,10.665,1409.116691
7 Jan 2020 05:25:38.000,256.576,10.772,1402.797918
7 Jan 2020 05:25:39.000,256.691,10.879,1396.486178
7 Jan 2020 05:25:40.000,256.807,10.987,1390.181576
7 Jan 2020 05:25:41.000,256.924,11.096,1383.884215
7 Jan 2020 05:25:42.000,257.043,11.205,1377.594200
7 Jan 2020 05:25:43.000,257.162,11.315,1371.311645
7 Jan 2020 05:25:44.000,257.283,11.426,1365.036657
7 Jan 2020 05:25:45.000,257.405,11.537,1358.769348
7 Jan 2020 05:25:46.000,257.528,11.649,1352.509831
7 Jan 2020 05:25:47.000,257.652,11.762,1346.258223
7 Jan 2020 05:25:48.000,257.778,11.875,1340.014642
7 Jan 2020 05:25:49.000,257.905,11.989,1333.779206
7 Jan 2020 05:25:50.000,258.033,12.104,1327.552039
7 Jan 2020 05:25:51.000,258.162,12.219,1321.333263
7 Jan 2020 05:25:52.000,258.293,12.335,1315.123006
7 Jan 2020 05:25:53.000,258.425,12.452,1308.921395
7 Jan 2020 05:25:54.000,258.559,12.570,1302.728557
7 Jan 2020 05:25:55.000,258.693,12.688,1296.544633
7 Jan 2020 05:25:56.000,258.830,12.807,1290.369754
7 Jan 2020 05:25:57.000,258.967,12.927,1284.204057
7 Jan 2020 05:25:58.000,259.106,13.047,1278.047682
7 Jan 2020 05:25:59.000,259.247,13.169,1271.900771
7 Jan 2020 05:26:00.000,259.389,13.291,1265.763470
7 Jan 2020 05:26:01.000,259.532,13.413,1259.635926
7 Jan 2020 05:26:02.000,259.677,13.537,1253.518288
7 Jan 2020 05:26:03.000,259.824,13.662,1247.410710
7 Jan 2020 05:26:04.000,259.972,13.787,1241.313347
7 Jan 2020 05:26:05.000,260.121,13.913,1235.226357
7 Jan 2020 05:26:06.000,260.273,14.040,1229.149901
7 Jan 2020 05:26:07.000,260.426,14.167,1223.084143
7 Jan 2020 05:26:08.000,260.580,14.296,1217.029249
7 Jan 2020 05:26:09.000,260.736,14.425,1210.985390
7 Jan 2020 05:26:10.000,260.895,14.556,1204.952739
7 Jan 2020 05:26:11.000,261.054,14.687,1198.931471
7 Jan 2020 05:26:12.000,261.216,14.819,1192.921765
7 Jan 2020 05:26:13.000,261.379,14.951,1186.923805
7 Jan 2020 05:26:14.000,261.544,15.085,1180.937775
7 Jan 2020 05:26:15.000,261.712,15.220,1174.963864
7 Jan 2020 05:26:16.000,261.881,15.355,1169.002267
7 Jan 2020 05:26:17.000,262.051,15.492,1163.053177
7 Jan 2020 05:26:18.000,262.224,15.629,1157.116796
7 Jan 2020 05:26:19.000,262.399,15.767,1151.193325
7 Jan 2020 05:26:20.000,262.576,15.906,1145.282973
7 Jan 2020 05:26:21.000,262.755,16.046,1139.385950
7 Jan 2020 05:26:22.000,262.936,16.188,1133.502471
7 Jan 2020 05:26:23.000,263.119,16.330,1127.632754
7 Jan 2020 05:26:24.000,263.304,16.472,1121.777022
7 Jan 2020 05:26:25.000,263.492,16.616,1115.935502
7 Jan 2020 05:26:26.000,263.681,16.761,1110.108424
7 Jan 2020 05:26:27.000,263.873,16.907,1104.296024
7 Jan 2020 05:26:28.000,264.068,17.054,1098.498541
7 Jan 2020 05:26:29.000,264.264,17.202,1092.716219
7 Jan 2020 05:26:30.000,264.463,17.351,1086.949307
7 Jan 2020 05:26:31.000,264.664,17.501,1081.198061
7 Jan 2020 05:26:32.000,264.868,17.652,1075.462732
7 Jan 2020 05:26:33.000,265.075,17.804,1069.743585
7 Jan 2020 05:26:34.000,265.283,17.957,1064.040889
7 Jan 2020 05:26:35.000,265.495,18.111,1058.354915
7 Jan 2020 05:26:36.000,265.709,18.266,1052.685941
7 Jan 2020 05:26:37.000,265.926,18.422,1047.034250
7 Jan 2020 05:26:38.000,266.145,18.579,1041.400128
7 Jan 2020 05:26:39.000,266.367,18.737,1035.783869
7 Jan 2020 05:26:40.000,266.592,18.896,1030.185771
7 Jan 2020 05:26:41.000,266.820,19.057,1024.606142
7 Jan 2020 05:26:42.000,267.051,19.218,1019.045284
7 Jan 2020 05:26:43.000,267.285,19.381,1013.503516
7 Jan 2020 05:26:44.000,267.522,19.544,1007.981159
7 Jan 2020 05:26:45.000,267.761,19.709,1002.478540
7 Jan 2020 05:26:46.000,268.004,19.875,996.995991
7 Jan 2020 05:26:47.000,268.251,20.042,991.533856
7 Jan 2020 05:26:48.000,268.500,20.210,986.092473
7 Jan 2020 05:26:49.000,268.752,20.379,980.672196
7 Jan 2020 05:26:50.000,269.008,20.549,975.273383
7 Jan 2020 05:26:51.000,269.268,20.720,969.896400
7 Jan 2020 05:26:52.000,269.530,20.893,964.541619
7 Jan 2020 05:26:53.000,269.797,21.066,959.209413
7 Jan 2020 05:26:54.000,270.066,21.241,953.900169
7 Jan 2020 05:26:55.000,270.340,21.416,948.614278
7 Jan 2020 05:26:56.000,270.617,21.593,943.352140
7 Jan 2020 05:26:57.000,270.898,21.771,938.114162
7 Jan 2020 05:26:58.000,271.183,21.950,932.900750
7 Jan 2020 05:26:59.000,271.471,22.130,927.712329
7 Jan 2020 05:27:00.000,271.764,22.311,922.549325
7 Jan 2020 05:27:01.000,272.060,22.493,917.412176
7 Jan 2020 05:27:02.000,272.361,22.677,912.301319
7 Jan 2020 05:27:03.000,272.666,22.861,907.217206
7 Jan 2020 05:27:04.000,272.975,23.046,902.160299
7 Jan 2020 05:27:05.000,273.288,23.233,897.131056
7 Jan 2020 05:27:06.000,273.606,23.420,892.129954
7 Jan 2020 05:27:07.000,273.928,23.609,887.157478
7 Jan 2020 05:27:08.000,274.255,23.798,882.214110
7 Jan 2020 05:27:09.000,274.586,23.989,877.300352
7 Jan 2020 05:27:10.000,274.922,24.180,872.416712
7 Jan 2020 05:27:11.000,275.263,24.373,867.563698
7 Jan 2020 05:27:12.000,275.608,24.566,862.741835
7 Jan 2020 05:27:13.000,275.959,24.760,857.951657
7 Jan 2020 05:27:14.000,276.314,24.955,853.193696
7 Jan 2020 05:27:15.000,276.675,25.151,848.468505
7 Jan 2020 05:27:16.000,277.041,25.348,843.776635
7 Jan 2020 05:27:17.000,277.412,25.546,839.118655
7 Jan 2020 05:27:18.000,277.788,25.745,834.495131
7 Jan 2020 05:27:19.000,278.170,25.944,829.906648
7 Jan 2020 05:27:20.000,278.557,26.144,825.353798
7 Jan 2020 05:27:21.000,278.950,26.345,820.837173
7 Jan 2020 05:27:22.000,279.348,26.546,816.357385
7 Jan 2020 05:27:23.000,279.752,26.748,811.915041
7 Jan 2020 05:27:24.000,280.162,26.951,807.510772
7 Jan 2020 05:27:25.000,280.578,27.154,803.145206
7 Jan 2020 05:27:26.000,281.000,27.357,798.818977
7 Jan 2020 05:27:27.000,281.429,27.561,794.532740
7 Jan 2020 05:27:28.000,281.863,27.766,790.287144
7 Jan 2020 05:27:29.000,282.304,27.971,786.082857
7 Jan 2020 05:27:30.000,282.751,28.176,781.920545
7 Jan 2020 05:27:31.000,283.204,28.381,777.800892
7 Jan 2020 05:27:32.000,283.664,28.587,773.724581
7 Jan 2020 05:27:33.000,284.131,28.792,769.692301
7 Jan 2020 05:27:34.000,284.604,28.998,765.704758
7 Jan 2020 05:27:35.000,285.084,29.204,761.762656
7 Jan 2020 05:27:36.000,285.571,29.409,757.866706
7 Jan 2020 05:27:37.000,286.065,29.614,754.017633
7 Jan 2020 05:27:38.000,286.566,29.820,750.216158
7 Jan 2020 05:27:39.000,287.074,30.024,746.463015
7 Jan 2020 05:27:40.000,287.590,30.229,742.758935
7 Jan 2020 05:27:41.000,288.112,30.433,739.104666
7 Jan 2020 05:27:42.000,288.642,30.636,735.500952
7 Jan 2020 05:27:43.000,289.179,30.839,731.948543
7 Jan 2020 05:27:44.000,289.724,31.040,728.448191
7 Jan 2020 05:27:45.000,290.276,31.241,725.000658
7 Jan 2020 05:27:46.000,290.836,31.441,721.606703
7 Jan 2020 05:27:47.000,291.404,31.640,718.267088
7 Jan 2020 05:27:48.000,291.979,31.838,714.982579
7 Jan 2020 05:27:49.000,292.562,32.034,711.753940
7 Jan 2020 05:27:50.000,293.152,32.229,708.581940
7 Jan 2020 05:27:51.000,293.751,32.423,705.467346
7 Jan 2020 05:27:52.000,294.357,32.614,702.410924
7 Jan 2020 05:27:53.000,294.971,32.804,699.413439
7 Jan 2020 05:27:54.000,295.593,32.992,696.475657
7 Jan 2020 05:27:55.000,296.222,33.178,693.598338
7 Jan 2020 05:27:56.000,296.860,33.362,690.782240
7 Jan 2020 05:27:57.000,297.505,33.544,688.028119
7 Jan 2020 05:27:58.000,298.158,33.723,685.336723
7 Jan 2020 05:27:59.000,298.819,33.899,682.708798
7 Jan 2020 05:28:00.000,299.488,34.073,680.145082
7 Jan 2020 05:28:01.000,300.164,34.244,677.646305
7 Jan 2020 05:28:02.000,300.848,34.411,675.213195
7 Jan 2020 05:28:03.000,301.540,34.576,672.846459
7 Jan 2020 05:28:04.000,302.239,34.737,670.546806
7 Jan 2020 05:28:05.000,302.946,34.895,668.314930
7 Jan 2020 05:28:06.000,303.660,35.049,666.151516
7 Jan 2020 05:28:07.000,304.381,35.200,664.057235
7 Jan 2020 05:28:08.000,305.109,35.347,662.032741
7 Jan 2020 05:28:09.000,305.844,35.489,660.078681
7 Jan 2020 05:28:10.000,306.587,35.628,658.195686
7 Jan 2020 05:28:11.000,307.335,35.762,656.384365
7 Jan 2020 05:28:12.000,308.091,35.891,654.645318
7 Jan 2020 05:28:13.000,308.853,36.016,652.979119
7 Jan 2020 05:28:14.000,309.620,36.137,651.386333
7 Jan 2020 05:28:15.000,310.394,36.252,649.867501
7 Jan 2020 05:28:16.000,311.174,36.362,648.423140
7 Jan 2020 05:28:17.000,311.959,36.468,647.053754
7 Jan 2020 05:28:18.000,312.750,36.568,645.759820
7 Jan 2020 05:28:19.000,313.545,36.662,644.541790
7 Jan 2020 05:28:20.000,314.346,36.752,643.400100
7 Jan 2020 05:28:21.000,315.151,36.835,642.335154
7 Jan 2020 05:28:22.000,315.960,36.913,641.347340
7 Jan 2020 05:28:23.000,316.773,36.985,640.437012
7 Jan 2020 05:28:24.000,317.590,37.051,639.604499
7 Jan 2020 05:28:25.000,318.410,37.112,638.850111
7 Jan 2020 05:28:26.000,319.234,37.166,638.174123
7 Jan 2020 05:28:27.000,320.060,37.214,637.576783
7 Jan 2020 05:28:28.000,320.888,37.256,637.058313
7 Jan 2020 05:28:29.000,321.719,37.292,636.618907
7 Jan 2020 05:28:30.000,322.551,37.321,636.258729
7 Jan 2020 05:28:31.000,323.385,37.344,635.977911
7 Jan 2020 05:28:32.000,324.220,37.361,635.776560
7 Jan 2020 05:28:33.000,325.055,37.371,635.654749
7 Jan 2020 05:28:34.000,325.891,37.375,635.612526
7 Jan 2020 05:28:35.000,326.727,37.373,635.649904
7 Jan 2020 05:28:36.000,327.563,37.364,635.766869
7 Jan 2020 05:28:37.000,328.398,37.349,635.963376
7 Jan 2020 05:28:38.000,329.232,37.328,636.239352
7 Jan 2020 05:28:39.000,330.065,37.300,636.594690
7 Jan 2020 05:28:40.000,330.895,37.266,637.029259
7 Jan 2020 05:28:41.000,331.724,37.226,637.542894
7 Jan 2020 05:28:42.000,332.551,37.179,638.135404
7 Jan 2020 05:28:43.000,333.374,37.127,638.806567
7 Jan 2020 05:28:44.000,334.195,37.068,639.556134
7 Jan 2020 05:28:45.000,335.013,37.004,640.383829
7 Jan 2020 05:28:46.000,335.826,36.933,641.289349
7 Jan 2020 05:28:47.000,336.636,36.857,642.272360
7 Jan 2020 05:28:48.000,337.442,36.775,643.332506
7 Jan 2020 05:28:49.000,338.243,36.687,644.469407
7 Jan 2020 05:28:50.000,339.039,36.594,645.682653
7 Jan 2020 05:28:51.000,339.830,36.496,646.971813
7 Jan 2020 05:28:52.000,340.616,36.392,648.336433
7 Jan 2020 05:28:53.000,341.397,36.283,649.776034
7 Jan 2020 05:28:54.000,342.171,36.169,651.290117
7 Jan 2020 05:28:55.000,342.940,36.050,652.878162
7 Jan 2020 05:28:56.000,343.703,35.927,654.539627
7 Jan 2020 05:28:57.000,344.459,35.798,656.273953
7 Jan 2020 05:28:58.000,345.209,35.666,658.080560
7 Jan 2020 05:28:59.000,345.952,35.529,659.958853
7 Jan 2020 05:29:00.000,346.688,35.387,661.908218
7 Jan 2020 05:29:01.000,347.418,35.242,663.928026
7 Jan 2020 05:29:02.000,348.140,35.093,666.017634
7 Jan 2020 05:29:03.000,348.855,34.940,668.176384
7 Jan 2020 05:29:04.000,349.563,34.783,670.403604
7 Jan 2020 05:29:05.000,350.263,34.623,672.698611
7 Jan 2020 05:29:06.000,350.956,34.460,675.060711
7 Jan 2020 05:29:07.000,351.641,34.293,677.489198
7 Jan 2020 05:29:08.000,352.318,34.124,679.983357
7 Jan 2020 05:29:09.000,352.988,33.951,682.542466
7 Jan 2020 05:29:10.000,353.650,33.776,685.165793
7 Jan 2020 05:29:11.000,354.305,33.598,687.852599
7 Jan 2020 05:29:12.000,354.951,33.417,690.602140
7 Jan 2020 05:29:13.000,355.590,33.235,693.413666
7 Jan 2020 05:29:14.000,356.221,33.050,696.286421
7 Jan 2020 05:29:15.000,356.844,32.863,699.219648
7 Jan 2020 05:29:16.000,357.459,32.674,702.212584
7 Jan 2020 05:29:17.000,358.066,32.483,705.264465
7 Jan 2020 05:29:18.000,358.666,32.291,708.374525
7 Jan 2020 05:29:19.000,359.257,32.096,711.541998
7 Jan 2020 05:29:20.000,359.841,31.901,714.766115
7 Jan 2020 05:29:21.000,0.418,31.704,718.046109
7 Jan 2020 05:29:22.000,0.986,31.506,721.381213
7 Jan 2020 05:29:23.000,1.547,31.307,724.770663
7 Jan 2020 05:29:24.000,2.101,31.107,728.213694
7 Jan 2020 05:29:25.000,2.647,30.906,731.709547
7 Jan 2020 05:29:26.000,3.185,30.704,735.257462
7 Jan 2020 05:29:27.000,3.716,30.501,738.856685
7 Jan 2020 05:29:28.000,4.240,30.298,742.506466
7 Jan 2020 05:29:29.000,4.756,30.095,746.206057
7 Jan 2020 05:29:30.000,5.265,29.891,749.954716
7 Jan 2020 05:29:31.000,5.768,29.686,753.751707
7 Jan 2020 05:29:32.000,6.263,29.481,757.596297
7 Jan 2020 05:29:33.000,6.751,29.276,761.487761
7 Jan 2020 05:29:34.000,7.232,29.071,765.425379
7 Jan 2020 05:29:35.000,7.706,28.866,769.408436
7 Jan 2020 05:29:36.000,8.174,28.661,773.436227
7 Jan 2020 05:29:37.000,8.635,28.456,777.508049
7 Jan 2020 05:29:38.000,9.090,28.252,781.623210
7 Jan 2020 05:29:39.000,9.538,28.047,785.781024
7 Jan 2020 05:29:40.000,9.979,27.843,789.980811
7 Jan 2020 05:29:41.000,10.415,27.639,794.221901
7 Jan 2020 05:29:42.000,10.844,27.435,798.503628
7 Jan 2020 05:29:43.000,11.267,27.232,802.825340
7 Jan 2020 05:29:44.000,11.684,27.030,807.186387
7 Jan 2020 05:29:45.000,12.095,26.828,811.586128
7 Jan 2020 05:29:46.000,12.500,26.626,816.023934
7 Jan 2020 05:29:47.000,12.900,26.425,820.499180
7 Jan 2020 05:29:48.000,13.294,26.225,825.011252
7 Jan 2020 05:29:49.000,13.682,26.025,829.559543
7 Jan 2020 05:29:50.000,14.064,25.826,834.143454
7 Jan 2020 05:29:51.000,14.442,25.628,838.762396
7 Jan 2020 05:29:52.000,14.813,25.431,843.415787
7 Jan 2020 05:29:53.000,15.180,25.235,848.103054
7 Jan 2020 05:29:54.000,15.542,25.039,852.823632
7 Jan 2020 05:29:55.000,15.898,24.844,857.576967
7 Jan 2020 05:29:56.000,16.249,24.650,862.362509
7 Jan 2020 05:29:57.000,16.596,24.457,867.179721
7 Jan 2020 05:29:58.000,16.937,24.265,872.028069
7 Jan 2020 05:29:59.000,17.274,24.074,876.907032
7 Jan 2020 05:30:00.000,17.606,23.884,881.816097
7 Jan 2020 05:30:01.000,17.934,23.695,886.754755
7 Jan 2020 05:30:02.000,18.257,23.507,891.722510
7 Jan 2020 05:30:03.000,18.576,23.319,896.718872
7 Jan 2020 05:30:04.000,18.890,23.133,901.743359
7 Jan 2020 05:30:05.000,19.200,22.948,906.795496
7 Jan 2020 05:30:06.000,19.505,22.764,911.874819
7 Jan 2020 05:30:07.000,19.807,22.581,916.980868
7 Jan 2020 05:30:08.000,20.104,22.399,922.113194
7 Jan 2020 05:30:09.000,20.397,22.218,927.271354
7 Jan 2020 05:30:10.000,20.687,22.039,932.454912
7 Jan 2020 05:30:11.000,20.972,21.860,937.663441
7 Jan 2020 05:30:12.000,21.254,21.682,942.896519
7 Jan 2020 05:30:13.000,21.532,21.506,948.153737
7 Jan 2020 05:30:14.000,21.806,21.330,953.434684
7 Jan 2020 05:30:15.000,22.077,21.156,958.738964
7 Jan 2020 05:30:16.000,22.344,20.983,964.066186
7 Jan 2020 05:30:17.000,22.607,20.811,969.415964
7 Jan 2020 05:30:18.000,22.867,20.640,974.787919
7 Jan 2020 05:30:19.000,23.124,20.470,980.181681
7 Jan 2020 05:30:20.000,23.377,20.301,985.596884
7 Jan 2020 05:30:21.000,23.627,20.133,991.033171
7 Jan 2020 05:30:22.000,23.874,19.966,996.490191
7 Jan 2020 05:30:23.000,24.118,19.801,1001.967596
7 Jan 2020 05:30:24.000,24.358,19.636,1007.465048
7 Jan 2020 05:30:25.000,24.596,19.473,1012.982213
7 Jan 2020 05:30:26.000,24.830,19.310,1018.518765
7 Jan 2020 05:30:27.000,25.062,19.149,1024.074382
7 Jan 2020 05:30:28.000,25.290,18.989,1029.648750
7 Jan 2020 05:30:29.000,25.516,18.830,1035.241556
7 Jan 2020 05:30:30.000,25.739,18.672,1040.852498
7 Jan 2020 05:30:31.000,25.959,18.515,1046.481277
7 Jan 2020 05:30:32.000,26.176,18.359,1052.127599
7 Jan 2020 05:30:33.000,26.391,18.204,1057.791177
7 Jan 2020 05:30:34.000,26.603,18.050,1063.471728
7 Jan 2020 05:30:35.000,26.813,17.897,1069.168974
7 Jan 2020 05:30:36.000,27.020,17.746,1074.882644
7 Jan 2020 05:30:37.000,27.224,17.595,1080.612469
7 Jan 2020 05:30:38.000,27.426,17.445,1086.358186
7 Jan 2020 05:30:39.000,27.626,17.296,1092.119537
7 Jan 2020 05:30:40.000,27.823,17.149,1097.896270
7 Jan 2020 05:30:41.000,28.018,17.002,1103.688135
7 Jan 2020 05:30:42.000,28.211,16.856,1109.494889
7 Jan 2020 05:30:43.000,28.401,16.711,1115.316292
7 Jan 2020 05:30:44.000,28.589,16.568,1121.152108
7 Jan 2020 05:30:45.000,28.775,16.425,1127.002107
7 Jan 2020 05:30:46.000,28.959,16.283,1132.866061
7 Jan 2020 05:30:47.000,29.141,16.142,1138.743747
7 Jan 2020 05:30:48.000,29.320,16.002,1144.634947
7 Jan 2020 05:30:49.000,29.498,15.863,1150.539447
7 Jan 2020 05:30:50.000,29.673,15.725,1156.457034
7 Jan 2020 05:30:51.000,29.847,15.588,1162.387502
7 Jan 2020 05:30:52.000,30.018,15.451,1168.330647
7 Jan 2020 05:30:53.000,30.188,15.316,1174.286270
7 Jan 2020 05:30:54.000,30.355,15.182,1180.254174
7 Jan 2020 05:30:55.000,30.521,15.048,1186.234167
7 Jan 2020 05:30:56.000,30.685,14.915,1192.226059
7 Jan 2020 05:30:57.000,30.848,14.783,1198.229664
7 Jan 2020 05:30:58.000,31.008,14.652,1204.244801
7 Jan 2020 05:30:59.000,31.167,14.522,1210.271289
7 Jan 2020 05:31:00.000,31.324,14.393,1216.308953
7 Jan 2020 05:31:01.000,31.479,14.265,1222.357619
7 Jan 2020 05:31:02.000,31.632,14.137,1228.417117
7 Jan 2020 05:31:03.000,31.784,14.010,1234.487282
7 Jan 2020 05:31:04.000,31.935,13.884,1240.567947
7 Jan 2020 05:31:05.000,32.083,13.759,1246.658954
7 Jan 2020 05:31:06.000,32.231,13.635,1252.760142
7 Jan 2020 05:31:07.000,32.376,13.511,1258.871357
7 Jan 2020 05:31:08.000,32.520,13.389,1264.992446
7 Jan 2020 05:31:09.000,32.663,13.267,1271.123258
7 Jan 2020 05:31:10.000,32.804,13.145,1277.263647
7 Jan 2020 05:31:11.000,32.944,13.025,1283.413467
7 Jan 2020 05:31:12.000,33.082,12.905,1289.572576
7 Jan 2020 05:31:13.000,33.219,12.786,1295.740833
7 Jan 2020 05:31:14.000,33.354,12.668,1301.918102
7 Jan 2020 05:31:15.000,33.488,12.551,1308.104246
7 Jan 2020 05:31:16.000,33.621,12.434,1314.299134
7 Jan 2020 05:31:17.000,33.752,12.318,1320.502634
7 Jan 2020 05:31:18.000,33.882,12.203,1326.714618
7 Jan 2020 05:31:19.000,34.011,12.088,1332.934961
7 Jan 2020 05:31:20.000,34.138,11.974,1339.163535
7 Jan 2020 05:31:21.000,34.265,11.861,1345.400222
7 Jan 2020 05:31:22.000,34.390,11.748,1351.644902
7 Jan 2020 05:31:23.000,34.513,11.636,1357.897456
7 Jan 2020 05:31:24.000,34.636,11.525,1364.157768
7 Jan 2020 05:31:25.000,34.757,11.415,1370.425724
7 Jan 2020 05:31:26.000,34.877,11.305,1376.701213
7 Jan 2020 05:31:27.000,34.996,11.196,1382.984123
7 Jan 2020 05:31:28.000,35.114,11.087,1389.274347
7 Jan 2020 05:31:29.000,35.231,10.979,1395.571779
7 Jan 2020 05:31:30.000,35.347,10.872,1401.876312
7 Jan 2020 05:31:31.000,35.461,10.765,1408.187843
7 Jan 2020 05:31:32.000,35.575,10.659,1414.506273
7 Jan 2020 05:31:33.000,35.687,10.554,1420.831502
7 Jan 2020 05:31:34.000,35.799,10.449,1427.163431
7 Jan 2020 05:31:35.000,35.909,10.344,1433.501963
7 Jan 2020 05:31:36.000,36.019,10.241,1439.847004
7 Jan 2020 05:31:37.000,36.127,10.138,1446.198460
7 Jan 2020 05:31:38.000,36.234,10.035,1452.556240
7 Jan 2020 05:31:39.000,36.341,9.933,1458.920253
7 Jan 2020 05:31:40.000,36.446,9.832,1465.290407
7 Jan 2020 05:31:41.000,36.551,9.731,1471.666620
7 Jan 2020 05:31:42.000,36.654,9.631,1478.048804
7 Jan 2020 05:31:43.000,36.757,9.531,1484.436873
7 Jan 2020 05:31:44.000,36.859,9.432,1490.830744
7 Jan 2020 05:31:45.000,36.960,9.333,1497.230336
7 Jan 2020 05:31:46.000,37.060,9.235,1503.635567
7 Jan 2020 05:31:47.000,37.159,9.138,1510.046355
7 Jan 2020 05:31:48.000,37.257,9.041,1516.462627
7 Jan 2020 05:31:49.000,37.354,8.944,1522.884304
7 Jan 2020 05:31:50.000,37.451,8.848,1529.311309
7 Jan 2020 05:31:51.000,37.547,8.753,1535.743567
7 Jan 2020 05:31:52.000,37.641,8.658,1542.181007
7 Jan 2020 05:31:53.000,37.736,8.563,1548.623554
7 Jan 2020 05:31:54.000,37.829,8.469,1555.071135
7 Jan 2020 05:31:55.000,37.921,8.376,1561.523685
7 Jan 2020 05:31:56.000,38.013,8.283,1567.981132
7 Jan 2020 05:31:57.000,38.104,8.190,1574.443409
7 Jan 2020 05:31:58.000,38.194,8.098,1580.910448
7 Jan 2020 05:31:59.000,38.284,8.006,1587.382182
7 Jan 2020 05:32:00.000,38.372,7.915,1593.858548
7 Jan 2020 05:32:01.000,38.460,7.824,1600.339479
7 Jan 2020 05:32:02.000,38.547,7.734,1606.824915
7 Jan 2020 05:32:03.000,38.634,7.644,1613.314794
7 Jan 2020 05:32:04.000,38.720,7.555,1619.809053
7 Jan 2020 05:32:05.000,38.805,7.466,1626.307632
7 Jan 2020 05:32:06.000,38.889,7.377,1632.810472
7 Jan 2020 05:32:07.000,38.973,7.289,1639.317511
7 Jan 2020 05:32:08.000,39.056,7.202,1645.828698
7 Jan 2020 05:32:09.000,39.139,7.114,1652.343971
7 Jan 2020 05:32:10.000,39.221,7.028,1658.863277
7 Jan 2020 05:32:11.000,39.302,6.941,1665.386558
7 Jan 2020 05:32:12.000,39.382,6.855,1671.913762
7 Jan 2020 05:32:13.000,39.462,6.770,1678.444831
7 Jan 2020 05:32:14.000,39.541,6.684,1684.979718
7 Jan 2020 05:32:15.000,39.620,6.600,1691.518369
7 Jan 2020 05:32:16.000,39.698,6.515,1698.060731
7 Jan 2020 05:32:17.000,39.776,6.431,1704.606754
7 Jan 2020 05:32:18.000,39.852,6.347,1711.156387
7 Jan 2020 05:32:19.000,39.929,6.264,1717.709583
7 Jan 2020 05:32:20.000,40.004,6.181,1724.266294
7 Jan 2020 05:32:21.000,40.079,6.099,1730.826470
7 Jan 2020 05:32:22.000,40.154,6.017,1737.390064
7 Jan 2020 05:32:23.000,40.228,5.935,1743.957028
7 Jan 2020 05:32:24.000,40.301,5.853,1750.527321
7 Jan 2020 05:32:25.000,40.374,5.772,1757.100894
7 Jan 2020 05:32:26.000,40.447,5.692,1763.677704
7 Jan 2020 05:32:27.000,40.519,5.611,1770.257706
7 Jan 2020 05:32:28.000,40.590,5.531,1776.840857
7 Jan 2020 05:32:29.000,40.661,5.452,1783.427112
7 Jan 2020 05:32:30.000,40.731,5.372,1790.016432
7 Jan 2020 05:32:31.000,40.801,5.293,1796.608775
7 Jan 2020 05:32:32.000,40.870,5.215,1803.204099
7 Jan 2020 05:32:33.000,40.939,5.136,1809.802364
7 Jan 2020 05:32:34.000,41.007,5.058,1816.403527
7 Jan 2020 05:32:35.000,41.075,4.981,1823.007553
7 Jan 2020 05:32:36.000,41.142,4.903,1829.614401
7 Jan 2020 05:32:37.000,41.209,4.826,1836.224033
7 Jan 2020 05:32:38.000,41.275,4.750,1842.836411
7 Jan 2020 05:32:39.000,41.341,4.673,1849.451495
7 Jan 2020 05:32:40.000,41.406,4.597,1856.069253
7 Jan 2020 05:32:41.000,41.471,4.522,1862.689645
7 Jan 2020 05:32:42.000,41.536,4.446,1869.312637
7 Jan 2020 05:32:43.000,41.600,4.371,1875.938190
7 Jan 2020 05:32:44.000,41.664,4.296,1882.566274
7 Jan 2020 05:32:45.000,41.727,4.221,1889.196852
7 Jan 2020 05:32:46.000,41.790,4.147,1895.829889
7 Jan 2020 05:32:47.000,41.852,4.073,1902.465353
7 Jan 2020 05:32:48.000,41.914,3.999,1909.103207
7 Jan 2020 05:32:49.000,41.975,3.926,1915.743423
7 Jan 2020 05:32:50.000,42.037,3.853,1922.385967
7 Jan 2020 05:32:51.000,42.097,3.780,1929.030806
7 Jan 2020 05:32:52.000,42.157,3.707,1935.677909
7 Jan 2020 05:32:53.000,42.217,3.635,1942.327242
7 Jan 2020 05:32:54.000,42.277,3.563,1948.978779
7 Jan 2020 05:32:55.000,42.336,3.491,1955.632488
7 Jan 2020 05:32:56.000,42.395,3.420,1962.288337
7 Jan 2020 05:32:57.000,42.453,3.349,1968.946296
7 Jan 2020 05:32:58.000,42.511,3.278,1975.606339
7 Jan 2020 05:32:59.000,42.569,3.207,1982.268435
7 Jan 2020 05:33:00.000,42.626,3.136,1988.932556
7 Jan 2020 05:33:01.000,42.683,3.066,1995.598673
7 Jan 2020 05:33:02.000,42.739,2.996,2002.266756
7 Jan 2020 05:33:03.000,42.795,2.926,2008.936782
7 Jan 2020 05:33:04.000,42.851,2.857,2015.608721
7 Jan 2020 05:33:05.000,42.906,2.788,2022.282547
7 Jan 2020 05:33:06.000,42.961,2.719,2028.958230
7 Jan 2020 05:33:07.000,43.016,2.650,2035.635749
7 Jan 2020 05:33:08.000,43.070,2.582,2042.315075
7 Jan 2020 05:33:09.000,43.124,2.513,2048.996183
7 Jan 2020 05:33:10.000,43.178,2.445,2055.679047
7 Jan 2020 05:33:11.000,43.232,2.377,2062.363641
7 Jan 2020 05:33:12.000,43.285,2.310,2069.049943
7 Jan 2020 05:33:13.000,43.337,2.243,2075.737927
7 Jan 2020 05:33:14.000,43.390,2.175,2082.427569
7 Jan 2020 05:33:15.000,43.442,2.109,2089.118842
7 Jan 2020 05:33:16.000,43.494,2.042,2095.811727
7 Jan 2020 05:33:17.000,43.545,1.975,2102.506200
7 Jan 2020 05:33:18.000,43.596,1.909,2109.202235
7 Jan 2020 05:33:19.000,43.647,1.843,2115.899809
7 Jan 2020 05:33:20.000,43.697,1.777,2122.598904
7 Jan 2020 05:33:21.000,43.748,1.712,2129.299494
7 Jan 2020 05:33:22.000,43.798,1.646,2136.001558
7 Jan 2020 05:33:23.000,43.847,1.581,2142.705071
7 Jan 2020 05:33:24.000,43.897,1.516,2149.410016
7 Jan 2020 05:33:25.000,43.946,1.451,2156.116370
7 Jan 2020 05:33:26.000,43.994,1.387,2162.824112
7 Jan 2020 05:33:27.000,44.043,1.323,2169.533221
7 Jan 2020 05:33:28.000,44.091,1.258,2176.243672
7 Jan 2020 05:33:29.000,44.139,1.194,2182.955452
7 Jan 2020 05:33:30.000,44.187,1.131,2189.668537
7 Jan 2020 05:33:31.000,44.234,1.067,2196.382908
7 Jan 2020 05:33:32.000,44.281,1.004,2203.098541
7 Jan 2020 05:33:33.000,44.328,0.941,2209.815423
