vcc_sched/network/input/aer_wff_wff_vcc-a_44428.csv

"Time (UTCG)","Azimuth (deg)","Elevation (deg)","Range (km)"
7 Jan 2020 03:04:31.675,165.633,-0.079,2311.276398
7 Jan 2020 03:04:32.000,165.588,-0.066,2309.828599
7 Jan 2020 03:04:33.000,165.448,-0.026,2305.379212
7 Jan 2020 03:04:34.000,165.307,0.015,2300.942355
7 Jan 2020 03:04:35.000,165.165,0.055,2296.518107
7 Jan 2020 03:04:36.000,165.023,0.095,2292.106545
7 Jan 2020 03:04:37.000,164.881,0.135,2287.707752
7 Jan 2020 03:04:38.000,164.738,0.175,2283.321804
7 Jan 2020 03:04:39.000,164.594,0.215,2278.948783
7 Jan 2020 03:04:40.000,164.450,0.254,2274.588769
7 Jan 2020 03:04:41.000,164.305,0.294,2270.241843
7 Jan 2020 03:04:42.000,164.160,0.334,2265.908086
7 Jan 2020 03:04:43.000,164.014,0.374,2261.587580
7 Jan 2020 03:04:44.000,163.867,0.413,2257.280405
7 Jan 2020 03:04:45.000,163.720,0.453,2252.986644
7 Jan 2020 03:04:46.000,163.573,0.493,2248.706382
7 Jan 2020 03:04:47.000,163.424,0.532,2244.439699
7 Jan 2020 03:04:48.000,163.276,0.572,2240.186680
7 Jan 2020 03:04:49.000,163.126,0.611,2235.947408
7 Jan 2020 03:04:50.000,162.977,0.651,2231.721967
7 Jan 2020 03:04:51.000,162.826,0.690,2227.510441
7 Jan 2020 03:04:52.000,162.675,0.729,2223.312916
7 Jan 2020 03:04:53.000,162.523,0.769,2219.129476
7 Jan 2020 03:04:54.000,162.371,0.808,2214.960207
7 Jan 2020 03:04:55.000,162.218,0.847,2210.805195
7 Jan 2020 03:04:56.000,162.065,0.886,2206.664525
7 Jan 2020 03:04:57.000,161.911,0.925,2202.538285
7 Jan 2020 03:04:58.000,161.757,0.964,2198.426561
7 Jan 2020 03:04:59.000,161.601,1.003,2194.329439
7 Jan 2020 03:05:00.000,161.446,1.042,2190.247008
7 Jan 2020 03:05:01.000,161.289,1.081,2186.179357
7 Jan 2020 03:05:02.000,161.133,1.119,2182.126571
7 Jan 2020 03:05:03.000,160.975,1.158,2178.088742
7 Jan 2020 03:05:04.000,160.817,1.197,2174.065955
7 Jan 2020 03:05:05.000,160.658,1.235,2170.058302
7 Jan 2020 03:05:06.000,160.499,1.273,2166.065872
7 Jan 2020 03:05:07.000,160.339,1.312,2162.088752
7 Jan 2020 03:05:08.000,160.179,1.350,2158.127036
7 Jan 2020 03:05:09.000,160.018,1.388,2154.180811
7 Jan 2020 03:05:10.000,159.856,1.427,2150.250172
7 Jan 2020 03:05:11.000,159.694,1.465,2146.335205
7 Jan 2020 03:05:12.000,159.531,1.503,2142.436004
7 Jan 2020 03:05:13.000,159.367,1.541,2138.552661
7 Jan 2020 03:05:14.000,159.203,1.578,2134.685265
7 Jan 2020 03:05:15.000,159.039,1.616,2130.833911
7 Jan 2020 03:05:16.000,158.873,1.654,2126.998691
7 Jan 2020 03:05:17.000,158.708,1.691,2123.179696
7 Jan 2020 03:05:18.000,158.541,1.729,2119.377019
7 Jan 2020 03:05:19.000,158.374,1.766,2115.590755
7 Jan 2020 03:05:20.000,158.206,1.804,2111.820998
7 Jan 2020 03:05:21.000,158.038,1.841,2108.067839
7 Jan 2020 03:05:22.000,157.869,1.878,2104.331372
7 Jan 2020 03:05:23.000,157.699,1.915,2100.611694
7 Jan 2020 03:05:24.000,157.529,1.952,2096.908898
7 Jan 2020 03:05:25.000,157.358,1.989,2093.223078
7 Jan 2020 03:05:26.000,157.187,2.026,2089.554329
7 Jan 2020 03:05:27.000,157.015,2.063,2085.902747
7 Jan 2020 03:05:28.000,156.842,2.099,2082.268428
7 Jan 2020 03:05:29.000,156.669,2.136,2078.651465
7 Jan 2020 03:05:30.000,156.495,2.172,2075.051955
7 Jan 2020 03:05:31.000,156.321,2.208,2071.469994
7 Jan 2020 03:05:32.000,156.146,2.244,2067.905678
7 Jan 2020 03:05:33.000,155.970,2.280,2064.359105
7 Jan 2020 03:05:34.000,155.794,2.316,2060.830369
7 Jan 2020 03:05:35.000,155.617,2.352,2057.319568
7 Jan 2020 03:05:36.000,155.439,2.388,2053.826798
7 Jan 2020 03:05:37.000,155.261,2.423,2050.352157
7 Jan 2020 03:05:38.000,155.082,2.459,2046.895741
7 Jan 2020 03:05:39.000,154.903,2.494,2043.457650
7 Jan 2020 03:05:40.000,154.723,2.530,2040.037978
7 Jan 2020 03:05:41.000,154.542,2.565,2036.636823
7 Jan 2020 03:05:42.000,154.361,2.600,2033.254284
7 Jan 2020 03:05:43.000,154.179,2.635,2029.890458
7 Jan 2020 03:05:44.000,153.996,2.669,2026.545444
7 Jan 2020 03:05:45.000,153.813,2.704,2023.219338
7 Jan 2020 03:05:46.000,153.629,2.738,2019.912240
7 Jan 2020 03:05:47.000,153.445,2.773,2016.624247
7 Jan 2020 03:05:48.000,153.260,2.807,2013.355459
7 Jan 2020 03:05:49.000,153.074,2.841,2010.105972
7 Jan 2020 03:05:50.000,152.888,2.875,2006.875884
7 Jan 2020 03:05:51.000,152.701,2.909,2003.665295
7 Jan 2020 03:05:52.000,152.514,2.942,2000.474303
7 Jan 2020 03:05:53.000,152.326,2.976,1997.303005
7 Jan 2020 03:05:54.000,152.137,3.009,1994.151502
7 Jan 2020 03:05:55.000,151.948,3.043,1991.019890
7 Jan 2020 03:05:56.000,151.758,3.076,1987.908269
7 Jan 2020 03:05:57.000,151.567,3.109,1984.816737
7 Jan 2020 03:05:58.000,151.376,3.141,1981.745393
7 Jan 2020 03:05:59.000,151.185,3.174,1978.694333
7 Jan 2020 03:06:00.000,150.992,3.206,1975.663658
7 Jan 2020 03:06:01.000,150.799,3.239,1972.653465
7 Jan 2020 03:06:02.000,150.606,3.271,1969.663852
7 Jan 2020 03:06:03.000,150.412,3.303,1966.694918
7 Jan 2020 03:06:04.000,150.217,3.335,1963.746760
7 Jan 2020 03:06:05.000,150.022,3.366,1960.819476
7 Jan 2020 03:06:06.000,149.826,3.398,1957.913165
7 Jan 2020 03:06:07.000,149.629,3.429,1955.027924
7 Jan 2020 03:06:08.000,149.432,3.460,1952.163849
7 Jan 2020 03:06:09.000,149.234,3.491,1949.321040
7 Jan 2020 03:06:10.000,149.036,3.522,1946.499593
7 Jan 2020 03:06:11.000,148.837,3.552,1943.699604
7 Jan 2020 03:06:12.000,148.637,3.583,1940.921172
7 Jan 2020 03:06:13.000,148.437,3.613,1938.164393
7 Jan 2020 03:06:14.000,148.237,3.643,1935.429362
7 Jan 2020 03:06:15.000,148.035,3.673,1932.716177
7 Jan 2020 03:06:16.000,147.833,3.703,1930.024932
7 Jan 2020 03:06:17.000,147.631,3.732,1927.355726
7 Jan 2020 03:06:18.000,147.428,3.761,1924.708653
7 Jan 2020 03:06:19.000,147.224,3.790,1922.083808
7 Jan 2020 03:06:20.000,147.020,3.819,1919.481286
7 Jan 2020 03:06:21.000,146.815,3.848,1916.901182
7 Jan 2020 03:06:22.000,146.610,3.876,1914.343590
7 Jan 2020 03:06:23.000,146.404,3.905,1911.808605
7 Jan 2020 03:06:24.000,146.198,3.933,1909.296318
7 Jan 2020 03:06:25.000,145.991,3.961,1906.806826
7 Jan 2020 03:06:26.000,145.783,3.988,1904.340221
7 Jan 2020 03:06:27.000,145.575,4.016,1901.896595
7 Jan 2020 03:06:28.000,145.366,4.043,1899.476040
7 Jan 2020 03:06:29.000,145.157,4.070,1897.078649
7 Jan 2020 03:06:30.000,144.948,4.097,1894.704511
7 Jan 2020 03:06:31.000,144.737,4.123,1892.353721
7 Jan 2020 03:06:32.000,144.526,4.150,1890.026368
7 Jan 2020 03:06:33.000,144.315,4.176,1887.722541
7 Jan 2020 03:06:34.000,144.103,4.202,1885.442328
7 Jan 2020 03:06:35.000,143.891,4.228,1883.185823
7 Jan 2020 03:06:36.000,143.678,4.253,1880.953112
7 Jan 2020 03:06:37.000,143.464,4.278,1878.744284
7 Jan 2020 03:06:38.000,143.250,4.303,1876.559424
7 Jan 2020 03:06:39.000,143.036,4.328,1874.398623
7 Jan 2020 03:06:40.000,142.821,4.353,1872.261965
7 Jan 2020 03:06:41.000,142.605,4.377,1870.149538
7 Jan 2020 03:06:42.000,142.389,4.401,1868.061423
7 Jan 2020 03:06:43.000,142.173,4.425,1865.997711
7 Jan 2020 03:06:44.000,141.956,4.448,1863.958483
7 Jan 2020 03:06:45.000,141.738,4.471,1861.943820
7 Jan 2020 03:06:46.000,141.520,4.494,1859.953810
7 Jan 2020 03:06:47.000,141.302,4.517,1857.988533
7 Jan 2020 03:06:48.000,141.083,4.540,1856.048068
7 Jan 2020 03:06:49.000,140.863,4.562,1854.132501
7 Jan 2020 03:06:50.000,140.643,4.584,1852.241910
7 Jan 2020 03:06:51.000,140.423,4.606,1850.376371
7 Jan 2020 03:06:52.000,140.202,4.627,1848.535968
7 Jan 2020 03:06:53.000,139.981,4.649,1846.720776
7 Jan 2020 03:06:54.000,139.759,4.670,1844.930874
7 Jan 2020 03:06:55.000,139.537,4.690,1843.166339
7 Jan 2020 03:06:56.000,139.314,4.711,1841.427242
7 Jan 2020 03:06:57.000,139.091,4.731,1839.713664
7 Jan 2020 03:06:58.000,138.868,4.751,1838.025674
7 Jan 2020 03:06:59.000,138.644,4.770,1836.363350
7 Jan 2020 03:07:00.000,138.419,4.790,1834.726760
7 Jan 2020 03:07:01.000,138.195,4.809,1833.115980
7 Jan 2020 03:07:02.000,137.970,4.827,1831.531079
7 Jan 2020 03:07:03.000,137.744,4.846,1829.972123
7 Jan 2020 03:07:04.000,137.518,4.864,1828.439186
7 Jan 2020 03:07:05.000,137.292,4.882,1826.932332
7 Jan 2020 03:07:06.000,137.065,4.900,1825.451633
7 Jan 2020 03:07:07.000,136.838,4.917,1823.997150
7 Jan 2020 03:07:08.000,136.610,4.934,1822.568953
7 Jan 2020 03:07:09.000,136.383,4.951,1821.167101
7 Jan 2020 03:07:10.000,136.154,4.967,1819.791660
7 Jan 2020 03:07:11.000,135.926,4.984,1818.442695
7 Jan 2020 03:07:12.000,135.697,4.999,1817.120261
7 Jan 2020 03:07:13.000,135.468,5.015,1815.824425
7 Jan 2020 03:07:14.000,135.238,5.030,1814.555241
7 Jan 2020 03:07:15.000,135.008,5.045,1813.312771
7 Jan 2020 03:07:16.000,134.778,5.060,1812.097067
7 Jan 2020 03:07:17.000,134.547,5.074,1810.908189
7 Jan 2020 03:07:18.000,134.316,5.088,1809.746194
7 Jan 2020 03:07:19.000,134.085,5.102,1808.611130
7 Jan 2020 03:07:20.000,133.854,5.116,1807.503056
7 Jan 2020 03:07:21.000,133.622,5.129,1806.422018
7 Jan 2020 03:07:22.000,133.390,5.141,1805.368068
7 Jan 2020 03:07:23.000,133.157,5.154,1804.341260
7 Jan 2020 03:07:24.000,132.925,5.166,1803.341636
7 Jan 2020 03:07:25.000,132.692,5.178,1802.369246
7 Jan 2020 03:07:26.000,132.459,5.190,1801.424138
7 Jan 2020 03:07:27.000,132.225,5.201,1800.506353
7 Jan 2020 03:07:28.000,131.992,5.212,1799.615935
7 Jan 2020 03:07:29.000,131.758,5.222,1798.752931
7 Jan 2020 03:07:30.000,131.524,5.233,1797.917375
7 Jan 2020 03:07:31.000,131.289,5.243,1797.109312
7 Jan 2020 03:07:32.000,131.055,5.252,1796.328779
7 Jan 2020 03:07:33.000,130.820,5.262,1795.575816
7 Jan 2020 03:07:34.000,130.585,5.271,1794.850455
7 Jan 2020 03:07:35.000,130.350,5.279,1794.152733
7 Jan 2020 03:07:36.000,130.115,5.288,1793.482684
7 Jan 2020 03:07:37.000,129.879,5.296,1792.840344
7 Jan 2020 03:07:38.000,129.643,5.303,1792.225737
7 Jan 2020 03:07:39.000,129.408,5.311,1791.638897
7 Jan 2020 03:07:40.000,129.172,5.318,1791.079852
7 Jan 2020 03:07:41.000,128.935,5.324,1790.548631
7 Jan 2020 03:07:42.000,128.699,5.331,1790.045260
7 Jan 2020 03:07:43.000,128.463,5.337,1789.569761
7 Jan 2020 03:07:44.000,128.226,5.342,1789.122158
7 Jan 2020 03:07:45.000,127.989,5.348,1788.702475
7 Jan 2020 03:07:46.000,127.753,5.353,1788.310732
7 Jan 2020 03:07:47.000,127.516,5.357,1787.946948
7 Jan 2020 03:07:48.000,127.279,5.362,1787.611142
7 Jan 2020 03:07:49.000,127.042,5.366,1787.303330
7 Jan 2020 03:07:50.000,126.804,5.370,1787.023532
7 Jan 2020 03:07:51.000,126.567,5.373,1786.771754
7 Jan 2020 03:07:52.000,126.330,5.376,1786.548014
7 Jan 2020 03:07:53.000,126.092,5.379,1786.352322
7 Jan 2020 03:07:54.000,125.855,5.381,1786.184689
7 Jan 2020 03:07:55.000,125.618,5.383,1786.045123
7 Jan 2020 03:07:56.000,125.380,5.385,1785.933632
7 Jan 2020 03:07:57.000,125.142,5.386,1785.850221
7 Jan 2020 03:07:58.000,124.905,5.387,1785.794897
7 Jan 2020 03:07:59.000,124.667,5.387,1785.767661
7 Jan 2020 03:08:00.000,124.430,5.388,1785.768515
7 Jan 2020 03:08:01.000,124.192,5.388,1785.797462
7 Jan 2020 03:08:02.000,123.955,5.387,1785.854499
7 Jan 2020 03:08:03.000,123.717,5.387,1785.939625
7 Jan 2020 03:08:04.000,123.480,5.386,1786.052835
7 Jan 2020 03:08:05.000,123.242,5.384,1786.194126
7 Jan 2020 03:08:06.000,123.005,5.382,1786.363492
7 Jan 2020 03:08:07.000,122.767,5.380,1786.560924
7 Jan 2020 03:08:08.000,122.530,5.378,1786.786413
7 Jan 2020 03:08:09.000,122.293,5.375,1787.039951
7 Jan 2020 03:08:10.000,122.056,5.372,1787.321524
7 Jan 2020 03:08:11.000,121.818,5.369,1787.631117
7 Jan 2020 03:08:12.000,121.581,5.365,1787.968722
7 Jan 2020 03:08:13.000,121.344,5.361,1788.334320
7 Jan 2020 03:08:14.000,121.108,5.356,1788.727894
7 Jan 2020 03:08:15.000,120.871,5.352,1789.149426
7 Jan 2020 03:08:16.000,120.634,5.347,1789.598896
7 Jan 2020 03:08:17.000,120.398,5.341,1790.076284
7 Jan 2020 03:08:18.000,120.162,5.335,1790.581567
7 Jan 2020 03:08:19.000,119.925,5.329,1791.114718
7 Jan 2020 03:08:20.000,119.689,5.323,1791.675719
7 Jan 2020 03:08:21.000,119.454,5.316,1792.264540
7 Jan 2020 03:08:22.000,119.218,5.309,1792.881154
7 Jan 2020 03:08:23.000,118.982,5.302,1793.525533
7 Jan 2020 03:08:24.000,118.747,5.294,1794.197643
7 Jan 2020 03:08:25.000,118.512,5.286,1794.897459
7 Jan 2020 03:08:26.000,118.277,5.277,1795.624945
7 Jan 2020 03:08:27.000,118.042,5.269,1796.380067
7 Jan 2020 03:08:28.000,117.808,5.260,1797.162788
7 Jan 2020 03:08:29.000,117.573,5.250,1797.973077
7 Jan 2020 03:08:30.000,117.339,5.241,1798.810893
7 Jan 2020 03:08:31.000,117.105,5.231,1799.676198
7 Jan 2020 03:08:32.000,116.872,5.220,1800.568948
7 Jan 2020 03:08:33.000,116.638,5.210,1801.489109
7 Jan 2020 03:08:34.000,116.405,5.199,1802.436635
7 Jan 2020 03:08:35.000,116.172,5.187,1803.411479
7 Jan 2020 03:08:36.000,115.940,5.176,1804.413602
7 Jan 2020 03:08:37.000,115.707,5.164,1805.442956
7 Jan 2020 03:08:38.000,115.475,5.151,1806.499491
7 Jan 2020 03:08:39.000,115.243,5.139,1807.583163
7 Jan 2020 03:08:40.000,115.012,5.126,1808.693921
7 Jan 2020 03:08:41.000,114.781,5.113,1809.831711
7 Jan 2020 03:08:42.000,114.550,5.099,1810.996487
7 Jan 2020 03:08:43.000,114.319,5.086,1812.188191
7 Jan 2020 03:08:44.000,114.089,5.071,1813.406774
7 Jan 2020 03:08:45.000,113.859,5.057,1814.652180
7 Jan 2020 03:08:46.000,113.629,5.042,1815.924347
7 Jan 2020 03:08:47.000,113.400,5.027,1817.223226
7 Jan 2020 03:08:48.000,113.171,5.012,1818.548753
7 Jan 2020 03:08:49.000,112.943,4.996,1819.900874
7 Jan 2020 03:08:50.000,112.714,4.980,1821.279522
7 Jan 2020 03:08:51.000,112.487,4.964,1822.684643
7 Jan 2020 03:08:52.000,112.259,4.948,1824.116169
7 Jan 2020 03:08:53.000,112.032,4.931,1825.574042
7 Jan 2020 03:08:54.000,111.805,4.914,1827.058195
7 Jan 2020 03:08:55.000,111.579,4.896,1828.568560
7 Jan 2020 03:08:56.000,111.353,4.879,1830.105077
7 Jan 2020 03:08:57.000,111.128,4.861,1831.667672
7 Jan 2020 03:08:58.000,110.902,4.843,1833.256281
7 Jan 2020 03:08:59.000,110.678,4.824,1834.870838
7 Jan 2020 03:09:00.000,110.453,4.805,1836.511268
7 Jan 2020 03:09:01.000,110.230,4.786,1838.177505
7 Jan 2020 03:09:02.000,110.006,4.767,1839.869472
7 Jan 2020 03:09:03.000,109.783,4.747,1841.587103
7 Jan 2020 03:09:04.000,109.560,4.727,1843.330318
7 Jan 2020 03:09:05.000,109.338,4.707,1845.099050
7 Jan 2020 03:09:06.000,109.117,4.687,1846.893217
7 Jan 2020 03:09:07.000,108.895,4.666,1848.712747
7 Jan 2020 03:09:08.000,108.674,4.645,1850.557568
7 Jan 2020 03:09:09.000,108.454,4.624,1852.427595
7 Jan 2020 03:09:10.000,108.234,4.602,1854.322753
7 Jan 2020 03:09:11.000,108.015,4.580,1856.242968
7 Jan 2020 03:09:12.000,107.796,4.558,1858.188153
7 Jan 2020 03:09:13.000,107.577,4.536,1860.158235
7 Jan 2020 03:09:14.000,107.359,4.513,1862.153127
7 Jan 2020 03:09:15.000,107.142,4.491,1864.172749
7 Jan 2020 03:09:16.000,106.925,4.468,1866.217025
7 Jan 2020 03:09:17.000,106.709,4.444,1868.285863
7 Jan 2020 03:09:18.000,106.493,4.421,1870.379184
7 Jan 2020 03:09:19.000,106.277,4.397,1872.496905
7 Jan 2020 03:09:20.000,106.062,4.373,1874.638943
7 Jan 2020 03:09:21.000,105.848,4.349,1876.805207
7 Jan 2020 03:09:22.000,105.634,4.324,1878.995614
7 Jan 2020 03:09:23.000,105.420,4.299,1881.210082
7 Jan 2020 03:09:24.000,105.207,4.274,1883.448516
7 Jan 2020 03:09:25.000,104.995,4.249,1885.710833
7 Jan 2020 03:09:26.000,104.783,4.224,1887.996945
7 Jan 2020 03:09:27.000,104.572,4.198,1890.306766
7 Jan 2020 03:09:28.000,104.361,4.172,1892.640200
7 Jan 2020 03:09:29.000,104.151,4.146,1894.997163
7 Jan 2020 03:09:30.000,103.941,4.120,1897.377563
7 Jan 2020 03:09:31.000,103.732,4.093,1899.781310
7 Jan 2020 03:09:32.000,103.523,4.066,1902.208318
7 Jan 2020 03:09:33.000,103.315,4.039,1904.658487
7 Jan 2020 03:09:34.000,103.108,4.012,1907.131730
7 Jan 2020 03:09:35.000,102.901,3.985,1909.627954
7 Jan 2020 03:09:36.000,102.695,3.957,1912.147068
7 Jan 2020 03:09:37.000,102.489,3.929,1914.688978
7 Jan 2020 03:09:38.000,102.284,3.901,1917.253595
7 Jan 2020 03:09:39.000,102.079,3.873,1919.840818
7 Jan 2020 03:09:40.000,101.875,3.844,1922.450558
7 Jan 2020 03:09:41.000,101.671,3.816,1925.082719
7 Jan 2020 03:09:42.000,101.468,3.787,1927.737207
7 Jan 2020 03:09:43.000,101.266,3.758,1930.413928
7 Jan 2020 03:09:44.000,101.064,3.729,1933.112786
7 Jan 2020 03:09:45.000,100.863,3.699,1935.833687
7 Jan 2020 03:09:46.000,100.663,3.669,1938.576539
7 Jan 2020 03:09:47.000,100.463,3.640,1941.341238
7 Jan 2020 03:09:48.000,100.263,3.610,1944.127692
7 Jan 2020 03:09:49.000,100.064,3.579,1946.935805
7 Jan 2020 03:09:50.000,99.866,3.549,1949.765480
7 Jan 2020 03:09:51.000,99.668,3.519,1952.616622
7 Jan 2020 03:09:52.000,99.471,3.488,1955.489133
7 Jan 2020 03:09:53.000,99.275,3.457,1958.382916
7 Jan 2020 03:09:54.000,99.079,3.426,1961.297874
7 Jan 2020 03:09:55.000,98.884,3.395,1964.233910
7 Jan 2020 03:09:56.000,98.689,3.363,1967.190927
7 Jan 2020 03:09:57.000,98.495,3.332,1970.168827
7 Jan 2020 03:09:58.000,98.302,3.300,1973.167512
7 Jan 2020 03:09:59.000,98.109,3.268,1976.186886
7 Jan 2020 03:10:00.000,97.917,3.236,1979.226850
7 Jan 2020 03:10:01.000,97.725,3.204,1982.287306
7 Jan 2020 03:10:02.000,97.535,3.171,1985.368156
7 Jan 2020 03:10:03.000,97.344,3.139,1988.469303
7 Jan 2020 03:10:04.000,97.154,3.106,1991.590648
7 Jan 2020 03:10:05.000,96.965,3.073,1994.732094
7 Jan 2020 03:10:06.000,96.777,3.040,1997.893543
7 Jan 2020 03:10:07.000,96.589,3.007,2001.074895
7 Jan 2020 03:10:08.000,96.402,2.973,2004.276054
7 Jan 2020 03:10:09.000,96.215,2.940,2007.496921
7 Jan 2020 03:10:10.000,96.029,2.906,2010.737399
7 Jan 2020 03:10:11.000,95.844,2.873,2013.997385
7 Jan 2020 03:10:12.000,95.659,2.839,2017.276789
7 Jan 2020 03:10:13.000,95.475,2.805,2020.575509
7 Jan 2020 03:10:14.000,95.291,2.771,2023.893447
7 Jan 2020 03:10:15.000,95.108,2.736,2027.230506
7 Jan 2020 03:10:16.000,94.926,2.702,2030.586588
7 Jan 2020 03:10:17.000,94.744,2.667,2033.961595
7 Jan 2020 03:10:18.000,94.563,2.633,2037.355429
7 Jan 2020 03:10:19.000,94.383,2.598,2040.767994
7 Jan 2020 03:10:20.000,94.203,2.563,2044.199188
7 Jan 2020 03:10:21.000,94.024,2.528,2047.648921
7 Jan 2020 03:10:22.000,93.845,2.493,2051.117092
7 Jan 2020 03:10:23.000,93.667,2.457,2054.603604
7 Jan 2020 03:10:24.000,93.490,2.422,2058.108361
7 Jan 2020 03:10:25.000,93.313,2.386,2061.631266
7 Jan 2020 03:10:26.000,93.137,2.351,2065.172218
7 Jan 2020 03:10:27.000,92.962,2.315,2068.731128
7 Jan 2020 03:10:28.000,92.787,2.279,2072.307897
7 Jan 2020 03:10:29.000,92.613,2.243,2075.902428
7 Jan 2020 03:10:30.000,92.439,2.207,2079.514625
7 Jan 2020 03:10:31.000,92.266,2.171,2083.144390
7 Jan 2020 03:10:32.000,92.094,2.135,2086.791633
7 Jan 2020 03:10:33.000,91.922,2.098,2090.456256
7 Jan 2020 03:10:34.000,91.751,2.062,2094.138164
7 Jan 2020 03:10:35.000,91.580,2.025,2097.837261
7 Jan 2020 03:10:36.000,91.410,1.988,2101.553450
7 Jan 2020 03:10:37.000,91.241,1.952,2105.286643
7 Jan 2020 03:10:38.000,91.073,1.915,2109.036742
7 Jan 2020 03:10:39.000,90.905,1.878,2112.803653
7 Jan 2020 03:10:40.000,90.737,1.841,2116.587280
7 Jan 2020 03:10:41.000,90.570,1.803,2120.387534
7 Jan 2020 03:10:42.000,90.404,1.766,2124.204321
7 Jan 2020 03:10:43.000,90.239,1.729,2128.037546
7 Jan 2020 03:10:44.000,90.074,1.691,2131.887113
7 Jan 2020 03:10:45.000,89.909,1.654,2135.752937
7 Jan 2020 03:10:46.000,89.746,1.616,2139.634922
7 Jan 2020 03:10:47.000,89.583,1.579,2143.532973
7 Jan 2020 03:10:48.000,89.420,1.541,2147.447004
7 Jan 2020 03:10:49.000,89.258,1.503,2151.376922
7 Jan 2020 03:10:50.000,89.097,1.465,2155.322630
7 Jan 2020 03:10:51.000,88.936,1.427,2159.284047
7 Jan 2020 03:10:52.000,88.776,1.389,2163.261076
7 Jan 2020 03:10:53.000,88.617,1.351,2167.253626
7 Jan 2020 03:10:54.000,88.458,1.312,2171.261612
7 Jan 2020 03:10:55.000,88.299,1.274,2175.284942
7 Jan 2020 03:10:56.000,88.142,1.236,2179.323522
7 Jan 2020 03:10:57.000,87.985,1.197,2183.377271
7 Jan 2020 03:10:58.000,87.828,1.159,2187.446097
7 Jan 2020 03:10:59.000,87.672,1.120,2191.529907
7 Jan 2020 03:11:00.000,87.517,1.082,2195.628621
7 Jan 2020 03:11:01.000,87.362,1.043,2199.742148
7 Jan 2020 03:11:02.000,87.208,1.004,2203.870396
7 Jan 2020 03:11:03.000,87.055,0.965,2208.013285
7 Jan 2020 03:11:04.000,86.902,0.926,2212.170725
7 Jan 2020 03:11:05.000,86.749,0.887,2216.342627
7 Jan 2020 03:11:06.000,86.598,0.848,2220.528910
7 Jan 2020 03:11:07.000,86.446,0.809,2224.729483
7 Jan 2020 03:11:08.000,86.296,0.770,2228.944268
7 Jan 2020 03:11:09.000,86.146,0.731,2233.173174
7 Jan 2020 03:11:10.000,85.996,0.692,2237.416115
7 Jan 2020 03:11:11.000,85.848,0.653,2241.673013
7 Jan 2020 03:11:12.000,85.699,0.613,2245.943777
7 Jan 2020 03:11:13.000,85.552,0.574,2250.228330
7 Jan 2020 03:11:14.000,85.405,0.534,2254.526582
7 Jan 2020 03:11:15.000,85.258,0.495,2258.838457
7 Jan 2020 03:11:16.000,85.112,0.455,2263.163870
7 Jan 2020 03:11:17.000,84.967,0.416,2267.502733
7 Jan 2020 03:11:18.000,84.822,0.376,2271.854973
7 Jan 2020 03:11:19.000,84.678,0.336,2276.220501
7 Jan 2020 03:11:20.000,84.534,0.297,2280.599243
7 Jan 2020 03:11:21.000,84.391,0.257,2284.991111
7 Jan 2020 03:11:22.000,84.248,0.217,2289.396032
7 Jan 2020 03:11:23.000,84.106,0.177,2293.813919
7 Jan 2020 03:11:24.000,83.965,0.137,2298.244698
7 Jan 2020 03:11:25.000,83.824,0.098,2302.688285
7 Jan 2020 03:11:26.000,83.683,0.058,2307.144606
7 Jan 2020 03:11:27.000,83.544,0.018,2311.613576
7 Jan 2020 03:11:28.000,83.404,-0.022,2316.095125
7 Jan 2020 03:11:29.000,83.266,-0.063,2320.589167
7 Jan 2020 03:11:29.396,83.211,-0.078,2322.373492
7 Jan 2020 04:38:31.700,224.147,-0.079,2314.027465
7 Jan 2020 04:38:32.000,224.144,-0.060,2311.950172
7 Jan 2020 04:38:33.000,224.135,0.002,2305.028519
7 Jan 2020 04:38:34.000,224.126,0.065,2298.106954
7 Jan 2020 04:38:35.000,224.116,0.128,2291.185483
7 Jan 2020 04:38:36.000,224.106,0.190,2284.264121
7 Jan 2020 04:38:37.000,224.097,0.253,2277.342873
7 Jan 2020 04:38:38.000,224.087,0.317,2270.421748
7 Jan 2020 04:38:39.000,224.077,0.380,2263.500758
7 Jan 2020 04:38:40.000,224.067,0.444,2256.579913
7 Jan 2020 04:38:41.000,224.057,0.508,2249.659217
7 Jan 2020 04:38:42.000,224.047,0.572,2242.738687
7 Jan 2020 04:38:43.000,224.037,0.636,2235.818329
7 Jan 2020 04:38:44.000,224.027,0.700,2228.898153
7 Jan 2020 04:38:45.000,224.016,0.765,2221.978167
7 Jan 2020 04:38:46.000,224.006,0.830,2215.058385
7 Jan 2020 04:38:47.000,223.995,0.895,2208.138816
7 Jan 2020 04:38:48.000,223.985,0.960,2201.219467
7 Jan 2020 04:38:49.000,223.974,1.026,2194.300354
7 Jan 2020 04:38:50.000,223.964,1.091,2187.381485
7 Jan 2020 04:38:51.000,223.953,1.157,2180.462866
7 Jan 2020 04:38:52.000,223.942,1.223,2173.544516
7 Jan 2020 04:38:53.000,223.931,1.290,2166.626440
7 Jan 2020 04:38:54.000,223.920,1.356,2159.708649
7 Jan 2020 04:38:55.000,223.909,1.423,2152.791158
7 Jan 2020 04:38:56.000,223.898,1.490,2145.873975
7 Jan 2020 04:38:57.000,223.887,1.558,2138.957113
7 Jan 2020 04:38:58.000,223.875,1.625,2132.040579
7 Jan 2020 04:38:59.000,223.864,1.693,2125.124390
7 Jan 2020 04:39:00.000,223.852,1.761,2118.208556
7 Jan 2020 04:39:01.000,223.841,1.829,2111.293086
7 Jan 2020 04:39:02.000,223.829,1.898,2104.377996
7 Jan 2020 04:39:03.000,223.817,1.966,2097.463296
7 Jan 2020 04:39:04.000,223.805,2.035,2090.548995
7 Jan 2020 04:39:05.000,223.793,2.105,2083.635112
7 Jan 2020 04:39:06.000,223.781,2.174,2076.721655
7 Jan 2020 04:39:07.000,223.769,2.244,2069.808635
7 Jan 2020 04:39:08.000,223.757,2.314,2062.896069
7 Jan 2020 04:39:09.000,223.745,2.384,2055.983969
7 Jan 2020 04:39:10.000,223.732,2.455,2049.072346
7 Jan 2020 04:39:11.000,223.720,2.525,2042.161211
7 Jan 2020 04:39:12.000,223.707,2.596,2035.250583
7 Jan 2020 04:39:13.000,223.694,2.668,2028.340473
7 Jan 2020 04:39:14.000,223.681,2.739,2021.430891
7 Jan 2020 04:39:15.000,223.668,2.811,2014.521856
7 Jan 2020 04:39:16.000,223.655,2.883,2007.613380
7 Jan 2020 04:39:17.000,223.642,2.956,2000.705474
7 Jan 2020 04:39:18.000,223.629,3.028,1993.798157
7 Jan 2020 04:39:19.000,223.616,3.102,1986.891442
7 Jan 2020 04:39:20.000,223.602,3.175,1979.985340
7 Jan 2020 04:39:21.000,223.589,3.248,1973.079871
7 Jan 2020 04:39:22.000,223.575,3.322,1966.175047
7 Jan 2020 04:39:23.000,223.561,3.396,1959.270884
7 Jan 2020 04:39:24.000,223.547,3.471,1952.367394
7 Jan 2020 04:39:25.000,223.533,3.546,1945.464597
7 Jan 2020 04:39:26.000,223.519,3.621,1938.562507
7 Jan 2020 04:39:27.000,223.505,3.696,1931.661137
7 Jan 2020 04:39:28.000,223.490,3.772,1924.760509
7 Jan 2020 04:39:29.000,223.476,3.848,1917.860635
7 Jan 2020 04:39:30.000,223.461,3.924,1910.961530
7 Jan 2020 04:39:31.000,223.447,4.001,1904.063215
7 Jan 2020 04:39:32.000,223.432,4.078,1897.165704
7 Jan 2020 04:39:33.000,223.417,4.156,1890.269015
7 Jan 2020 04:39:34.000,223.402,4.233,1883.373163
7 Jan 2020 04:39:35.000,223.386,4.311,1876.478170
7 Jan 2020 04:39:36.000,223.371,4.390,1869.584050
7 Jan 2020 04:39:37.000,223.355,4.468,1862.690821
7 Jan 2020 04:39:38.000,223.340,4.548,1855.798503
7 Jan 2020 04:39:39.000,223.324,4.627,1848.907115
7 Jan 2020 04:39:40.000,223.308,4.707,1842.016671
7 Jan 2020 04:39:41.000,223.292,4.787,1835.127196
7 Jan 2020 04:39:42.000,223.276,4.868,1828.238706
7 Jan 2020 04:39:43.000,223.260,4.948,1821.351221
7 Jan 2020 04:39:44.000,223.243,5.030,1814.464757
7 Jan 2020 04:39:45.000,223.227,5.111,1807.579341
7 Jan 2020 04:39:46.000,223.210,5.194,1800.694988
7 Jan 2020 04:39:47.000,223.193,5.276,1793.811719
7 Jan 2020 04:39:48.000,223.176,5.359,1786.929557
7 Jan 2020 04:39:49.000,223.159,5.442,1780.048522
7 Jan 2020 04:39:50.000,223.141,5.526,1773.168633
7 Jan 2020 04:39:51.000,223.124,5.610,1766.289915
7 Jan 2020 04:39:52.000,223.106,5.694,1759.412390
7 Jan 2020 04:39:53.000,223.088,5.779,1752.536078
7 Jan 2020 04:39:54.000,223.070,5.864,1745.661000
7 Jan 2020 04:39:55.000,223.052,5.950,1738.787184
7 Jan 2020 04:39:56.000,223.034,6.036,1731.914650
7 Jan 2020 04:39:57.000,223.015,6.123,1725.043420
7 Jan 2020 04:39:58.000,222.997,6.210,1718.173521
7 Jan 2020 04:39:59.000,222.978,6.297,1711.304977
7 Jan 2020 04:40:00.000,222.959,6.385,1704.437812
7 Jan 2020 04:40:01.000,222.940,6.474,1697.572047
7 Jan 2020 04:40:02.000,222.920,6.563,1690.707714
7 Jan 2020 04:40:03.000,222.901,6.652,1683.844836
7 Jan 2020 04:40:04.000,222.881,6.742,1676.983435
7 Jan 2020 04:40:05.000,222.861,6.832,1670.123544
7 Jan 2020 04:40:06.000,222.841,6.923,1663.265186
7 Jan 2020 04:40:07.000,222.821,7.014,1656.408390
7 Jan 2020 04:40:08.000,222.800,7.106,1649.553179
7 Jan 2020 04:40:09.000,222.780,7.198,1642.699588
7 Jan 2020 04:40:10.000,222.759,7.291,1635.847642
7 Jan 2020 04:40:11.000,222.738,7.384,1628.997368
7 Jan 2020 04:40:12.000,222.716,7.478,1622.148799
7 Jan 2020 04:40:13.000,222.695,7.572,1615.301964
7 Jan 2020 04:40:14.000,222.673,7.667,1608.456893
7 Jan 2020 04:40:15.000,222.651,7.762,1601.613613
7 Jan 2020 04:40:16.000,222.629,7.858,1594.772162
7 Jan 2020 04:40:17.000,222.607,7.955,1587.932568
7 Jan 2020 04:40:18.000,222.584,8.052,1581.094861
7 Jan 2020 04:40:19.000,222.561,8.150,1574.259080
7 Jan 2020 04:40:20.000,222.538,8.248,1567.425254
7 Jan 2020 04:40:21.000,222.515,8.347,1560.593417
7 Jan 2020 04:40:22.000,222.492,8.446,1553.763602
7 Jan 2020 04:40:23.000,222.468,8.546,1546.935849
7 Jan 2020 04:40:24.000,222.444,8.647,1540.110190
7 Jan 2020 04:40:25.000,222.420,8.748,1533.286659
7 Jan 2020 04:40:26.000,222.395,8.850,1526.465298
7 Jan 2020 04:40:27.000,222.370,8.952,1519.646142
7 Jan 2020 04:40:28.000,222.345,9.055,1512.829228
7 Jan 2020 04:40:29.000,222.320,9.159,1506.014593
7 Jan 2020 04:40:30.000,222.295,9.263,1499.202280
7 Jan 2020 04:40:31.000,222.269,9.369,1492.392328
7 Jan 2020 04:40:32.000,222.243,9.474,1485.584777
7 Jan 2020 04:40:33.000,222.217,9.581,1478.779665
7 Jan 2020 04:40:34.000,222.190,9.688,1471.977040
7 Jan 2020 04:40:35.000,222.163,9.796,1465.176942
7 Jan 2020 04:40:36.000,222.136,9.904,1458.379411
7 Jan 2020 04:40:37.000,222.109,10.014,1451.584498
7 Jan 2020 04:40:38.000,222.081,10.124,1444.792244
7 Jan 2020 04:40:39.000,222.053,10.234,1438.002695
7 Jan 2020 04:40:40.000,222.024,10.346,1431.215895
7 Jan 2020 04:40:41.000,221.996,10.458,1424.431897
7 Jan 2020 04:40:42.000,221.967,10.571,1417.650747
7 Jan 2020 04:40:43.000,221.937,10.685,1410.872493
7 Jan 2020 04:40:44.000,221.908,10.799,1404.097184
7 Jan 2020 04:40:45.000,221.878,10.915,1397.324874
7 Jan 2020 04:40:46.000,221.847,11.031,1390.555614
7 Jan 2020 04:40:47.000,221.817,11.148,1383.789457
7 Jan 2020 04:40:48.000,221.786,11.266,1377.026453
7 Jan 2020 04:40:49.000,221.754,11.385,1370.266662
7 Jan 2020 04:40:50.000,221.723,11.504,1363.510138
7 Jan 2020 04:40:51.000,221.691,11.625,1356.756938
7 Jan 2020 04:40:52.000,221.658,11.746,1350.007117
7 Jan 2020 04:40:53.000,221.625,11.868,1343.260738
7 Jan 2020 04:40:54.000,221.592,11.991,1336.517860
7 Jan 2020 04:40:55.000,221.559,12.116,1329.778544
7 Jan 2020 04:40:56.000,221.525,12.241,1323.042850
7 Jan 2020 04:40:57.000,221.490,12.367,1316.310847
7 Jan 2020 04:40:58.000,221.455,12.493,1309.582596
7 Jan 2020 04:40:59.000,221.420,12.621,1302.858165
7 Jan 2020 04:41:00.000,221.384,12.750,1296.137617
7 Jan 2020 04:41:01.000,221.348,12.880,1289.421028
7 Jan 2020 04:41:02.000,221.312,13.011,1282.708464
7 Jan 2020 04:41:03.000,221.275,13.143,1275.999996
7 Jan 2020 04:41:04.000,221.237,13.276,1269.295697
7 Jan 2020 04:41:05.000,221.200,13.410,1262.595644
7 Jan 2020 04:41:06.000,221.161,13.546,1255.899911
7 Jan 2020 04:41:07.000,221.122,13.682,1249.208576
7 Jan 2020 04:41:08.000,221.083,13.819,1242.521715
7 Jan 2020 04:41:09.000,221.043,13.958,1235.839414
7 Jan 2020 04:41:10.000,221.003,14.098,1229.161752
7 Jan 2020 04:41:11.000,220.962,14.239,1222.488814
7 Jan 2020 04:41:12.000,220.921,14.381,1215.820686
7 Jan 2020 04:41:13.000,220.879,14.524,1209.157451
7 Jan 2020 04:41:14.000,220.836,14.669,1202.499206
7 Jan 2020 04:41:15.000,220.793,14.815,1195.846037
7 Jan 2020 04:41:16.000,220.750,14.962,1189.198039
7 Jan 2020 04:41:17.000,220.705,15.110,1182.555305
7 Jan 2020 04:41:18.000,220.661,15.260,1175.917935
7 Jan 2020 04:41:19.000,220.615,15.411,1169.286028
7 Jan 2020 04:41:20.000,220.569,15.563,1162.659684
7 Jan 2020 04:41:21.000,220.523,15.717,1156.039006
7 Jan 2020 04:41:22.000,220.476,15.872,1149.424099
7 Jan 2020 04:41:23.000,220.428,16.029,1142.815075
7 Jan 2020 04:41:24.000,220.379,16.187,1136.212043
7 Jan 2020 04:41:25.000,220.330,16.346,1129.615114
7 Jan 2020 04:41:26.000,220.280,16.507,1123.024406
7 Jan 2020 04:41:27.000,220.229,16.670,1116.440032
7 Jan 2020 04:41:28.000,220.178,16.834,1109.862119
7 Jan 2020 04:41:29.000,220.126,16.999,1103.290788
7 Jan 2020 04:41:30.000,220.073,17.166,1096.726165
7 Jan 2020 04:41:31.000,220.020,17.335,1090.168378
7 Jan 2020 04:41:32.000,219.965,17.506,1083.617557
7 Jan 2020 04:41:33.000,219.910,17.678,1077.073842
7 Jan 2020 04:41:34.000,219.854,17.852,1070.537369
7 Jan 2020 04:41:35.000,219.798,18.027,1064.008279
7 Jan 2020 04:41:36.000,219.740,18.204,1057.486716
7 Jan 2020 04:41:37.000,219.681,18.384,1050.972828
7 Jan 2020 04:41:38.000,219.622,18.564,1044.466765
7 Jan 2020 04:41:39.000,219.562,18.747,1037.968685
7 Jan 2020 04:41:40.000,219.501,18.932,1031.478746
7 Jan 2020 04:41:41.000,219.438,19.118,1024.997109
7 Jan 2020 04:41:42.000,219.375,19.307,1018.523940
7 Jan 2020 04:41:43.000,219.311,19.497,1012.059410
7 Jan 2020 04:41:44.000,219.246,19.690,1005.603692
7 Jan 2020 04:41:45.000,219.180,19.885,999.156966
7 Jan 2020 04:41:46.000,219.113,20.081,992.719416
7 Jan 2020 04:41:47.000,219.045,20.280,986.291227
7 Jan 2020 04:41:48.000,218.975,20.481,979.872592
7 Jan 2020 04:41:49.000,218.905,20.684,973.463706
7 Jan 2020 04:41:50.000,218.833,20.890,967.064773
7 Jan 2020 04:41:51.000,218.760,21.097,960.675995
7 Jan 2020 04:41:52.000,218.686,21.307,954.297590
7 Jan 2020 04:41:53.000,218.611,21.520,947.929771
7 Jan 2020 04:41:54.000,218.534,21.734,941.572761
7 Jan 2020 04:41:55.000,218.456,21.952,935.226788
7 Jan 2020 04:41:56.000,218.377,22.171,928.892086
7 Jan 2020 04:41:57.000,218.296,22.394,922.568894
7 Jan 2020 04:41:58.000,218.214,22.618,916.257458
7 Jan 2020 04:41:59.000,218.130,22.846,909.958029
7 Jan 2020 04:42:00.000,218.045,23.076,903.670868
7 Jan 2020 04:42:01.000,217.959,23.309,897.396240
7 Jan 2020 04:42:02.000,217.871,23.545,891.134416
7 Jan 2020 04:42:03.000,217.781,23.783,884.885676
7 Jan 2020 04:42:04.000,217.690,24.024,878.650306
7 Jan 2020 04:42:05.000,217.597,24.269,872.428600
7 Jan 2020 04:42:06.000,217.502,24.516,866.220861
7 Jan 2020 04:42:07.000,217.405,24.766,860.027397
7 Jan 2020 04:42:08.000,217.307,25.020,853.848527
7 Jan 2020 04:42:09.000,217.207,25.276,847.684578
7 Jan 2020 04:42:10.000,217.104,25.536,841.535884
7 Jan 2020 04:42:11.000,217.000,25.799,835.402789
7 Jan 2020 04:42:12.000,216.894,26.066,829.285648
7 Jan 2020 04:42:13.000,216.785,26.336,823.184821
7 Jan 2020 04:42:14.000,216.675,26.609,817.100684
7 Jan 2020 04:42:15.000,216.562,26.886,811.033619
7 Jan 2020 04:42:16.000,216.446,27.166,804.984018
7 Jan 2020 04:42:17.000,216.329,27.450,798.952286
7 Jan 2020 04:42:18.000,216.209,27.738,792.938837
7 Jan 2020 04:42:19.000,216.086,28.030,786.944098
7 Jan 2020 04:42:20.000,215.961,28.325,780.968507
7 Jan 2020 04:42:21.000,215.833,28.624,775.012513
7 Jan 2020 04:42:22.000,215.703,28.928,769.076579
7 Jan 2020 04:42:23.000,215.569,29.235,763.161181
7 Jan 2020 04:42:24.000,215.433,29.547,757.266805
7 Jan 2020 04:42:25.000,215.293,29.863,751.393955
7 Jan 2020 04:42:26.000,215.151,30.183,745.543147
7 Jan 2020 04:42:27.000,215.005,30.508,739.714908
7 Jan 2020 04:42:28.000,214.856,30.837,733.909784
7 Jan 2020 04:42:29.000,214.703,31.170,728.128335
7 Jan 2020 04:42:30.000,214.547,31.508,722.371136
7 Jan 2020 04:42:31.000,214.387,31.851,716.638778
7 Jan 2020 04:42:32.000,214.223,32.199,710.931870
7 Jan 2020 04:42:33.000,214.055,32.552,705.251036
7 Jan 2020 04:42:34.000,213.883,32.909,699.596917
7 Jan 2020 04:42:35.000,213.706,33.272,693.970173
7 Jan 2020 04:42:36.000,213.526,33.639,688.371483
7 Jan 2020 04:42:37.000,213.340,34.012,682.801544
7 Jan 2020 04:42:38.000,213.150,34.390,677.261070
7 Jan 2020 04:42:39.000,212.955,34.774,671.750796
7 Jan 2020 04:42:40.000,212.755,35.163,666.271480
7 Jan 2020 04:42:41.000,212.549,35.558,660.823898
7 Jan 2020 04:42:42.000,212.338,35.958,655.408847
7 Jan 2020 04:42:43.000,212.121,36.364,650.027149
7 Jan 2020 04:42:44.000,211.899,36.775,644.679642
7 Jan 2020 04:42:45.000,211.669,37.193,639.367191
7 Jan 2020 04:42:46.000,211.434,37.617,634.090685
7 Jan 2020 04:42:47.000,211.191,38.046,628.851035
7 Jan 2020 04:42:48.000,210.942,38.482,623.649173
7 Jan 2020 04:42:49.000,210.685,38.924,618.486062
7 Jan 2020 04:42:50.000,210.421,39.372,613.362685
7 Jan 2020 04:42:51.000,210.148,39.827,608.280054
7 Jan 2020 04:42:52.000,209.867,40.288,603.239202
7 Jan 2020 04:42:53.000,209.578,40.755,598.241192
7 Jan 2020 04:42:54.000,209.279,41.229,593.287115
7 Jan 2020 04:42:55.000,208.971,41.709,588.378082
7 Jan 2020 04:42:56.000,208.652,42.197,583.515240
7 Jan 2020 04:42:57.000,208.324,42.690,578.699757
7 Jan 2020 04:42:58.000,207.984,43.191,573.932831
7 Jan 2020 04:42:59.000,207.633,43.698,569.215688
7 Jan 2020 04:43:00.000,207.269,44.212,564.549580
7 Jan 2020 04:43:01.000,206.894,44.733,559.935790
7 Jan 2020 04:43:02.000,206.504,45.260,555.375627
7 Jan 2020 04:43:03.000,206.101,45.794,550.870427
7 Jan 2020 04:43:04.000,205.683,46.335,546.421557
7 Jan 2020 04:43:05.000,205.250,46.883,542.030407
7 Jan 2020 04:43:06.000,204.801,47.437,537.698397
7 Jan 2020 04:43:07.000,204.334,47.998,533.426974
7 Jan 2020 04:43:08.000,203.849,48.565,529.217607
7 Jan 2020 04:43:09.000,203.346,49.138,525.071797
7 Jan 2020 04:43:10.000,202.822,49.718,520.991064
7 Jan 2020 04:43:11.000,202.277,50.304,516.976954
7 Jan 2020 04:43:12.000,201.709,50.895,513.031037
7 Jan 2020 04:43:13.000,201.118,51.492,509.154900
7 Jan 2020 04:43:14.000,200.502,52.095,505.350156
7 Jan 2020 04:43:15.000,199.859,52.703,501.618434
7 Jan 2020 04:43:16.000,199.188,53.315,497.961378
7 Jan 2020 04:43:17.000,198.487,53.932,494.380650
7 Jan 2020 04:43:18.000,197.755,54.553,490.877926
7 Jan 2020 04:43:19.000,196.988,55.178,487.454890
7 Jan 2020 04:43:20.000,196.187,55.806,484.113237
7 Jan 2020 04:43:21.000,195.347,56.436,480.854666
7 Jan 2020 04:43:22.000,194.468,57.068,477.680884
7 Jan 2020 04:43:23.000,193.545,57.702,474.593593
7 Jan 2020 04:43:24.000,192.578,58.336,471.594497
7 Jan 2020 04:43:25.000,191.562,58.970,468.685291
7 Jan 2020 04:43:26.000,190.495,59.603,465.867663
7 Jan 2020 04:43:27.000,189.374,60.234,463.143289
7 Jan 2020 04:43:28.000,188.195,60.861,460.513825
7 Jan 2020 04:43:29.000,186.956,61.485,457.980910
7 Jan 2020 04:43:30.000,185.651,62.102,455.546158
7 Jan 2020 04:43:31.000,184.279,62.713,453.211152
7 Jan 2020 04:43:32.000,182.834,63.315,450.977446
7 Jan 2020 04:43:33.000,181.313,63.907,448.846553
7 Jan 2020 04:43:34.000,179.712,64.487,446.819948
7 Jan 2020 04:43:35.000,178.028,65.054,444.899058
7 Jan 2020 04:43:36.000,176.257,65.605,443.085259
7 Jan 2020 04:43:37.000,174.396,66.138,441.379875
7 Jan 2020 04:43:38.000,172.441,66.651,439.784168
7 Jan 2020 04:43:39.000,170.391,67.141,438.299339
7 Jan 2020 04:43:40.000,168.245,67.607,436.926518
7 Jan 2020 04:43:41.000,166.000,68.045,435.666767
7 Jan 2020 04:43:42.000,163.660,68.454,434.521070
7 Jan 2020 04:43:43.000,161.224,68.830,433.490333
7 Jan 2020 04:43:44.000,158.696,69.171,432.575379
7 Jan 2020 04:43:45.000,156.083,69.474,431.776945
7 Jan 2020 04:43:46.000,153.390,69.738,431.095679
7 Jan 2020 04:43:47.000,150.627,69.959,430.532137
7 Jan 2020 04:43:48.000,147.804,70.137,430.086785
7 Jan 2020 04:43:49.000,144.933,70.270,429.759988
7 Jan 2020 04:43:50.000,142.027,70.356,429.552018
7 Jan 2020 04:43:51.000,139.102,70.394,429.463049
7 Jan 2020 04:43:52.000,136.173,70.385,429.493153
7 Jan 2020 04:43:53.000,133.253,70.328,429.642305
7 Jan 2020 04:43:54.000,130.360,70.224,429.910382
7 Jan 2020 04:43:55.000,127.507,70.074,430.297161
7 Jan 2020 04:43:56.000,124.706,69.879,430.802321
7 Jan 2020 04:43:57.000,121.970,69.641,431.425446
7 Jan 2020 04:43:58.000,119.308,69.362,432.166025
7 Jan 2020 04:43:59.000,116.728,69.044,433.023454
7 Jan 2020 04:44:00.000,114.237,68.689,433.997040
7 Jan 2020 04:44:01.000,111.838,68.301,435.086000
7 Jan 2020 04:44:02.000,109.536,67.881,436.289472
7 Jan 2020 04:44:03.000,107.331,67.432,437.606506
7 Jan 2020 04:44:04.000,105.223,66.957,439.036082
7 Jan 2020 04:44:05.000,103.211,66.458,440.577099
7 Jan 2020 04:44:06.000,101.294,65.937,442.228393
7 Jan 2020 04:44:07.000,99.469,65.398,443.988730
7 Jan 2020 04:44:08.000,97.733,64.841,445.856817
7 Jan 2020 04:44:09.000,96.083,64.270,447.831302
7 Jan 2020 04:44:10.000,94.515,63.686,449.910783
7 Jan 2020 04:44:11.000,93.025,63.091,452.093809
7 Jan 2020 04:44:12.000,91.610,62.486,454.378883
7 Jan 2020 04:44:13.000,90.265,61.873,456.764472
7 Jan 2020 04:44:14.000,88.987,61.254,459.249006
7 Jan 2020 04:44:15.000,87.772,60.630,461.830887
7 Jan 2020 04:44:16.000,86.616,60.002,464.508485
7 Jan 2020 04:44:17.000,85.517,59.372,467.280153
7 Jan 2020 04:44:18.000,84.471,58.739,470.144225
7 Jan 2020 04:44:19.000,83.475,58.106,473.099018
7 Jan 2020 04:44:20.000,82.526,57.473,476.142839
7 Jan 2020 04:44:21.000,81.621,56.841,479.273990
7 Jan 2020 04:44:22.000,80.758,56.211,482.490765
7 Jan 2020 04:44:23.000,79.934,55.583,485.791460
7 Jan 2020 04:44:24.000,79.147,54.957,489.174372
7 Jan 2020 04:44:25.000,78.395,54.335,492.637802
7 Jan 2020 04:44:26.000,77.675,53.717,496.180062
7 Jan 2020 04:44:27.000,76.987,53.103,499.799471
7 Jan 2020 04:44:28.000,76.327,52.493,503.494360
7 Jan 2020 04:44:29.000,75.695,51.889,507.263075
7 Jan 2020 04:44:30.000,75.089,51.289,511.103977
7 Jan 2020 04:44:31.000,74.508,50.695,515.015451
7 Jan 2020 04:44:32.000,73.950,50.107,518.995892
7 Jan 2020 04:44:33.000,73.413,49.525,523.043721
7 Jan 2020 04:44:34.000,72.898,48.949,527.157384
7 Jan 2020 04:44:35.000,72.402,48.379,531.335345
7 Jan 2020 04:44:36.000,71.925,47.816,535.576091
7 Jan 2020 04:44:37.000,71.465,47.259,539.878143
7 Jan 2020 04:44:38.000,71.022,46.708,544.240037
7 Jan 2020 04:44:39.000,70.596,46.164,548.660345
7 Jan 2020 04:44:40.000,70.184,45.627,553.137657
7 Jan 2020 04:44:41.000,69.787,45.097,557.670598
7 Jan 2020 04:44:42.000,69.403,44.573,562.257814
7 Jan 2020 04:44:43.000,69.032,44.056,566.897986
7 Jan 2020 04:44:44.000,68.674,43.545,571.589813
7 Jan 2020 04:44:45.000,68.328,43.042,576.332034
7 Jan 2020 04:44:46.000,67.993,42.545,581.123404
7 Jan 2020 04:44:47.000,67.668,42.055,585.962714
7 Jan 2020 04:44:48.000,67.354,41.571,590.848782
7 Jan 2020 04:44:49.000,67.050,41.094,595.780449
7 Jan 2020 04:44:50.000,66.755,40.624,600.756588
7 Jan 2020 04:44:51.000,66.469,40.160,605.776094
7 Jan 2020 04:44:52.000,66.192,39.702,610.837894
7 Jan 2020 04:44:53.000,65.923,39.251,615.940942
7 Jan 2020 04:44:54.000,65.662,38.806,621.084209
7 Jan 2020 04:44:55.000,65.408,38.368,626.266701
7 Jan 2020 04:44:56.000,65.162,37.935,631.487446
7 Jan 2020 04:44:57.000,64.922,37.509,636.745500
7 Jan 2020 04:44:58.000,64.690,37.088,642.039934
7 Jan 2020 04:44:59.000,64.463,36.674,647.369852
7 Jan 2020 04:45:00.000,64.243,36.265,652.734378
7 Jan 2020 04:45:01.000,64.029,35.862,658.132662
7 Jan 2020 04:45:02.000,63.820,35.465,663.563868
7 Jan 2020 04:45:03.000,63.617,35.073,669.027192
7 Jan 2020 04:45:04.000,63.419,34.687,674.521845
7 Jan 2020 04:45:05.000,63.226,34.307,680.047062
7 Jan 2020 04:45:06.000,63.038,33.931,685.602097
7 Jan 2020 04:45:07.000,62.855,33.561,691.186227
7 Jan 2020 04:45:08.000,62.676,33.196,696.798741
7 Jan 2020 04:45:09.000,62.502,32.836,702.438954
7 Jan 2020 04:45:10.000,62.332,32.481,708.106197
7 Jan 2020 04:45:11.000,62.166,32.131,713.799820
7 Jan 2020 04:45:12.000,62.004,31.786,719.519191
7 Jan 2020 04:45:13.000,61.845,31.446,725.263692
7 Jan 2020 04:45:14.000,61.691,31.110,731.032724
7 Jan 2020 04:45:15.000,61.540,30.779,736.825705
7 Jan 2020 04:45:16.000,61.392,30.452,742.642066
7 Jan 2020 04:45:17.000,61.248,30.130,748.481257
7 Jan 2020 04:45:18.000,61.107,29.812,754.342739
7 Jan 2020 04:45:19.000,60.969,29.498,760.225993
7 Jan 2020 04:45:20.000,60.834,29.189,766.130505
7 Jan 2020 04:45:21.000,60.702,28.883,772.055783
7 Jan 2020 04:45:22.000,60.573,28.582,778.001344
7 Jan 2020 04:45:23.000,60.446,28.285,783.966721
7 Jan 2020 04:45:24.000,60.322,27.991,789.951457
7 Jan 2020 04:45:25.000,60.201,27.702,795.955109
7 Jan 2020 04:45:26.000,60.082,27.416,801.977245
7 Jan 2020 04:45:27.000,59.966,27.134,808.017443
7 Jan 2020 04:45:28.000,59.852,26.855,814.075295
7 Jan 2020 04:45:29.000,59.741,26.580,820.150402
7 Jan 2020 04:45:30.000,59.631,26.309,826.242377
7 Jan 2020 04:45:31.000,59.524,26.041,832.350841
7 Jan 2020 04:45:32.000,59.419,25.776,838.475424
7 Jan 2020 04:45:33.000,59.316,25.515,844.615775
7 Jan 2020 04:45:34.000,59.214,25.257,850.771540
7 Jan 2020 04:45:35.000,59.115,25.002,856.942381
7 Jan 2020 04:45:36.000,59.018,24.750,863.127967
7 Jan 2020 04:45:37.000,58.922,24.501,869.327976
7 Jan 2020 04:45:38.000,58.829,24.255,875.542093
7 Jan 2020 04:45:39.000,58.737,24.013,881.770014
7 Jan 2020 04:45:40.000,58.646,23.773,888.011440
7 Jan 2020 04:45:41.000,58.558,23.536,894.266082
7 Jan 2020 04:45:42.000,58.470,23.302,900.533655
7 Jan 2020 04:45:43.000,58.385,23.070,906.813886
7 Jan 2020 04:45:44.000,58.301,22.841,913.106504
7 Jan 2020 04:45:45.000,58.218,22.615,919.411248
7 Jan 2020 04:45:46.000,58.137,22.392,925.727860
7 Jan 2020 04:45:47.000,58.057,22.171,932.056096
7 Jan 2020 04:45:48.000,57.979,21.952,938.395712
7 Jan 2020 04:45:49.000,57.902,21.736,944.746470
7 Jan 2020 04:45:50.000,57.826,21.523,951.108140
7 Jan 2020 04:45:51.000,57.752,21.312,957.480497
7 Jan 2020 04:45:52.000,57.679,21.103,963.863321
7 Jan 2020 04:45:53.000,57.607,20.897,970.256397
7 Jan 2020 04:45:54.000,57.536,20.692,976.659514
7 Jan 2020 04:45:55.000,57.466,20.490,983.072474
7 Jan 2020 04:45:56.000,57.398,20.291,989.495075
7 Jan 2020 04:45:57.000,57.330,20.093,995.927123
7 Jan 2020 04:45:58.000,57.264,19.897,1002.368428
7 Jan 2020 04:45:59.000,57.199,19.704,1008.818804
7 Jan 2020 04:46:00.000,57.134,19.512,1015.278073
7 Jan 2020 04:46:01.000,57.071,19.323,1021.746054
7 Jan 2020 04:46:02.000,57.009,19.135,1028.222580
7 Jan 2020 04:46:03.000,56.947,18.950,1034.707482
7 Jan 2020 04:46:04.000,56.887,18.766,1041.200594
7 Jan 2020 04:46:05.000,56.827,18.584,1047.701756
7 Jan 2020 04:46:06.000,56.769,18.404,1054.210811
7 Jan 2020 04:46:07.000,56.711,18.226,1060.727604
7 Jan 2020 04:46:08.000,56.654,18.050,1067.251991
7 Jan 2020 04:46:09.000,56.598,17.875,1073.783822
7 Jan 2020 04:46:10.000,56.543,17.702,1080.322956
7 Jan 2020 04:46:11.000,56.489,17.531,1086.869251
7 Jan 2020 04:46:12.000,56.435,17.361,1093.422572
7 Jan 2020 04:46:13.000,56.383,17.194,1099.982783
7 Jan 2020 04:46:14.000,56.331,17.027,1106.549758
7 Jan 2020 04:46:15.000,56.279,16.862,1113.123368
7 Jan 2020 04:46:16.000,56.229,16.699,1119.703487
7 Jan 2020 04:46:17.000,56.179,16.538,1126.289994
7 Jan 2020 04:46:18.000,56.130,16.377,1132.882767
7 Jan 2020 04:46:19.000,56.081,16.219,1139.481694
7 Jan 2020 04:46:20.000,56.033,16.061,1146.086659
7 Jan 2020 04:46:21.000,55.986,15.906,1152.697550
7 Jan 2020 04:46:22.000,55.940,15.751,1159.314258
7 Jan 2020 04:46:23.000,55.894,15.598,1165.936672
7 Jan 2020 04:46:24.000,55.849,15.446,1172.564695
7 Jan 2020 04:46:25.000,55.804,15.296,1179.198220
7 Jan 2020 04:46:26.000,55.760,15.147,1185.837148
7 Jan 2020 04:46:27.000,55.717,14.999,1192.481377
7 Jan 2020 04:46:28.000,55.674,14.853,1199.130817
7 Jan 2020 04:46:29.000,55.632,14.708,1205.785371
7 Jan 2020 04:46:30.000,55.590,14.564,1212.444947
7 Jan 2020 04:46:31.000,55.549,14.421,1219.109455
7 Jan 2020 04:46:32.000,55.508,14.280,1225.778803
7 Jan 2020 04:46:33.000,55.468,14.139,1232.452911
7 Jan 2020 04:46:34.000,55.428,14.000,1239.131691
7 Jan 2020 04:46:35.000,55.389,13.862,1245.815059
7 Jan 2020 04:46:36.000,55.351,13.725,1252.502932
7 Jan 2020 04:46:37.000,55.313,13.590,1259.195235
7 Jan 2020 04:46:38.000,55.275,13.455,1265.891888
7 Jan 2020 04:46:39.000,55.238,13.322,1272.592813
7 Jan 2020 04:46:40.000,55.201,13.189,1279.297936
7 Jan 2020 04:46:41.000,55.165,13.058,1286.007179
7 Jan 2020 04:46:42.000,55.129,12.927,1292.720478
7 Jan 2020 04:46:43.000,55.094,12.798,1299.437757
7 Jan 2020 04:46:44.000,55.059,12.669,1306.158948
7 Jan 2020 04:46:45.000,55.024,12.542,1312.883979
7 Jan 2020 04:46:46.000,54.990,12.416,1319.612789
7 Jan 2020 04:46:47.000,54.957,12.290,1326.345311
7 Jan 2020 04:46:48.000,54.923,12.166,1333.081480
7 Jan 2020 04:46:49.000,54.891,12.042,1339.821229
7 Jan 2020 04:46:50.000,54.858,11.919,1346.564503
7 Jan 2020 04:46:51.000,54.826,11.797,1353.311238
7 Jan 2020 04:46:52.000,54.794,11.677,1360.061375
7 Jan 2020 04:46:53.000,54.763,11.557,1366.814853
7 Jan 2020 04:46:54.000,54.732,11.437,1373.571619
7 Jan 2020 04:46:55.000,54.701,11.319,1380.331614
7 Jan 2020 04:46:56.000,54.671,11.202,1387.094784
7 Jan 2020 04:46:57.000,54.641,11.085,1393.861071
7 Jan 2020 04:46:58.000,54.612,10.969,1400.630428
7 Jan 2020 04:46:59.000,54.582,10.854,1407.402799
7 Jan 2020 04:47:00.000,54.554,10.740,1414.178133
7 Jan 2020 04:47:01.000,54.525,10.627,1420.956377
7 Jan 2020 04:47:02.000,54.497,10.514,1427.737486
7 Jan 2020 04:47:03.000,54.469,10.402,1434.521410
7 Jan 2020 04:47:04.000,54.441,10.291,1441.308101
7 Jan 2020 04:47:05.000,54.414,10.181,1448.097508
7 Jan 2020 04:47:06.000,54.387,10.071,1454.889591
7 Jan 2020 04:47:07.000,54.360,9.963,1461.684302
7 Jan 2020 04:47:08.000,54.334,9.854,1468.481594
7 Jan 2020 04:47:09.000,54.308,9.747,1475.281428
7 Jan 2020 04:47:10.000,54.282,9.640,1482.083758
7 Jan 2020 04:47:11.000,54.256,9.534,1488.888543
7 Jan 2020 04:47:12.000,54.231,9.429,1495.695738
7 Jan 2020 04:47:13.000,54.206,9.324,1502.505307
7 Jan 2020 04:47:14.000,54.181,9.220,1509.317207
7 Jan 2020 04:47:15.000,54.157,9.117,1516.131400
7 Jan 2020 04:47:16.000,54.133,9.014,1522.947842
7 Jan 2020 04:47:17.000,54.109,8.912,1529.766502
7 Jan 2020 04:47:18.000,54.085,8.810,1536.587340
7 Jan 2020 04:47:19.000,54.062,8.709,1543.410314
7 Jan 2020 04:47:20.000,54.039,8.609,1550.235396
7 Jan 2020 04:47:21.000,54.016,8.509,1557.062545
7 Jan 2020 04:47:22.000,53.993,8.410,1563.891727
7 Jan 2020 04:47:23.000,53.970,8.312,1570.722905
7 Jan 2020 04:47:24.000,53.948,8.214,1577.556049
7 Jan 2020 04:47:25.000,53.926,8.117,1584.391124
7 Jan 2020 04:47:26.000,53.904,8.020,1591.228096
7 Jan 2020 04:47:27.000,53.883,7.924,1598.066931
7 Jan 2020 04:47:28.000,53.862,7.828,1604.907601
7 Jan 2020 04:47:29.000,53.840,7.733,1611.750072
7 Jan 2020 04:47:30.000,53.820,7.638,1618.594312
7 Jan 2020 04:47:31.000,53.799,7.544,1625.440294
7 Jan 2020 04:47:32.000,53.778,7.451,1632.287986
7 Jan 2020 04:47:33.000,53.758,7.358,1639.137358
7 Jan 2020 04:47:34.000,53.738,7.265,1645.988379
7 Jan 2020 04:47:35.000,53.718,7.173,1652.841025
7 Jan 2020 04:47:36.000,53.699,7.082,1659.695265
7 Jan 2020 04:47:37.000,53.679,6.991,1666.551069
7 Jan 2020 04:47:38.000,53.660,6.900,1673.408415
7 Jan 2020 04:47:39.000,53.641,6.810,1680.267273
7 Jan 2020 04:47:40.000,53.622,6.721,1687.127616
7 Jan 2020 04:47:41.000,53.603,6.632,1693.989415
7 Jan 2020 04:47:42.000,53.585,6.543,1700.852651
7 Jan 2020 04:47:43.000,53.566,6.455,1707.717294
7 Jan 2020 04:47:44.000,53.548,6.367,1714.583317
7 Jan 2020 04:47:45.000,53.530,6.280,1721.450701
7 Jan 2020 04:47:46.000,53.512,6.193,1728.319419
7 Jan 2020 04:47:47.000,53.495,6.107,1735.189444
7 Jan 2020 04:47:48.000,53.477,6.021,1742.060758
7 Jan 2020 04:47:49.000,53.460,5.935,1748.933334
7 Jan 2020 04:47:50.000,53.443,5.850,1755.807150
7 Jan 2020 04:47:51.000,53.426,5.766,1762.682180
7 Jan 2020 04:47:52.000,53.409,5.682,1769.558407
7 Jan 2020 04:47:53.000,53.392,5.598,1776.435807
7 Jan 2020 04:47:54.000,53.376,5.514,1783.314355
7 Jan 2020 04:47:55.000,53.360,5.431,1790.194035
7 Jan 2020 04:47:56.000,53.343,5.349,1797.074823
7 Jan 2020 04:47:57.000,53.327,5.266,1803.956698
7 Jan 2020 04:47:58.000,53.311,5.185,1810.839638
7 Jan 2020 04:47:59.000,53.296,5.103,1817.723626
7 Jan 2020 04:48:00.000,53.280,5.022,1824.608641
7 Jan 2020 04:48:01.000,53.265,4.941,1831.494660
7 Jan 2020 04:48:02.000,53.249,4.861,1838.381668
7 Jan 2020 04:48:03.000,53.234,4.781,1845.269644
7 Jan 2020 04:48:04.000,53.219,4.701,1852.158567
7 Jan 2020 04:48:05.000,53.204,4.622,1859.048422
7 Jan 2020 04:48:06.000,53.190,4.543,1865.939188
7 Jan 2020 04:48:07.000,53.175,4.465,1872.830848
7 Jan 2020 04:48:08.000,53.161,4.387,1879.723381
7 Jan 2020 04:48:09.000,53.146,4.309,1886.616773
7 Jan 2020 04:48:10.000,53.132,4.231,1893.511006
7 Jan 2020 04:48:11.000,53.118,4.154,1900.406058
7 Jan 2020 04:48:12.000,53.104,4.077,1907.301919
7 Jan 2020 04:48:13.000,53.090,4.001,1914.198568
7 Jan 2020 04:48:14.000,53.076,3.924,1921.095986
7 Jan 2020 04:48:15.000,53.063,3.849,1927.994162
7 Jan 2020 04:48:16.000,53.049,3.773,1934.893077
7 Jan 2020 04:48:17.000,53.036,3.698,1941.792715
7 Jan 2020 04:48:18.000,53.023,3.623,1948.693058
7 Jan 2020 04:48:19.000,53.010,3.548,1955.594094
7 Jan 2020 04:48:20.000,52.997,3.474,1962.495807
7 Jan 2020 04:48:21.000,52.984,3.400,1969.398177
7 Jan 2020 04:48:22.000,52.971,3.326,1976.301195
7 Jan 2020 04:48:23.000,52.959,3.253,1983.204844
7 Jan 2020 04:48:24.000,52.946,3.180,1990.109105
7 Jan 2020 04:48:25.000,52.934,3.107,1997.013970
7 Jan 2020 04:48:26.000,52.921,3.034,2003.919422
7 Jan 2020 04:48:27.000,52.909,2.962,2010.825447
7 Jan 2020 04:48:28.000,52.897,2.890,2017.732027
7 Jan 2020 04:48:29.000,52.885,2.818,2024.639154
7 Jan 2020 04:48:30.000,52.873,2.747,2031.546811
7 Jan 2020 04:48:31.000,52.862,2.676,2038.454983
7 Jan 2020 04:48:32.000,52.850,2.605,2045.363661
7 Jan 2020 04:48:33.000,52.838,2.534,2052.272829
7 Jan 2020 04:48:34.000,52.827,2.464,2059.182471
7 Jan 2020 04:48:35.000,52.816,2.394,2066.092580
7 Jan 2020 04:48:36.000,52.804,2.324,2073.003141
7 Jan 2020 04:48:37.000,52.793,2.254,2079.914139
7 Jan 2020 04:48:38.000,52.782,2.185,2086.825561
7 Jan 2020 04:48:39.000,52.771,2.116,2093.737399
7 Jan 2020 04:48:40.000,52.760,2.047,2100.649639
7 Jan 2020 04:48:41.000,52.749,1.979,2107.562264
7 Jan 2020 04:48:42.000,52.739,1.910,2114.475269
7 Jan 2020 04:48:43.000,52.728,1.842,2121.388639
7 Jan 2020 04:48:44.000,52.718,1.774,2128.302359
7 Jan 2020 04:48:45.000,52.707,1.707,2135.216424
7 Jan 2020 04:48:46.000,52.697,1.639,2142.130819
7 Jan 2020 04:48:47.000,52.687,1.572,2149.045529
7 Jan 2020 04:48:48.000,52.677,1.505,2155.960550
7 Jan 2020 04:48:49.000,52.666,1.439,2162.875867
7 Jan 2020 04:48:50.000,52.656,1.372,2169.791469
7 Jan 2020 04:48:51.000,52.647,1.306,2176.707343
7 Jan 2020 04:48:52.000,52.637,1.240,2183.623482
7 Jan 2020 04:48:53.000,52.627,1.174,2190.539874
7 Jan 2020 04:48:54.000,52.617,1.108,2197.456505
7 Jan 2020 04:48:55.000,52.608,1.043,2204.373371
7 Jan 2020 04:48:56.000,52.598,0.978,2211.290458
7 Jan 2020 04:48:57.000,52.589,0.913,2218.207752
7 Jan 2020 04:48:58.000,52.580,0.848,2225.125250
7 Jan 2020 04:48:59.000,52.570,0.784,2232.042939
7 Jan 2020 04:49:00.000,52.561,0.719,2238.960805
7 Jan 2020 04:49:01.000,52.552,0.655,2245.878844
7 Jan 2020 04:49:02.000,52.543,0.591,2252.797045
7 Jan 2020 04:49:03.000,52.534,0.528,2259.715396
7 Jan 2020 04:49:04.000,52.525,0.464,2266.633886
7 Jan 2020 04:49:05.000,52.517,0.401,2273.552511
7 Jan 2020 04:49:06.000,52.508,0.338,2280.471259
7 Jan 2020 04:49:07.000,52.499,0.275,2287.390117
7 Jan 2020 04:49:08.000,52.491,0.212,2294.309082
7 Jan 2020 04:49:09.000,52.482,0.150,2301.228141
7 Jan 2020 04:49:10.000,52.474,0.087,2308.147283
7 Jan 2020 04:49:11.000,52.465,0.025,2315.066505
7 Jan 2020 04:49:12.000,52.457,-0.037,2321.985795
7 Jan 2020 04:49:12.673,52.452,-0.079,2326.641391
7 Jan 2020 06:15:47.366,270.292,-0.078,2321.340974
7 Jan 2020 06:15:48.000,270.347,-0.044,2317.466077
7 Jan 2020 06:15:49.000,270.433,0.011,2311.358137
7 Jan 2020 06:15:50.000,270.519,0.066,2305.254567
7 Jan 2020 06:15:51.000,270.606,0.122,2299.155409
7 Jan 2020 06:15:52.000,270.694,0.177,2293.060704
7 Jan 2020 06:15:53.000,270.781,0.232,2286.970496
7 Jan 2020 06:15:54.000,270.870,0.288,2280.884827
7 Jan 2020 06:15:55.000,270.959,0.343,2274.803741
7 Jan 2020 06:15:56.000,271.048,0.399,2268.727281
7 Jan 2020 06:15:57.000,271.138,0.455,2262.655492
7 Jan 2020 06:15:58.000,271.228,0.511,2256.588417
7 Jan 2020 06:15:59.000,271.318,0.567,2250.526103
7 Jan 2020 06:16:00.000,271.409,0.623,2244.468594
7 Jan 2020 06:16:01.000,271.501,0.679,2238.415936
7 Jan 2020 06:16:02.000,271.593,0.735,2232.368176
7 Jan 2020 06:16:03.000,271.686,0.792,2226.325360
7 Jan 2020 06:16:04.000,271.779,0.849,2220.287536
7 Jan 2020 06:16:05.000,271.872,0.905,2214.254751
7 Jan 2020 06:16:06.000,271.966,0.962,2208.227054
7 Jan 2020 06:16:07.000,272.061,1.019,2202.204492
7 Jan 2020 06:16:08.000,272.156,1.076,2196.187116
7 Jan 2020 06:16:09.000,272.252,1.133,2190.174973
7 Jan 2020 06:16:10.000,272.348,1.191,2184.168116
7 Jan 2020 06:16:11.000,272.444,1.248,2178.166593
7 Jan 2020 06:16:12.000,272.542,1.305,2172.170457
7 Jan 2020 06:16:13.000,272.639,1.363,2166.179758
7 Jan 2020 06:16:14.000,272.737,1.421,2160.194548
7 Jan 2020 06:16:15.000,272.836,1.479,2154.214881
7 Jan 2020 06:16:16.000,272.936,1.537,2148.240809
7 Jan 2020 06:16:17.000,273.035,1.595,2142.272385
7 Jan 2020 06:16:18.000,273.136,1.653,2136.309664
7 Jan 2020 06:16:19.000,273.237,1.711,2130.352700
7 Jan 2020 06:16:20.000,273.338,1.770,2124.401549
7 Jan 2020 06:16:21.000,273.440,1.829,2118.456266
7 Jan 2020 06:16:22.000,273.543,1.887,2112.516907
7 Jan 2020 06:16:23.000,273.646,1.946,2106.583529
7 Jan 2020 06:16:24.000,273.750,2.005,2100.656190
7 Jan 2020 06:16:25.000,273.854,2.064,2094.734948
7 Jan 2020 06:16:26.000,273.959,2.123,2088.819861
7 Jan 2020 06:16:27.000,274.065,2.183,2082.910987
7 Jan 2020 06:16:28.000,274.171,2.242,2077.008388
7 Jan 2020 06:16:29.000,274.277,2.302,2071.112122
7 Jan 2020 06:16:30.000,274.385,2.362,2065.222252
7 Jan 2020 06:16:31.000,274.493,2.421,2059.338838
7 Jan 2020 06:16:32.000,274.601,2.481,2053.461943
7 Jan 2020 06:16:33.000,274.710,2.542,2047.591629
7 Jan 2020 06:16:34.000,274.820,2.602,2041.727960
7 Jan 2020 06:16:35.000,274.930,2.662,2035.871000
7 Jan 2020 06:16:36.000,275.041,2.723,2030.020813
7 Jan 2020 06:16:37.000,275.153,2.783,2024.177464
7 Jan 2020 06:16:38.000,275.265,2.844,2018.341021
7 Jan 2020 06:16:39.000,275.378,2.905,2012.511548
7 Jan 2020 06:16:40.000,275.492,2.966,2006.689115
7 Jan 2020 06:16:41.000,275.606,3.027,2000.873787
7 Jan 2020 06:16:42.000,275.721,3.088,1995.065636
7 Jan 2020 06:16:43.000,275.837,3.150,1989.264732
7 Jan 2020 06:16:44.000,275.953,3.211,1983.471140
7 Jan 2020 06:16:45.000,276.070,3.273,1977.684933
7 Jan 2020 06:16:46.000,276.187,3.335,1971.906183
7 Jan 2020 06:16:47.000,276.306,3.397,1966.134962
7 Jan 2020 06:16:48.000,276.425,3.459,1960.371344
7 Jan 2020 06:16:49.000,276.544,3.521,1954.615402
7 Jan 2020 06:16:50.000,276.665,3.583,1948.867210
7 Jan 2020 06:16:51.000,276.786,3.646,1943.126844
7 Jan 2020 06:16:52.000,276.908,3.709,1937.394379
7 Jan 2020 06:16:53.000,277.030,3.771,1931.669893
7 Jan 2020 06:16:54.000,277.154,3.834,1925.953463
7 Jan 2020 06:16:55.000,277.278,3.897,1920.245167
7 Jan 2020 06:16:56.000,277.403,3.960,1914.545088
7 Jan 2020 06:16:57.000,277.528,4.024,1908.853300
7 Jan 2020 06:16:58.000,277.654,4.087,1903.169885
7 Jan 2020 06:16:59.000,277.781,4.151,1897.494927
7 Jan 2020 06:17:00.000,277.909,4.214,1891.828506
7 Jan 2020 06:17:01.000,278.038,4.278,1886.170708
7 Jan 2020 06:17:02.000,278.167,4.342,1880.521615
7 Jan 2020 06:17:03.000,278.297,4.406,1874.881313
7 Jan 2020 06:17:04.000,278.428,4.471,1869.249887
7 Jan 2020 06:17:05.000,278.560,4.535,1863.627429
7 Jan 2020 06:17:06.000,278.692,4.599,1858.014018
7 Jan 2020 06:17:07.000,278.826,4.664,1852.409747
7 Jan 2020 06:17:08.000,278.960,4.729,1846.814704
7 Jan 2020 06:17:09.000,279.095,4.794,1841.228982
7 Jan 2020 06:17:10.000,279.231,4.859,1835.652670
7 Jan 2020 06:17:11.000,279.367,4.924,1830.085861
7 Jan 2020 06:17:12.000,279.505,4.990,1824.528652
7 Jan 2020 06:17:13.000,279.643,5.055,1818.981130
7 Jan 2020 06:17:14.000,279.782,5.121,1813.443394
7 Jan 2020 06:17:15.000,279.922,5.187,1807.915539
7 Jan 2020 06:17:16.000,280.063,5.252,1802.397663
7 Jan 2020 06:17:17.000,280.205,5.318,1796.889864
7 Jan 2020 06:17:18.000,280.348,5.385,1791.392241
7 Jan 2020 06:17:19.000,280.491,5.451,1785.904897
7 Jan 2020 06:17:20.000,280.636,5.517,1780.427927
7 Jan 2020 06:17:21.000,280.781,5.584,1774.961436
7 Jan 2020 06:17:22.000,280.927,5.651,1769.505527
7 Jan 2020 06:17:23.000,281.075,5.718,1764.060306
7 Jan 2020 06:17:24.000,281.223,5.785,1758.625880
7 Jan 2020 06:17:25.000,281.372,5.852,1753.202349
7 Jan 2020 06:17:26.000,281.522,5.919,1747.789824
7 Jan 2020 06:17:27.000,281.673,5.987,1742.388414
7 Jan 2020 06:17:28.000,281.825,6.054,1736.998228
7 Jan 2020 06:17:29.000,281.978,6.122,1731.619380
7 Jan 2020 06:17:30.000,282.132,6.190,1726.251976
7 Jan 2020 06:17:31.000,282.286,6.258,1720.896132
7 Jan 2020 06:17:32.000,282.442,6.326,1715.551963
7 Jan 2020 06:17:33.000,282.599,6.394,1710.219583
7 Jan 2020 06:17:34.000,282.757,6.462,1704.899113
7 Jan 2020 06:17:35.000,282.916,6.531,1699.590663
7 Jan 2020 06:17:36.000,283.076,6.599,1694.294357
7 Jan 2020 06:17:37.000,283.237,6.668,1689.010313
7 Jan 2020 06:17:38.000,283.398,6.737,1683.738657
7 Jan 2020 06:17:39.000,283.561,6.806,1678.479504
7 Jan 2020 06:17:40.000,283.725,6.875,1673.232982
7 Jan 2020 06:17:41.000,283.891,6.945,1667.999215
7 Jan 2020 06:17:42.000,284.057,7.014,1662.778334
7 Jan 2020 06:17:43.000,284.224,7.083,1657.570458
7 Jan 2020 06:17:44.000,284.392,7.153,1652.375721
7 Jan 2020 06:17:45.000,284.562,7.223,1647.194251
7 Jan 2020 06:17:46.000,284.732,7.293,1642.026185
7 Jan 2020 06:17:47.000,284.904,7.363,1636.871647
7 Jan 2020 06:17:48.000,285.077,7.433,1631.730775
7 Jan 2020 06:17:49.000,285.250,7.503,1626.603705
7 Jan 2020 06:17:50.000,285.425,7.573,1621.490576
7 Jan 2020 06:17:51.000,285.602,7.644,1616.391519
7 Jan 2020 06:17:52.000,285.779,7.715,1611.306677
7 Jan 2020 06:17:53.000,285.957,7.785,1606.236194
7 Jan 2020 06:17:54.000,286.137,7.856,1601.180205
7 Jan 2020 06:17:55.000,286.318,7.927,1596.138858
7 Jan 2020 06:17:56.000,286.500,7.998,1591.112299
7 Jan 2020 06:17:57.000,286.683,8.069,1586.100669
7 Jan 2020 06:17:58.000,286.867,8.140,1581.104118
7 Jan 2020 06:17:59.000,287.053,8.212,1576.122798
7 Jan 2020 06:18:00.000,287.240,8.283,1571.156854
7 Jan 2020 06:18:01.000,287.428,8.355,1566.206440
7 Jan 2020 06:18:02.000,287.617,8.426,1561.271713
7 Jan 2020 06:18:03.000,287.808,8.498,1556.352820
7 Jan 2020 06:18:04.000,288.000,8.570,1551.449921
7 Jan 2020 06:18:05.000,288.193,8.642,1546.563178
7 Jan 2020 06:18:06.000,288.387,8.714,1541.692741
