vcc_sched/network/input/aer_wff_wff_vcc-b_44431.csv

"Time (UTCG)","Azimuth (deg)","Elevation (deg)","Range (km)"
3 Feb 2020 16:59:21.052,201.853,-0.078,2314.409651
3 Feb 2020 16:59:22.000,201.794,-0.023,2308.241280
3 Feb 2020 16:59:23.000,201.730,0.036,2301.738815
3 Feb 2020 16:59:24.000,201.667,0.095,2295.238973
3 Feb 2020 16:59:25.000,201.603,0.154,2288.741784
3 Feb 2020 16:59:26.000,201.538,0.213,2282.247281
3 Feb 2020 16:59:27.000,201.474,0.272,2275.755492
3 Feb 2020 16:59:28.000,201.409,0.331,2269.266451
3 Feb 2020 16:59:29.000,201.343,0.391,2262.780187
3 Feb 2020 16:59:30.000,201.277,0.451,2256.296734
3 Feb 2020 16:59:31.000,201.211,0.510,2249.816122
3 Feb 2020 16:59:32.000,201.144,0.571,2243.338386
3 Feb 2020 16:59:33.000,201.077,0.631,2236.863559
3 Feb 2020 16:59:34.000,201.010,0.691,2230.391673
3 Feb 2020 16:59:35.000,200.942,0.751,2223.922762
3 Feb 2020 16:59:36.000,200.874,0.812,2217.456860
3 Feb 2020 16:59:37.000,200.805,0.873,2210.994001
3 Feb 2020 16:59:38.000,200.736,0.934,2204.534220
3 Feb 2020 16:59:39.000,200.666,0.995,2198.077553
3 Feb 2020 16:59:40.000,200.596,1.056,2191.624035
3 Feb 2020 16:59:41.000,200.526,1.118,2185.173701
3 Feb 2020 16:59:42.000,200.455,1.179,2178.726589
3 Feb 2020 16:59:43.000,200.384,1.241,2172.282734
3 Feb 2020 16:59:44.000,200.312,1.303,2165.842172
3 Feb 2020 16:59:45.000,200.240,1.365,2159.404944
3 Feb 2020 16:59:46.000,200.168,1.427,2152.971086
3 Feb 2020 16:59:47.000,200.095,1.490,2146.540635
3 Feb 2020 16:59:48.000,200.021,1.552,2140.113632
3 Feb 2020 16:59:49.000,199.947,1.615,2133.690114
3 Feb 2020 16:59:50.000,199.873,1.678,2127.270122
3 Feb 2020 16:59:51.000,199.798,1.741,2120.853694
3 Feb 2020 16:59:52.000,199.723,1.804,2114.440872
3 Feb 2020 16:59:53.000,199.647,1.868,2108.031698
3 Feb 2020 16:59:54.000,199.571,1.931,2101.626211
3 Feb 2020 16:59:55.000,199.494,1.995,2095.224453
3 Feb 2020 16:59:56.000,199.417,2.059,2088.826468
3 Feb 2020 16:59:57.000,199.339,2.123,2082.432297
3 Feb 2020 16:59:58.000,199.261,2.188,2076.041983
3 Feb 2020 16:59:59.000,199.183,2.252,2069.655569
3 Feb 2020 17:00:00.000,199.103,2.317,2063.273102
3 Feb 2020 17:00:01.000,199.024,2.382,2056.894625
3 Feb 2020 17:00:02.000,198.944,2.447,2050.520183
3 Feb 2020 17:00:03.000,198.863,2.512,2044.149822
3 Feb 2020 17:00:04.000,198.782,2.578,2037.783588
3 Feb 2020 17:00:05.000,198.700,2.643,2031.421527
3 Feb 2020 17:00:06.000,198.617,2.709,2025.063686
3 Feb 2020 17:00:07.000,198.535,2.775,2018.710114
3 Feb 2020 17:00:08.000,198.451,2.841,2012.360859
3 Feb 2020 17:00:09.000,198.367,2.908,2006.015970
3 Feb 2020 17:00:10.000,198.283,2.974,1999.675496
3 Feb 2020 17:00:11.000,198.198,3.041,1993.339486
3 Feb 2020 17:00:12.000,198.112,3.108,1987.007993
3 Feb 2020 17:00:13.000,198.026,3.176,1980.681066
3 Feb 2020 17:00:14.000,197.939,3.243,1974.358757
3 Feb 2020 17:00:15.000,197.852,3.311,1968.041119
3 Feb 2020 17:00:16.000,197.764,3.378,1961.728205
3 Feb 2020 17:00:17.000,197.676,3.447,1955.420068
3 Feb 2020 17:00:18.000,197.586,3.515,1949.116763
3 Feb 2020 17:00:19.000,197.497,3.583,1942.818344
3 Feb 2020 17:00:20.000,197.406,3.652,1936.524867
3 Feb 2020 17:00:21.000,197.315,3.721,1930.236388
3 Feb 2020 17:00:22.000,197.224,3.790,1923.952964
3 Feb 2020 17:00:23.000,197.132,3.859,1917.674652
3 Feb 2020 17:00:24.000,197.039,3.929,1911.401510
3 Feb 2020 17:00:25.000,196.946,3.999,1905.133596
3 Feb 2020 17:00:26.000,196.851,4.069,1898.870973
3 Feb 2020 17:00:27.000,196.757,4.139,1892.613698
3 Feb 2020 17:00:28.000,196.661,4.209,1886.361833
3 Feb 2020 17:00:29.000,196.565,4.280,1880.115440
3 Feb 2020 17:00:30.000,196.469,4.351,1873.874582
3 Feb 2020 17:00:31.000,196.371,4.422,1867.639321
3 Feb 2020 17:00:32.000,196.273,4.493,1861.409721
3 Feb 2020 17:00:33.000,196.174,4.565,1855.185847
3 Feb 2020 17:00:34.000,196.075,4.637,1848.967765
3 Feb 2020 17:00:35.000,195.975,4.709,1842.755542
3 Feb 2020 17:00:36.000,195.874,4.781,1836.549243
3 Feb 2020 17:00:37.000,195.772,4.854,1830.348938
3 Feb 2020 17:00:38.000,195.670,4.926,1824.154693
3 Feb 2020 17:00:39.000,195.567,4.999,1817.966582
3 Feb 2020 17:00:40.000,195.463,5.073,1811.784672
3 Feb 2020 17:00:41.000,195.359,5.146,1805.609036
3 Feb 2020 17:00:42.000,195.253,5.220,1799.439746
3 Feb 2020 17:00:43.000,195.147,5.294,1793.276875
3 Feb 2020 17:00:44.000,195.040,5.368,1787.120497
3 Feb 2020 17:00:45.000,194.933,5.443,1780.970687
3 Feb 2020 17:00:46.000,194.825,5.517,1774.827521
3 Feb 2020 17:00:47.000,194.715,5.592,1768.691076
3 Feb 2020 17:00:48.000,194.605,5.668,1762.561430
3 Feb 2020 17:00:49.000,194.495,5.743,1756.438661
3 Feb 2020 17:00:50.000,194.383,5.819,1750.322849
3 Feb 2020 17:00:51.000,194.271,5.895,1744.214075
3 Feb 2020 17:00:52.000,194.157,5.971,1738.112421
3 Feb 2020 17:00:53.000,194.043,6.048,1732.017969
3 Feb 2020 17:00:54.000,193.928,6.125,1725.930804
3 Feb 2020 17:00:55.000,193.813,6.202,1719.851011
3 Feb 2020 17:00:56.000,193.696,6.279,1713.778675
3 Feb 2020 17:00:57.000,193.578,6.357,1707.713884
3 Feb 2020 17:00:58.000,193.460,6.435,1701.656725
3 Feb 2020 17:00:59.000,193.341,6.513,1695.607289
3 Feb 2020 17:01:00.000,193.220,6.591,1689.565665
3 Feb 2020 17:01:01.000,193.099,6.670,1683.531945
3 Feb 2020 17:01:02.000,192.977,6.749,1677.506223
3 Feb 2020 17:01:03.000,192.854,6.828,1671.488591
3 Feb 2020 17:01:04.000,192.730,6.908,1665.479146
3 Feb 2020 17:01:05.000,192.605,6.988,1659.477984
3 Feb 2020 17:01:06.000,192.479,7.068,1653.485201
3 Feb 2020 17:01:07.000,192.353,7.148,1647.500899
3 Feb 2020 17:01:08.000,192.225,7.229,1641.525175
3 Feb 2020 17:01:09.000,192.096,7.310,1635.558134
3 Feb 2020 17:01:10.000,191.966,7.391,1629.599875
3 Feb 2020 17:01:11.000,191.835,7.473,1623.650505
3 Feb 2020 17:01:12.000,191.704,7.555,1617.710127
3 Feb 2020 17:01:13.000,191.571,7.637,1611.778850
3 Feb 2020 17:01:14.000,191.437,7.719,1605.856782
3 Feb 2020 17:01:15.000,191.302,7.802,1599.944031
3 Feb 2020 17:01:16.000,191.166,7.885,1594.040710
3 Feb 2020 17:01:17.000,191.029,7.968,1588.146930
3 Feb 2020 17:01:18.000,190.890,8.052,1582.262806
3 Feb 2020 17:01:19.000,190.751,8.136,1576.388453
3 Feb 2020 17:01:20.000,190.611,8.220,1570.523988
3 Feb 2020 17:01:21.000,190.469,8.305,1564.669530
3 Feb 2020 17:01:22.000,190.326,8.390,1558.825199
3 Feb 2020 17:01:23.000,190.182,8.475,1552.991116
3 Feb 2020 17:01:24.000,190.037,8.560,1547.167404
3 Feb 2020 17:01:25.000,189.891,8.646,1541.354189
3 Feb 2020 17:01:26.000,189.744,8.732,1535.551597
3 Feb 2020 17:01:27.000,189.595,8.819,1529.759755
3 Feb 2020 17:01:28.000,189.445,8.906,1523.978795
3 Feb 2020 17:01:29.000,189.294,8.993,1518.208847
3 Feb 2020 17:01:30.000,189.142,9.080,1512.450044
3 Feb 2020 17:01:31.000,188.989,9.168,1506.702523
3 Feb 2020 17:01:32.000,188.834,9.256,1500.966419
3 Feb 2020 17:01:33.000,188.678,9.344,1495.241870
3 Feb 2020 17:01:34.000,188.521,9.433,1489.529018
3 Feb 2020 17:01:35.000,188.362,9.522,1483.828005
3 Feb 2020 17:01:36.000,188.202,9.611,1478.138974
3 Feb 2020 17:01:37.000,188.041,9.700,1472.462073
3 Feb 2020 17:01:38.000,187.878,9.790,1466.797448
3 Feb 2020 17:01:39.000,187.714,9.881,1461.145249
3 Feb 2020 17:01:40.000,187.548,9.971,1455.505629
3 Feb 2020 17:01:41.000,187.382,10.062,1449.878742
3 Feb 2020 17:01:42.000,187.213,10.153,1444.264743
3 Feb 2020 17:01:43.000,187.044,10.245,1438.663789
3 Feb 2020 17:01:44.000,186.873,10.337,1433.076042
3 Feb 2020 17:01:45.000,186.700,10.429,1427.501663
3 Feb 2020 17:01:46.000,186.526,10.522,1421.940817
3 Feb 2020 17:01:47.000,186.351,10.614,1416.393669
3 Feb 2020 17:01:48.000,186.174,10.708,1410.860389
3 Feb 2020 17:01:49.000,185.995,10.801,1405.341147
3 Feb 2020 17:01:50.000,185.815,10.895,1399.836116
3 Feb 2020 17:01:51.000,185.634,10.989,1394.345472
3 Feb 2020 17:01:52.000,185.451,11.084,1388.869391
3 Feb 2020 17:01:53.000,185.266,11.178,1383.408054
3 Feb 2020 17:01:54.000,185.079,11.274,1377.961643
3 Feb 2020 17:01:55.000,184.891,11.369,1372.530342
3 Feb 2020 17:01:56.000,184.702,11.465,1367.114339
3 Feb 2020 17:01:57.000,184.511,11.561,1361.713823
3 Feb 2020 17:01:58.000,184.318,11.657,1356.328984
3 Feb 2020 17:01:59.000,184.123,11.754,1350.960019
3 Feb 2020 17:02:00.000,183.927,11.851,1345.607124
3 Feb 2020 17:02:01.000,183.729,11.948,1340.270497
3 Feb 2020 17:02:02.000,183.529,12.046,1334.950341
3 Feb 2020 17:02:03.000,183.328,12.144,1329.646859
3 Feb 2020 17:02:04.000,183.124,12.242,1324.360261
3 Feb 2020 17:02:05.000,182.919,12.341,1319.090753
3 Feb 2020 17:02:06.000,182.712,12.440,1313.838550
3 Feb 2020 17:02:07.000,182.503,12.539,1308.603866
3 Feb 2020 17:02:08.000,182.293,12.639,1303.386919
3 Feb 2020 17:02:09.000,182.080,12.739,1298.187929
3 Feb 2020 17:02:10.000,181.866,12.839,1293.007119
3 Feb 2020 17:02:11.000,181.650,12.939,1287.844715
3 Feb 2020 17:02:12.000,181.432,13.040,1282.700947
3 Feb 2020 17:02:13.000,181.211,13.141,1277.576045
3 Feb 2020 17:02:14.000,180.989,13.242,1272.470245
3 Feb 2020 17:02:15.000,180.765,13.344,1267.383783
3 Feb 2020 17:02:16.000,180.539,13.446,1262.316899
3 Feb 2020 17:02:17.000,180.311,13.548,1257.269838
3 Feb 2020 17:02:18.000,180.081,13.650,1252.242844
3 Feb 2020 17:02:19.000,179.848,13.753,1247.236167
3 Feb 2020 17:02:20.000,179.614,13.856,1242.250059
3 Feb 2020 17:02:21.000,179.377,13.959,1237.284775
3 Feb 2020 17:02:22.000,179.139,14.063,1232.340573
3 Feb 2020 17:02:23.000,178.898,14.166,1227.417714
3 Feb 2020 17:02:24.000,178.655,14.270,1222.516462
3 Feb 2020 17:02:25.000,178.410,14.375,1217.637084
3 Feb 2020 17:02:26.000,178.163,14.479,1212.779851
3 Feb 2020 17:02:27.000,177.913,14.584,1207.945035
3 Feb 2020 17:02:28.000,177.661,14.688,1203.132913
3 Feb 2020 17:02:29.000,177.407,14.793,1198.343765
3 Feb 2020 17:02:30.000,177.151,14.899,1193.577874
3 Feb 2020 17:02:31.000,176.892,15.004,1188.835524
3 Feb 2020 17:02:32.000,176.631,15.110,1184.117006
3 Feb 2020 17:02:33.000,176.367,15.216,1179.422610
3 Feb 2020 17:02:34.000,176.101,15.322,1174.752633
3 Feb 2020 17:02:35.000,175.833,15.428,1170.107372
3 Feb 2020 17:02:36.000,175.562,15.534,1165.487130
3 Feb 2020 17:02:37.000,175.289,15.641,1160.892209
3 Feb 2020 17:02:38.000,175.014,15.747,1156.322920
3 Feb 2020 17:02:39.000,174.736,15.854,1151.779571
3 Feb 2020 17:02:40.000,174.455,15.961,1147.262478
3 Feb 2020 17:02:41.000,174.172,16.068,1142.771957
3 Feb 2020 17:02:42.000,173.886,16.175,1138.308329
3 Feb 2020 17:02:43.000,173.598,16.282,1133.871917
3 Feb 2020 17:02:44.000,173.307,16.389,1129.463048
3 Feb 2020 17:02:45.000,173.014,16.496,1125.082049
3 Feb 2020 17:02:46.000,172.717,16.603,1120.729256
3 Feb 2020 17:02:47.000,172.419,16.711,1116.405002
3 Feb 2020 17:02:48.000,172.117,16.818,1112.109626
3 Feb 2020 17:02:49.000,171.813,16.925,1107.843471
3 Feb 2020 17:02:50.000,171.506,17.033,1103.606879
3 Feb 2020 17:02:51.000,171.197,17.140,1099.400199
3 Feb 2020 17:02:52.000,170.884,17.247,1095.223779
3 Feb 2020 17:02:53.000,170.569,17.354,1091.077974
3 Feb 2020 17:02:54.000,170.251,17.462,1086.963140
3 Feb 2020 17:02:55.000,169.931,17.569,1082.879633
3 Feb 2020 17:02:56.000,169.607,17.675,1078.827817
3 Feb 2020 17:02:57.000,169.281,17.782,1074.808052
3 Feb 2020 17:02:58.000,168.952,17.889,1070.820707
3 Feb 2020 17:02:59.000,168.620,17.995,1066.866150
3 Feb 2020 17:03:00.000,168.285,18.102,1062.944752
3 Feb 2020 17:03:01.000,167.947,18.208,1059.056886
3 Feb 2020 17:03:02.000,167.606,18.314,1055.202927
3 Feb 2020 17:03:03.000,167.263,18.419,1051.383256
3 Feb 2020 17:03:04.000,166.916,18.525,1047.598250
3 Feb 2020 17:03:05.000,166.567,18.630,1043.848291
3 Feb 2020 17:03:06.000,166.214,18.735,1040.133765
3 Feb 2020 17:03:07.000,165.859,18.839,1036.455057
3 Feb 2020 17:03:08.000,165.500,18.943,1032.812554
3 Feb 2020 17:03:09.000,165.139,19.047,1029.206645
3 Feb 2020 17:03:10.000,164.774,19.150,1025.637721
3 Feb 2020 17:03:11.000,164.407,19.253,1022.106176
3 Feb 2020 17:03:12.000,164.036,19.356,1018.612400
3 Feb 2020 17:03:13.000,163.663,19.458,1015.156789
3 Feb 2020 17:03:14.000,163.286,19.559,1011.739739
3 Feb 2020 17:03:15.000,162.907,19.660,1008.361647
3 Feb 2020 17:03:16.000,162.524,19.761,1005.022909
3 Feb 2020 17:03:17.000,162.139,19.861,1001.723924
3 Feb 2020 17:03:18.000,161.750,19.960,998.465090
3 Feb 2020 17:03:19.000,161.358,20.059,995.246806
3 Feb 2020 17:03:20.000,160.964,20.157,992.069470
3 Feb 2020 17:03:21.000,160.566,20.254,988.933482
3 Feb 2020 17:03:22.000,160.165,20.351,985.839239
3 Feb 2020 17:03:23.000,159.761,20.446,982.787142
3 Feb 2020 17:03:24.000,159.354,20.542,979.777587
3 Feb 2020 17:03:25.000,158.945,20.636,976.810971
3 Feb 2020 17:03:26.000,158.532,20.729,973.887693
3 Feb 2020 17:03:27.000,158.116,20.822,971.008145
3 Feb 2020 17:03:28.000,157.697,20.914,968.172723
3 Feb 2020 17:03:29.000,157.275,21.004,965.381820
3 Feb 2020 17:03:30.000,156.850,21.094,962.635826
3 Feb 2020 17:03:31.000,156.423,21.183,959.935128
3 Feb 2020 17:03:32.000,155.992,21.271,957.280117
3 Feb 2020 17:03:33.000,155.559,21.357,954.671177
3 Feb 2020 17:03:34.000,155.122,21.443,952.108689
3 Feb 2020 17:03:35.000,154.683,21.528,949.593033
3 Feb 2020 17:03:36.000,154.241,21.611,947.124585
3 Feb 2020 17:03:37.000,153.796,21.693,944.703720
3 Feb 2020 17:03:38.000,153.348,21.774,942.330805
3 Feb 2020 17:03:39.000,152.898,21.854,940.006210
3 Feb 2020 17:03:40.000,152.445,21.932,937.730296
3 Feb 2020 17:03:41.000,151.989,22.009,935.503421
3 Feb 2020 17:03:42.000,151.530,22.085,933.325939
3 Feb 2020 17:03:43.000,151.069,22.159,931.198201
3 Feb 2020 17:03:44.000,150.606,22.232,929.120551
3 Feb 2020 17:03:45.000,150.139,22.304,927.093327
3 Feb 2020 17:03:46.000,149.670,22.374,925.116867
3 Feb 2020 17:03:47.000,149.199,22.442,923.191497
3 Feb 2020 17:03:48.000,148.726,22.509,921.317540
3 Feb 2020 17:03:49.000,148.250,22.575,919.495314
3 Feb 2020 17:03:50.000,147.771,22.638,917.725131
3 Feb 2020 17:03:51.000,147.291,22.701,916.007291
3 Feb 2020 17:03:52.000,146.808,22.761,914.342097
3 Feb 2020 17:03:53.000,146.323,22.820,912.729835
3 Feb 2020 17:03:54.000,145.836,22.877,911.170792
3 Feb 2020 17:03:55.000,145.347,22.932,909.665240
3 Feb 2020 17:03:56.000,144.855,22.986,908.213452
3 Feb 2020 17:03:57.000,144.362,23.037,906.815683
3 Feb 2020 17:03:58.000,143.867,23.087,905.472191
3 Feb 2020 17:03:59.000,143.370,23.135,904.183215
3 Feb 2020 17:04:00.000,142.872,23.181,902.948994
3 Feb 2020 17:04:01.000,142.372,23.226,901.769752
3 Feb 2020 17:04:02.000,141.870,23.268,900.645708
3 Feb 2020 17:04:03.000,141.367,23.308,899.577073
3 Feb 2020 17:04:04.000,140.862,23.347,898.564041
3 Feb 2020 17:04:05.000,140.355,23.383,897.606807
3 Feb 2020 17:04:06.000,139.848,23.417,896.705550
3 Feb 2020 17:04:07.000,139.339,23.450,895.860439
3 Feb 2020 17:04:08.000,138.829,23.480,895.071635
3 Feb 2020 17:04:09.000,138.318,23.508,894.339290
3 Feb 2020 17:04:10.000,137.806,23.534,893.663542
3 Feb 2020 17:04:11.000,137.293,23.558,893.044521
3 Feb 2020 17:04:12.000,136.779,23.580,892.482347
3 Feb 2020 17:04:13.000,136.264,23.600,891.977128
3 Feb 2020 17:04:14.000,135.749,23.617,891.528965
3 Feb 2020 17:04:15.000,135.233,23.633,891.137940
3 Feb 2020 17:04:16.000,134.716,23.646,890.804131
3 Feb 2020 17:04:17.000,134.199,23.657,890.527605
3 Feb 2020 17:04:18.000,133.682,23.666,890.308414
3 Feb 2020 17:04:19.000,133.164,23.673,890.146602
3 Feb 2020 17:04:20.000,132.646,23.677,890.042200
3 Feb 2020 17:04:21.000,132.128,23.679,889.995231
3 Feb 2020 17:04:22.000,131.610,23.680,890.005702
3 Feb 2020 17:04:23.000,131.093,23.678,890.073613
3 Feb 2020 17:04:24.000,130.575,23.673,890.198951
3 Feb 2020 17:04:25.000,130.057,23.667,890.381692
3 Feb 2020 17:04:26.000,129.540,23.659,890.621800
3 Feb 2020 17:04:27.000,129.023,23.648,890.919230
3 Feb 2020 17:04:28.000,128.507,23.635,891.273924
3 Feb 2020 17:04:29.000,127.991,23.620,891.685814
3 Feb 2020 17:04:30.000,127.475,23.603,892.154821
3 Feb 2020 17:04:31.000,126.961,23.583,892.680851
3 Feb 2020 17:04:32.000,126.447,23.562,893.263809
3 Feb 2020 17:04:33.000,125.934,23.538,893.903581
3 Feb 2020 17:04:34.000,125.423,23.513,894.600045
3 Feb 2020 17:04:35.000,124.912,23.485,895.353068
3 Feb 2020 17:04:36.000,124.402,23.455,896.162504
3 Feb 2020 17:04:37.000,123.894,23.423,897.028205
3 Feb 2020 17:04:38.000,123.386,23.389,897.950006
3 Feb 2020 17:04:39.000,122.880,23.353,898.927729
3 Feb 2020 17:04:40.000,122.376,23.316,899.961199
3 Feb 2020 17:04:41.000,121.873,23.276,901.050219
3 Feb 2020 17:04:42.000,121.372,23.234,902.194585
3 Feb 2020 17:04:43.000,120.872,23.190,903.394090
3 Feb 2020 17:04:44.000,120.374,23.144,904.648512
3 Feb 2020 17:04:45.000,119.877,23.097,905.957619
3 Feb 2020 17:04:46.000,119.383,23.047,907.321179
3 Feb 2020 17:04:47.000,118.890,22.996,908.738939
3 Feb 2020 17:04:48.000,118.400,22.943,910.210650
3 Feb 2020 17:04:49.000,117.911,22.888,911.736045
3 Feb 2020 17:04:50.000,117.424,22.831,913.314859
3 Feb 2020 17:04:51.000,116.940,22.773,914.946808
3 Feb 2020 17:04:52.000,116.458,22.713,916.631612
3 Feb 2020 17:04:53.000,115.978,22.651,918.368973
3 Feb 2020 17:04:54.000,115.500,22.588,920.158595
3 Feb 2020 17:04:55.000,115.024,22.523,922.000174
3 Feb 2020 17:04:56.000,114.551,22.456,923.893393
3 Feb 2020 17:04:57.000,114.081,22.388,925.837938
3 Feb 2020 17:04:58.000,113.613,22.319,927.833479
3 Feb 2020 17:04:59.000,113.147,22.248,929.879688
3 Feb 2020 17:05:00.000,112.684,22.175,931.976233
3 Feb 2020 17:05:01.000,112.224,22.101,934.122767
3 Feb 2020 17:05:02.000,111.766,22.026,936.318947
3 Feb 2020 17:05:03.000,111.311,21.949,938.564421
3 Feb 2020 17:05:04.000,110.858,21.872,940.858839
3 Feb 2020 17:05:05.000,110.408,21.792,943.201834
3 Feb 2020 17:05:06.000,109.962,21.712,945.593046
3 Feb 2020 17:05:07.000,109.517,21.630,948.032107
3 Feb 2020 17:05:08.000,109.076,21.547,950.518647
3 Feb 2020 17:05:09.000,108.638,21.463,953.052294
3 Feb 2020 17:05:10.000,108.202,21.378,955.632666
3 Feb 2020 17:05:11.000,107.769,21.292,958.259384
3 Feb 2020 17:05:12.000,107.339,21.204,960.932067
3 Feb 2020 17:05:13.000,106.913,21.116,963.650328
3 Feb 2020 17:05:14.000,106.489,21.027,966.413781
3 Feb 2020 17:05:15.000,106.068,20.937,969.222036
3 Feb 2020 17:05:16.000,105.650,20.845,972.074702
3 Feb 2020 17:05:17.000,105.235,20.753,974.971385
3 Feb 2020 17:05:18.000,104.823,20.660,977.911693
3 Feb 2020 17:05:19.000,104.414,20.567,980.895228
3 Feb 2020 17:05:20.000,104.008,20.472,983.921595
3 Feb 2020 17:05:21.000,103.605,20.377,986.990397
3 Feb 2020 17:05:22.000,103.205,20.281,990.101236
3 Feb 2020 17:05:23.000,102.808,20.184,993.253713
3 Feb 2020 17:05:24.000,102.414,20.086,996.447429
3 Feb 2020 17:05:25.000,102.023,19.988,999.681987
3 Feb 2020 17:05:26.000,101.635,19.889,1002.956987
3 Feb 2020 17:05:27.000,101.251,19.790,1006.272032
3 Feb 2020 17:05:28.000,100.869,19.690,1009.626722
3 Feb 2020 17:05:29.000,100.490,19.589,1013.020661
3 Feb 2020 17:05:30.000,100.115,19.488,1016.453452
3 Feb 2020 17:05:31.000,99.742,19.387,1019.924694
3 Feb 2020 17:05:32.000,99.372,19.285,1023.434001
3 Feb 2020 17:05:33.000,99.006,19.182,1026.980975
3 Feb 2020 17:05:34.000,98.642,19.080,1030.565222
3 Feb 2020 17:05:35.000,98.282,18.976,1034.186351
3 Feb 2020 17:05:36.000,97.924,18.873,1037.843969
3 Feb 2020 17:05:37.000,97.570,18.769,1041.537695
3 Feb 2020 17:05:38.000,97.218,18.664,1045.267137
3 Feb 2020 17:05:39.000,96.869,18.560,1049.031912
3 Feb 2020 17:05:40.000,96.524,18.455,1052.831635
3 Feb 2020 17:05:41.000,96.181,18.350,1056.665922
3 Feb 2020 17:05:42.000,95.841,18.244,1060.534402
3 Feb 2020 17:05:43.000,95.504,18.139,1064.436692
3 Feb 2020 17:05:44.000,95.170,18.033,1068.372416
3 Feb 2020 17:05:45.000,94.839,17.927,1072.341207
3 Feb 2020 17:05:46.000,94.511,17.821,1076.342692
3 Feb 2020 17:05:47.000,94.185,17.715,1080.376500
3 Feb 2020 17:05:48.000,93.863,17.608,1084.442273
3 Feb 2020 17:05:49.000,93.543,17.502,1088.539644
3 Feb 2020 17:05:50.000,93.226,17.395,1092.668249
3 Feb 2020 17:05:51.000,92.912,17.288,1096.827740
3 Feb 2020 17:05:52.000,92.601,17.182,1101.017752
3 Feb 2020 17:05:53.000,92.292,17.075,1105.237943
3 Feb 2020 17:05:54.000,91.986,16.968,1109.487960
3 Feb 2020 17:05:55.000,91.683,16.861,1113.767452
3 Feb 2020 17:05:56.000,91.382,16.754,1118.076084
3 Feb 2020 17:05:57.000,91.084,16.647,1122.413508
3 Feb 2020 17:05:58.000,90.789,16.541,1126.779394
3 Feb 2020 17:05:59.000,90.497,16.434,1131.173400
3 Feb 2020 17:06:00.000,90.207,16.327,1135.595202
3 Feb 2020 17:06:01.000,89.919,16.221,1140.044468
3 Feb 2020 17:06:02.000,89.635,16.114,1144.520870
3 Feb 2020 17:06:03.000,89.352,16.008,1149.024091
3 Feb 2020 17:06:04.000,89.073,15.901,1153.553807
3 Feb 2020 17:06:05.000,88.795,15.795,1158.109708
3 Feb 2020 17:06:06.000,88.521,15.689,1162.691473
3 Feb 2020 17:06:07.000,88.248,15.583,1167.298798
3 Feb 2020 17:06:08.000,87.979,15.477,1171.931378
3 Feb 2020 17:06:09.000,87.711,15.371,1176.588904
3 Feb 2020 17:06:10.000,87.446,15.266,1181.271082
3 Feb 2020 17:06:11.000,87.184,15.160,1185.977607
3 Feb 2020 17:06:12.000,86.924,15.055,1190.708192
3 Feb 2020 17:06:13.000,86.666,14.950,1195.462541
3 Feb 2020 17:06:14.000,86.410,14.845,1200.240371
3 Feb 2020 17:06:15.000,86.157,14.741,1205.041391
3 Feb 2020 17:06:16.000,85.906,14.636,1209.865324
3 Feb 2020 17:06:17.000,85.657,14.532,1214.711893
3 Feb 2020 17:06:18.000,85.411,14.428,1219.580818
3 Feb 2020 17:06:19.000,85.166,14.324,1224.471828
3 Feb 2020 17:06:20.000,84.924,14.221,1229.384660
3 Feb 2020 17:06:21.000,84.685,14.117,1234.319038
3 Feb 2020 17:06:22.000,84.447,14.014,1239.274708
3 Feb 2020 17:06:23.000,84.211,13.911,1244.251403
3 Feb 2020 17:06:24.000,83.978,13.809,1249.248868
3 Feb 2020 17:06:25.000,83.746,13.707,1254.266854
3 Feb 2020 17:06:26.000,83.517,13.605,1259.305103
3 Feb 2020 17:06:27.000,83.290,13.503,1264.363369
3 Feb 2020 17:06:28.000,83.064,13.401,1269.441409
3 Feb 2020 17:06:29.000,82.841,13.300,1274.538983
3 Feb 2020 17:06:30.000,82.620,13.199,1279.655845
3 Feb 2020 17:06:31.000,82.401,13.099,1284.791762
3 Feb 2020 17:06:32.000,82.183,12.998,1289.946505
3 Feb 2020 17:06:33.000,81.968,12.898,1295.119836
3 Feb 2020 17:06:34.000,81.755,12.798,1300.311530
3 Feb 2020 17:06:35.000,81.543,12.699,1305.521363
3 Feb 2020 17:06:36.000,81.333,12.600,1310.749115
3 Feb 2020 17:06:37.000,81.125,12.501,1315.994561
3 Feb 2020 17:06:38.000,80.919,12.402,1321.257487
3 Feb 2020 17:06:39.000,80.715,12.304,1326.537679
3 Feb 2020 17:06:40.000,80.513,12.206,1331.834928
3 Feb 2020 17:06:41.000,80.312,12.108,1337.149020
3 Feb 2020 17:06:42.000,80.113,12.011,1342.479752
3 Feb 2020 17:06:43.000,79.916,11.914,1347.826920
3 Feb 2020 17:06:44.000,79.721,11.817,1353.190327
3 Feb 2020 17:06:45.000,79.527,11.721,1358.569767
3 Feb 2020 17:06:46.000,79.335,11.625,1363.965048
3 Feb 2020 17:06:47.000,79.144,11.529,1369.375977
3 Feb 2020 17:06:48.000,78.956,11.434,1374.802362
3 Feb 2020 17:06:49.000,78.769,11.339,1380.244018
3 Feb 2020 17:06:50.000,78.583,11.244,1385.700753
3 Feb 2020 17:06:51.000,78.399,11.149,1391.172386
3 Feb 2020 17:06:52.000,78.217,11.055,1396.658736
3 Feb 2020 17:06:53.000,78.036,10.961,1402.159624
3 Feb 2020 17:06:54.000,77.857,10.868,1407.674873
3 Feb 2020 17:06:55.000,77.680,10.774,1413.204312
3 Feb 2020 17:06:56.000,77.504,10.682,1418.747762
3 Feb 2020 17:06:57.000,77.329,10.589,1424.305056
3 Feb 2020 17:06:58.000,77.156,10.497,1429.876026
3 Feb 2020 17:06:59.000,76.984,10.405,1435.460508
3 Feb 2020 17:07:00.000,76.814,10.313,1441.058337
3 Feb 2020 17:07:01.000,76.645,10.222,1446.669352
3 Feb 2020 17:07:02.000,76.478,10.131,1452.293397
3 Feb 2020 17:07:03.000,76.312,10.041,1457.930308
3 Feb 2020 17:07:04.000,76.148,9.950,1463.579934
3 Feb 2020 17:07:05.000,75.984,9.860,1469.242121
3 Feb 2020 17:07:06.000,75.823,9.771,1474.916718
3 Feb 2020 17:07:07.000,75.662,9.681,1480.603576
3 Feb 2020 17:07:08.000,75.503,9.592,1486.302547
3 Feb 2020 17:07:09.000,75.345,9.504,1492.013487
3 Feb 2020 17:07:10.000,75.189,9.415,1497.736251
3 Feb 2020 17:07:11.000,75.034,9.327,1503.470701
3 Feb 2020 17:07:12.000,74.880,9.239,1509.216692
3 Feb 2020 17:07:13.000,74.727,9.152,1514.974087
3 Feb 2020 17:07:14.000,74.576,9.065,1520.742752
3 Feb 2020 17:07:15.000,74.426,8.978,1526.522552
3 Feb 2020 17:07:16.000,74.277,8.892,1532.313353
3 Feb 2020 17:07:17.000,74.129,8.805,1538.115026
3 Feb 2020 17:07:18.000,73.983,8.719,1543.927440
3 Feb 2020 17:07:19.000,73.837,8.634,1549.750469
3 Feb 2020 17:07:20.000,73.693,8.549,1555.583987
3 Feb 2020 17:07:21.000,73.550,8.464,1561.427868
3 Feb 2020 17:07:22.000,73.409,8.379,1567.281991
3 Feb 2020 17:07:23.000,73.268,8.295,1573.146234
3 Feb 2020 17:07:24.000,73.128,8.211,1579.020477
3 Feb 2020 17:07:25.000,72.990,8.127,1584.904604
3 Feb 2020 17:07:26.000,72.853,8.044,1590.798497
3 Feb 2020 17:07:27.000,72.716,7.960,1596.702041
3 Feb 2020 17:07:28.000,72.581,7.878,1602.615124
3 Feb 2020 17:07:29.000,72.447,7.795,1608.537632
3 Feb 2020 17:07:30.000,72.314,7.713,1614.469459
3 Feb 2020 17:07:31.000,72.182,7.631,1620.410488
3 Feb 2020 17:07:32.000,72.051,7.549,1626.360616
3 Feb 2020 17:07:33.000,71.921,7.468,1632.319736
3 Feb 2020 17:07:34.000,71.793,7.387,1638.287743
3 Feb 2020 17:07:35.000,71.665,7.306,1644.264533
3 Feb 2020 17:07:36.000,71.538,7.226,1650.250004
3 Feb 2020 17:07:37.000,71.412,7.145,1656.244055
3 Feb 2020 17:07:38.000,71.287,7.065,1662.246587
3 Feb 2020 17:07:39.000,71.163,6.986,1668.257499
3 Feb 2020 17:07:40.000,71.040,6.906,1674.276697
3 Feb 2020 17:07:41.000,70.918,6.827,1680.304082
3 Feb 2020 17:07:42.000,70.797,6.749,1686.339562
3 Feb 2020 17:07:43.000,70.677,6.670,1692.383041
3 Feb 2020 17:07:44.000,70.557,6.592,1698.434428
3 Feb 2020 17:07:45.000,70.439,6.514,1704.493631
3 Feb 2020 17:07:46.000,70.321,6.436,1710.560558
3 Feb 2020 17:07:47.000,70.205,6.359,1716.635125
3 Feb 2020 17:07:48.000,70.089,6.281,1722.717241
3 Feb 2020 17:07:49.000,69.974,6.204,1728.806821
3 Feb 2020 17:07:50.000,69.860,6.128,1734.903777
3 Feb 2020 17:07:51.000,69.747,6.051,1741.008027
3 Feb 2020 17:07:52.000,69.635,5.975,1747.119485
3 Feb 2020 17:07:53.000,69.523,5.899,1753.238069
3 Feb 2020 17:07:54.000,69.413,5.824,1759.363699
3 Feb 2020 17:07:55.000,69.303,5.749,1765.496294
3 Feb 2020 17:07:56.000,69.194,5.673,1771.635774
3 Feb 2020 17:07:57.000,69.086,5.599,1777.782060
3 Feb 2020 17:07:58.000,68.978,5.524,1783.935076
3 Feb 2020 17:07:59.000,68.872,5.450,1790.094745
3 Feb 2020 17:08:00.000,68.766,5.376,1796.260990
3 Feb 2020 17:08:01.000,68.661,5.302,1802.433738
3 Feb 2020 17:08:02.000,68.556,5.228,1808.612915
3 Feb 2020 17:08:03.000,68.453,5.155,1814.798448
3 Feb 2020 17:08:04.000,68.350,5.082,1820.990265
3 Feb 2020 17:08:05.000,68.248,5.009,1827.188294
3 Feb 2020 17:08:06.000,68.147,4.936,1833.392466
3 Feb 2020 17:08:07.000,68.046,4.864,1839.602708
3 Feb 2020 17:08:08.000,67.946,4.792,1845.818958
3 Feb 2020 17:08:09.000,67.847,4.720,1852.041146
3 Feb 2020 17:08:10.000,67.749,4.648,1858.269203
3 Feb 2020 17:08:11.000,67.651,4.577,1864.503064
3 Feb 2020 17:08:12.000,67.554,4.505,1870.742665
3 Feb 2020 17:08:13.000,67.457,4.434,1876.987939
3 Feb 2020 17:08:14.000,67.362,4.364,1883.238824
3 Feb 2020 17:08:15.000,67.267,4.293,1889.495257
3 Feb 2020 17:08:16.000,67.172,4.223,1895.757175
3 Feb 2020 17:08:17.000,67.079,4.153,1902.024518
3 Feb 2020 17:08:18.000,66.985,4.083,1908.297223
3 Feb 2020 17:08:19.000,66.893,4.013,1914.575229
3 Feb 2020 17:08:20.000,66.801,3.944,1920.858481
3 Feb 2020 17:08:21.000,66.710,3.875,1927.146919
3 Feb 2020 17:08:22.000,66.620,3.806,1933.440484
3 Feb 2020 17:08:23.000,66.530,3.737,1939.739120
3 Feb 2020 17:08:24.000,66.440,3.668,1946.042769
3 Feb 2020 17:08:25.000,66.352,3.600,1952.351376
3 Feb 2020 17:08:26.000,66.264,3.532,1958.664885
3 Feb 2020 17:08:27.000,66.176,3.464,1964.983242
3 Feb 2020 17:08:28.000,66.089,3.396,1971.306392
3 Feb 2020 17:08:29.000,66.003,3.329,1977.634280
3 Feb 2020 17:08:30.000,65.917,3.261,1983.966859
3 Feb 2020 17:08:31.000,65.832,3.194,1990.304074
3 Feb 2020 17:08:32.000,65.748,3.127,1996.645873
3 Feb 2020 17:08:33.000,65.664,3.060,2002.992204
3 Feb 2020 17:08:34.000,65.580,2.994,2009.343019
3 Feb 2020 17:08:35.000,65.497,2.928,2015.698266
3 Feb 2020 17:08:36.000,65.415,2.861,2022.057898
3 Feb 2020 17:08:37.000,65.333,2.795,2028.421864
3 Feb 2020 17:08:38.000,65.252,2.730,2034.790115
3 Feb 2020 17:08:39.000,65.171,2.664,2041.162608
3 Feb 2020 17:08:40.000,65.091,2.599,2047.539293
3 Feb 2020 17:08:41.000,65.011,2.534,2053.920125
3 Feb 2020 17:08:42.000,64.932,2.469,2060.305056
3 Feb 2020 17:08:43.000,64.854,2.404,2066.694042
3 Feb 2020 17:08:44.000,64.776,2.339,2073.087038
3 Feb 2020 17:08:45.000,64.698,2.275,2079.483996
3 Feb 2020 17:08:46.000,64.621,2.210,2085.884878
3 Feb 2020 17:08:47.000,64.544,2.146,2092.289638
3 Feb 2020 17:08:48.000,64.468,2.083,2098.698232
3 Feb 2020 17:08:49.000,64.393,2.019,2105.110619
3 Feb 2020 17:08:50.000,64.317,1.955,2111.526756
3 Feb 2020 17:08:51.000,64.243,1.892,2117.946602
3 Feb 2020 17:08:52.000,64.169,1.829,2124.370116
3 Feb 2020 17:08:53.000,64.095,1.766,2130.797253
3 Feb 2020 17:08:54.000,64.022,1.703,2137.227979
3 Feb 2020 17:08:55.000,63.949,1.640,2143.662253
3 Feb 2020 17:08:56.000,63.877,1.578,2150.100034
3 Feb 2020 17:08:57.000,63.805,1.515,2156.541284
3 Feb 2020 17:08:58.000,63.733,1.453,2162.985964
3 Feb 2020 17:08:59.000,63.662,1.391,2169.434032
3 Feb 2020 17:09:00.000,63.592,1.329,2175.885458
3 Feb 2020 17:09:01.000,63.522,1.268,2182.340201
3 Feb 2020 17:09:02.000,63.452,1.206,2188.798224
3 Feb 2020 17:09:03.000,63.383,1.145,2195.259490
3 Feb 2020 17:09:04.000,63.314,1.084,2201.723964
3 Feb 2020 17:09:05.000,63.246,1.023,2208.191610
3 Feb 2020 17:09:06.000,63.178,0.962,2214.662388
3 Feb 2020 17:09:07.000,63.110,0.901,2221.136272
3 Feb 2020 17:09:08.000,63.043,0.840,2227.613222
3 Feb 2020 17:09:09.000,62.976,0.780,2234.093205
3 Feb 2020 17:09:10.000,62.910,0.720,2240.576186
3 Feb 2020 17:09:11.000,62.844,0.660,2247.062132
3 Feb 2020 17:09:12.000,62.779,0.600,2253.551007
3 Feb 2020 17:09:13.000,62.714,0.540,2260.042785
3 Feb 2020 17:09:14.000,62.649,0.480,2266.537428
3 Feb 2020 17:09:15.000,62.585,0.421,2273.034907
3 Feb 2020 17:09:16.000,62.521,0.361,2279.535188
3 Feb 2020 17:09:17.000,62.457,0.302,2286.038239
3 Feb 2020 17:09:18.000,62.394,0.243,2292.544028
3 Feb 2020 17:09:19.000,62.331,0.184,2299.052528
3 Feb 2020 17:09:20.000,62.269,0.126,2305.563707
3 Feb 2020 17:09:21.000,62.207,0.067,2312.077534
3 Feb 2020 17:09:22.000,62.145,0.008,2318.593980
3 Feb 2020 17:09:23.000,62.084,-0.050,2325.113014
3 Feb 2020 17:09:23.492,62.054,-0.079,2328.323045
3 Feb 2020 18:35:29.182,251.005,-0.078,2321.223201
3 Feb 2020 18:35:30.000,251.046,-0.029,2315.776473
3 Feb 2020 18:35:31.000,251.096,0.031,2309.120265
3 Feb 2020 18:35:32.000,251.147,0.091,2302.465528
3 Feb 2020 18:35:33.000,251.198,0.151,2295.812283
3 Feb 2020 18:35:34.000,251.249,0.211,2289.160550
3 Feb 2020 18:35:35.000,251.301,0.272,2282.510346
3 Feb 2020 18:35:36.000,251.353,0.333,2275.861700
3 Feb 2020 18:35:37.000,251.405,0.394,2269.214630
3 Feb 2020 18:35:38.000,251.457,0.455,2262.569156
3 Feb 2020 18:35:39.000,251.510,0.516,2255.925301
3 Feb 2020 18:35:40.000,251.563,0.578,2249.283084
3 Feb 2020 18:35:41.000,251.617,0.639,2242.642533
3 Feb 2020 18:35:42.000,251.670,0.701,2236.003667
3 Feb 2020 18:35:43.000,251.724,0.763,2229.366510
3 Feb 2020 18:35:44.000,251.778,0.825,2222.731080
3 Feb 2020 18:35:45.000,251.833,0.888,2216.097408
3 Feb 2020 18:35:46.000,251.888,0.950,2209.465513
3 Feb 2020 18:35:47.000,251.943,1.013,2202.835420
3 Feb 2020 18:35:48.000,251.999,1.076,2196.207153
3 Feb 2020 18:35:49.000,252.055,1.139,2189.580731
3 Feb 2020 18:35:50.000,252.111,1.202,2182.956187
3 Feb 2020 18:35:51.000,252.167,1.265,2176.333542
3 Feb 2020 18:35:52.000,252.224,1.329,2169.712821
3 Feb 2020 18:35:53.000,252.282,1.393,2163.094049
3 Feb 2020 18:35:54.000,252.339,1.457,2156.477248
3 Feb 2020 18:35:55.000,252.397,1.521,2149.862450
3 Feb 2020 18:35:56.000,252.455,1.585,2143.249680
3 Feb 2020 18:35:57.000,252.514,1.650,2136.638962
3 Feb 2020 18:35:58.000,252.573,1.715,2130.030325
3 Feb 2020 18:35:59.000,252.632,1.780,2123.423790
3 Feb 2020 18:36:00.000,252.692,1.845,2116.819393
3 Feb 2020 18:36:01.000,252.752,1.910,2110.217158
3 Feb 2020 18:36:02.000,252.812,1.976,2103.617113
3 Feb 2020 18:36:03.000,252.873,2.042,2097.019286
3 Feb 2020 18:36:04.000,252.934,2.108,2090.423701
3 Feb 2020 18:36:05.000,252.996,2.174,2083.830396
3 Feb 2020 18:36:06.000,253.057,2.240,2077.239395
3 Feb 2020 18:36:07.000,253.120,2.307,2070.650728
3 Feb 2020 18:36:08.000,253.182,2.374,2064.064426
3 Feb 2020 18:36:09.000,253.245,2.441,2057.480514
3 Feb 2020 18:36:10.000,253.309,2.508,2050.899032
3 Feb 2020 18:36:11.000,253.373,2.576,2044.320005
3 Feb 2020 18:36:12.000,253.437,2.643,2037.743465
3 Feb 2020 18:36:13.000,253.502,2.711,2031.169445
3 Feb 2020 18:36:14.000,253.567,2.780,2024.597973
3 Feb 2020 18:36:15.000,253.632,2.848,2018.029087
3 Feb 2020 18:36:16.000,253.698,2.917,2011.462819
3 Feb 2020 18:36:17.000,253.765,2.985,2004.899200
3 Feb 2020 18:36:18.000,253.831,3.055,1998.338264
3 Feb 2020 18:36:19.000,253.899,3.124,1991.780042
3 Feb 2020 18:36:20.000,253.966,3.193,1985.224576
3 Feb 2020 18:36:21.000,254.034,3.263,1978.671897
3 Feb 2020 18:36:22.000,254.103,3.333,1972.122039
3 Feb 2020 18:36:23.000,254.172,3.404,1965.575040
3 Feb 2020 18:36:24.000,254.241,3.474,1959.030931
3 Feb 2020 18:36:25.000,254.311,3.545,1952.489756
3 Feb 2020 18:36:26.000,254.382,3.616,1945.951549
3 Feb 2020 18:36:27.000,254.452,3.687,1939.416346
3 Feb 2020 18:36:28.000,254.524,3.759,1932.884187
3 Feb 2020 18:36:29.000,254.596,3.831,1926.355110
3 Feb 2020 18:36:30.000,254.668,3.903,1919.829149
3 Feb 2020 18:36:31.000,254.741,3.975,1913.306352
3 Feb 2020 18:36:32.000,254.814,4.048,1906.786755
3 Feb 2020 18:36:33.000,254.888,4.121,1900.270398
3 Feb 2020 18:36:34.000,254.962,4.194,1893.757322
3 Feb 2020 18:36:35.000,255.037,4.267,1887.247569
3 Feb 2020 18:36:36.000,255.112,4.341,1880.741176
3 Feb 2020 18:36:37.000,255.188,4.415,1874.238194
3 Feb 2020 18:36:38.000,255.264,4.489,1867.738663
3 Feb 2020 18:36:39.000,255.341,4.564,1861.242624
3 Feb 2020 18:36:40.000,255.418,4.639,1854.750124
3 Feb 2020 18:36:41.000,255.496,4.714,1848.261206
3 Feb 2020 18:36:42.000,255.575,4.789,1841.775912
3 Feb 2020 18:36:43.000,255.654,4.865,1835.294295
3 Feb 2020 18:36:44.000,255.733,4.941,1828.816399
3 Feb 2020 18:36:45.000,255.814,5.017,1822.342269
3 Feb 2020 18:36:46.000,255.894,5.094,1815.871955
3 Feb 2020 18:36:47.000,255.976,5.171,1809.405503
3 Feb 2020 18:36:48.000,256.058,5.248,1802.942961
3 Feb 2020 18:36:49.000,256.140,5.325,1796.484383
3 Feb 2020 18:36:50.000,256.223,5.403,1790.029818
3 Feb 2020 18:36:51.000,256.307,5.481,1783.579316
3 Feb 2020 18:36:52.000,256.391,5.560,1777.132928
3 Feb 2020 18:36:53.000,256.476,5.638,1770.690707
3 Feb 2020 18:36:54.000,256.562,5.717,1764.252703
3 Feb 2020 18:36:55.000,256.648,5.797,1757.818975
3 Feb 2020 18:36:56.000,256.735,5.877,1751.389576
3 Feb 2020 18:36:57.000,256.822,5.957,1744.964560
3 Feb 2020 18:36:58.000,256.911,6.037,1738.543983
3 Feb 2020 18:36:59.000,256.999,6.118,1732.127902
3 Feb 2020 18:37:00.000,257.089,6.199,1725.716375
3 Feb 2020 18:37:01.000,257.179,6.280,1719.309455
3 Feb 2020 18:37:02.000,257.270,6.362,1712.907210
3 Feb 2020 18:37:03.000,257.361,6.444,1706.509695
3 Feb 2020 18:37:04.000,257.454,6.526,1700.116971
3 Feb 2020 18:37:05.000,257.547,6.609,1693.729101
3 Feb 2020 18:37:06.000,257.640,6.692,1687.346145
3 Feb 2020 18:37:07.000,257.735,6.776,1680.968168
3 Feb 2020 18:37:08.000,257.830,6.860,1674.595233
3 Feb 2020 18:37:09.000,257.926,6.944,1668.227402
3 Feb 2020 18:37:10.000,258.022,7.029,1661.864749
3 Feb 2020 18:37:11.000,258.120,7.114,1655.507336
3 Feb 2020 18:37:12.000,258.218,7.199,1649.155231
3 Feb 2020 18:37:13.000,258.317,7.285,1642.808504
3 Feb 2020 18:37:14.000,258.416,7.371,1636.467223
3 Feb 2020 18:37:15.000,258.517,7.457,1630.131461
3 Feb 2020 18:37:16.000,258.618,7.544,1623.801287
3 Feb 2020 18:37:17.000,258.720,7.632,1617.476777
3 Feb 2020 18:37:18.000,258.823,7.719,1611.157998
3 Feb 2020 18:37:19.000,258.927,7.808,1604.845035
3 Feb 2020 18:37:20.000,259.031,7.896,1598.537959
3 Feb 2020 18:37:21.000,259.137,7.985,1592.236847
3 Feb 2020 18:37:22.000,259.243,8.074,1585.941777
3 Feb 2020 18:37:23.000,259.350,8.164,1579.652830
3 Feb 2020 18:37:24.000,259.458,8.254,1573.370085
3 Feb 2020 18:37:25.000,259.567,8.345,1567.093625
3 Feb 2020 18:37:26.000,259.677,8.436,1560.823532
3 Feb 2020 18:37:27.000,259.788,8.527,1554.559890
3 Feb 2020 18:37:28.000,259.900,8.619,1548.302781
3 Feb 2020 18:37:29.000,260.013,8.712,1542.052300
3 Feb 2020 18:37:30.000,260.126,8.804,1535.808530
3 Feb 2020 18:37:31.000,260.241,8.898,1529.571560
3 Feb 2020 18:37:32.000,260.356,8.991,1523.341482
3 Feb 2020 18:37:33.000,260.473,9.086,1517.118387
3 Feb 2020 18:37:34.000,260.590,9.180,1510.902369
3 Feb 2020 18:37:35.000,260.709,9.275,1504.693522
3 Feb 2020 18:37:36.000,260.829,9.371,1498.491943
3 Feb 2020 18:37:37.000,260.949,9.467,1492.297729
3 Feb 2020 18:37:38.000,261.071,9.563,1486.110979
3 Feb 2020 18:37:39.000,261.194,9.660,1479.931795
3 Feb 2020 18:37:40.000,261.317,9.758,1473.760277
3 Feb 2020 18:37:41.000,261.442,9.856,1467.596526
3 Feb 2020 18:37:42.000,261.568,9.954,1461.440656
3 Feb 2020 18:37:43.000,261.695,10.053,1455.292768
3 Feb 2020 18:37:44.000,261.824,10.152,1449.152972
3 Feb 2020 18:37:45.000,261.953,10.252,1443.021377
3 Feb 2020 18:37:46.000,262.084,10.353,1436.898096
3 Feb 2020 18:37:47.000,262.215,10.454,1430.783243
3 Feb 2020 18:37:48.000,262.348,10.555,1424.676932
3 Feb 2020 18:37:49.000,262.483,10.657,1418.579282
3 Feb 2020 18:37:50.000,262.618,10.760,1412.490411
3 Feb 2020 18:37:51.000,262.755,10.863,1406.410439
3 Feb 2020 18:37:52.000,262.893,10.966,1400.339490
3 Feb 2020 18:37:53.000,263.032,11.070,1394.277689
3 Feb 2020 18:37:54.000,263.172,11.175,1388.225162
3 Feb 2020 18:37:55.000,263.314,11.280,1382.182038
3 Feb 2020 18:37:56.000,263.457,11.386,1376.148447
3 Feb 2020 18:37:57.000,263.601,11.492,1370.124522
3 Feb 2020 18:37:58.000,263.747,11.599,1364.110399
3 Feb 2020 18:37:59.000,263.894,11.707,1358.106213
3 Feb 2020 18:38:00.000,264.043,11.815,1352.112105
3 Feb 2020 18:38:01.000,264.193,11.923,1346.128215
3 Feb 2020 18:38:02.000,264.344,12.032,1340.154688
3 Feb 2020 18:38:03.000,264.497,12.142,1334.191669
3 Feb 2020 18:38:04.000,264.652,12.252,1328.239306
3 Feb 2020 18:38:05.000,264.807,12.363,1322.297750
3 Feb 2020 18:38:06.000,264.965,12.475,1316.367154
3 Feb 2020 18:38:07.000,265.124,12.587,1310.447673
3 Feb 2020 18:38:08.000,265.284,12.700,1304.539466
3 Feb 2020 18:38:09.000,265.446,12.813,1298.642692
3 Feb 2020 18:38:10.000,265.610,12.927,1292.757516
3 Feb 2020 18:38:11.000,265.775,13.042,1286.884102
3 Feb 2020 18:38:12.000,265.942,13.157,1281.022620
3 Feb 2020 18:38:13.000,266.110,13.272,1275.173239
3 Feb 2020 18:38:14.000,266.281,13.389,1269.336135
3 Feb 2020 18:38:15.000,266.453,13.506,1263.511483
3 Feb 2020 18:38:16.000,266.626,13.624,1257.699464
3 Feb 2020 18:38:17.000,266.802,13.742,1251.900259
3 Feb 2020 18:38:18.000,266.979,13.861,1246.114058
3 Feb 2020 18:38:19.000,267.158,13.981,1240.341042
3 Feb 2020 18:38:20.000,267.339,14.101,1234.581406
3 Feb 2020 18:38:21.000,267.522,14.222,1228.835345
3 Feb 2020 18:38:22.000,267.706,14.344,1223.103056
3 Feb 2020 18:38:23.000,267.893,14.466,1217.384740
3 Feb 2020 18:38:24.000,268.081,14.589,1211.680601
3 Feb 2020 18:38:25.000,268.272,14.712,1205.990848
3 Feb 2020 18:38:26.000,268.464,14.837,1200.315690
3 Feb 2020 18:38:27.000,268.659,14.962,1194.655343
3 Feb 2020 18:38:28.000,268.855,15.087,1189.010024
3 Feb 2020 18:38:29.000,269.054,15.214,1183.379958
3 Feb 2020 18:38:30.000,269.254,15.341,1177.765363
3 Feb 2020 18:38:31.000,269.457,15.468,1172.166471
3 Feb 2020 18:38:32.000,269.662,15.597,1166.583514
3 Feb 2020 18:38:33.000,269.870,15.726,1161.016729
3 Feb 2020 18:38:34.000,270.079,15.855,1155.466355
3 Feb 2020 18:38:35.000,270.291,15.986,1149.932637
3 Feb 2020 18:38:36.000,270.505,16.117,1144.415824
3 Feb 2020 18:38:37.000,270.721,16.249,1138.916163
3 Feb 2020 18:38:38.000,270.940,16.381,1133.433913
3 Feb 2020 18:38:39.000,271.161,16.514,1127.969333
3 Feb 2020 18:38:40.000,271.384,16.648,1122.522688
3 Feb 2020 18:38:41.000,271.610,16.783,1117.094245
3 Feb 2020 18:38:42.000,271.839,16.918,1111.684282
3 Feb 2020 18:38:43.000,272.070,17.054,1106.293068
3 Feb 2020 18:38:44.000,272.303,17.191,1100.920888
3 Feb 2020 18:38:45.000,272.540,17.328,1095.568028
3 Feb 2020 18:38:46.000,272.778,17.467,1090.234778
3 Feb 2020 18:38:47.000,273.020,17.605,1084.921438
3 Feb 2020 18:38:48.000,273.264,17.745,1079.628299
3 Feb 2020 18:38:49.000,273.511,17.885,1074.355671
3 Feb 2020 18:38:50.000,273.761,18.026,1069.103861
3 Feb 2020 18:38:51.000,274.014,18.168,1063.873188
3 Feb 2020 18:38:52.000,274.269,18.310,1058.663964
3 Feb 2020 18:38:53.000,274.528,18.453,1053.476517
3 Feb 2020 18:38:54.000,274.789,18.596,1048.311174
3 Feb 2020 18:38:55.000,275.053,18.741,1043.168274
3 Feb 2020 18:38:56.000,275.321,18.886,1038.048149
3 Feb 2020 18:38:57.000,275.591,19.031,1032.951147
3 Feb 2020 18:38:58.000,275.865,19.177,1027.877620
3 Feb 2020 18:38:59.000,276.142,19.324,1022.827917
3 Feb 2020 18:39:00.000,276.422,19.472,1017.802402
3 Feb 2020 18:39:01.000,276.705,19.620,1012.801442
3 Feb 2020 18:39:02.000,276.992,19.769,1007.825403
3 Feb 2020 18:39:03.000,277.281,19.918,1002.874664
3 Feb 2020 18:39:04.000,277.575,20.068,997.949611
3 Feb 2020 18:39:05.000,277.871,20.219,993.050624
3 Feb 2020 18:39:06.000,278.172,20.370,988.178100
3 Feb 2020 18:39:07.000,278.476,20.522,983.332441
3 Feb 2020 18:39:08.000,278.783,20.674,978.514043
3 Feb 2020 18:39:09.000,279.094,20.827,973.723325
3 Feb 2020 18:39:10.000,279.408,20.981,968.960695
3 Feb 2020 18:39:11.000,279.727,21.135,964.226578
3 Feb 2020 18:39:12.000,280.049,21.289,959.521404
3 Feb 2020 18:39:13.000,280.375,21.444,954.845600
3 Feb 2020 18:39:14.000,280.705,21.599,950.199611
3 Feb 2020 18:39:15.000,281.039,21.755,945.583874
3 Feb 2020 18:39:16.000,281.376,21.912,940.998847
3 Feb 2020 18:39:17.000,281.718,22.068,936.444978
3 Feb 2020 18:39:18.000,282.064,22.225,931.922737
3 Feb 2020 18:39:19.000,282.414,22.383,927.432584
3 Feb 2020 18:39:20.000,282.768,22.541,922.974999
3 Feb 2020 18:39:21.000,283.126,22.699,918.550454
3 Feb 2020 18:39:22.000,283.488,22.857,914.159440
3 Feb 2020 18:39:23.000,283.855,23.016,909.802441
3 Feb 2020 18:39:24.000,284.226,23.175,905.479959
3 Feb 2020 18:39:25.000,284.602,23.334,901.192489
3 Feb 2020 18:39:26.000,284.982,23.493,896.940544
3 Feb 2020 18:39:27.000,285.367,23.653,892.724629
3 Feb 2020 18:39:28.000,285.756,23.812,888.545269
3 Feb 2020 18:39:29.000,286.150,23.972,884.402983
3 Feb 2020 18:39:30.000,286.548,24.132,880.298295
3 Feb 2020 18:39:31.000,286.951,24.291,876.231744
3 Feb 2020 18:39:32.000,287.359,24.451,872.203866
3 Feb 2020 18:39:33.000,287.771,24.611,868.215199
3 Feb 2020 18:39:34.000,288.189,24.770,864.266296
3 Feb 2020 18:39:35.000,288.611,24.930,860.357707
3 Feb 2020 18:39:36.000,289.038,25.089,856.489984
3 Feb 2020 18:39:37.000,289.470,25.248,852.663694
3 Feb 2020 18:39:38.000,289.907,25.406,848.879397
3 Feb 2020 18:39:39.000,290.349,25.564,845.137659
3 Feb 2020 18:39:40.000,290.796,25.722,841.439058
3 Feb 2020 18:39:41.000,291.248,25.880,837.784165
3 Feb 2020 18:39:42.000,291.706,26.037,834.173559
3 Feb 2020 18:39:43.000,292.168,26.193,830.607821
3 Feb 2020 18:39:44.000,292.636,26.349,827.087531
3 Feb 2020 18:39:45.000,293.109,26.504,823.613284
3 Feb 2020 18:39:46.000,293.587,26.658,820.185663
3 Feb 2020 18:39:47.000,294.070,26.812,816.805261
3 Feb 2020 18:39:48.000,294.559,26.965,813.472667
3 Feb 2020 18:39:49.000,295.053,27.116,810.188477
3 Feb 2020 18:39:50.000,295.552,27.267,806.953285
3 Feb 2020 18:39:51.000,296.057,27.417,803.767684
3 Feb 2020 18:39:52.000,296.567,27.566,800.632268
3 Feb 2020 18:39:53.000,297.082,27.713,797.547638
3 Feb 2020 18:39:54.000,297.603,27.860,794.514384
3 Feb 2020 18:39:55.000,298.129,28.004,791.533101
3 Feb 2020 18:39:56.000,298.660,28.148,788.604382
3 Feb 2020 18:39:57.000,299.197,28.290,785.728816
3 Feb 2020 18:39:58.000,299.738,28.431,782.906995
3 Feb 2020 18:39:59.000,300.286,28.569,780.139500
3 Feb 2020 18:40:00.000,300.838,28.707,777.426916
3 Feb 2020 18:40:01.000,301.396,28.842,774.769822
3 Feb 2020 18:40:02.000,301.959,28.975,772.168795
3 Feb 2020 18:40:03.000,302.527,29.107,769.624404
3 Feb 2020 18:40:04.000,303.100,29.237,767.137216
3 Feb 2020 18:40:05.000,303.679,29.364,764.707791
3 Feb 2020 18:40:06.000,304.262,29.489,762.336687
3 Feb 2020 18:40:07.000,304.851,29.612,760.024446
3 Feb 2020 18:40:08.000,305.444,29.733,757.771613
3 Feb 2020 18:40:09.000,306.043,29.851,755.578719
3 Feb 2020 18:40:10.000,306.646,29.967,753.446294
3 Feb 2020 18:40:11.000,307.254,30.080,751.374849
3 Feb 2020 18:40:12.000,307.866,30.190,749.364894
3 Feb 2020 18:40:13.000,308.484,30.298,747.416930
3 Feb 2020 18:40:14.000,309.105,30.403,745.531438
3 Feb 2020 18:40:15.000,309.731,30.504,743.708899
3 Feb 2020 18:40:16.000,310.362,30.603,741.949780
3 Feb 2020 18:40:17.000,310.996,30.699,740.254531
3 Feb 2020 18:40:18.000,311.635,30.792,738.623596
3 Feb 2020 18:40:19.000,312.278,30.881,737.057400
3 Feb 2020 18:40:20.000,312.924,30.967,735.556362
3 Feb 2020 18:40:21.000,313.574,31.050,734.120879
3 Feb 2020 18:40:22.000,314.228,31.129,732.751340
3 Feb 2020 18:40:23.000,314.885,31.205,731.448114
3 Feb 2020 18:40:24.000,315.546,31.278,730.211560
3 Feb 2020 18:40:25.000,316.210,31.346,729.042015
3 Feb 2020 18:40:26.000,316.876,31.411,727.939806
3 Feb 2020 18:40:27.000,317.546,31.472,726.905238
3 Feb 2020 18:40:28.000,318.218,31.530,725.938600
3 Feb 2020 18:40:29.000,318.893,31.583,725.040166
3 Feb 2020 18:40:30.000,319.570,31.633,724.210191
3 Feb 2020 18:40:31.000,320.249,31.678,723.448907
3 Feb 2020 18:40:32.000,320.931,31.720,722.756536
3 Feb 2020 18:40:33.000,321.614,31.757,722.133275
3 Feb 2020 18:40:34.000,322.298,31.791,721.579302
3 Feb 2020 18:40:35.000,322.985,31.820,721.094778
3 Feb 2020 18:40:36.000,323.672,31.846,720.679840
3 Feb 2020 18:40:37.000,324.360,31.867,720.334613
3 Feb 2020 18:40:38.000,325.050,31.884,720.059194
3 Feb 2020 18:40:39.000,325.740,31.897,719.853664
3 Feb 2020 18:40:40.000,326.430,31.905,719.718082
3 Feb 2020 18:40:41.000,327.121,31.910,719.652488
3 Feb 2020 18:40:42.000,327.812,31.910,719.656899
3 Feb 2020 18:40:43.000,328.503,31.906,719.731314
3 Feb 2020 18:40:44.000,329.194,31.898,719.875710
3 Feb 2020 18:40:45.000,329.884,31.885,720.090045
3 Feb 2020 18:40:46.000,330.573,31.868,720.374256
3 Feb 2020 18:40:47.000,331.261,31.848,720.728259
3 Feb 2020 18:40:48.000,331.949,31.823,721.151949
3 Feb 2020 18:40:49.000,332.635,31.794,721.645205
3 Feb 2020 18:40:50.000,333.319,31.760,722.207880
3 Feb 2020 18:40:51.000,334.002,31.723,722.839813
3 Feb 2020 18:40:52.000,334.684,31.682,723.540819
3 Feb 2020 18:40:53.000,335.363,31.637,724.310699
3 Feb 2020 18:40:54.000,336.040,31.587,725.149230
3 Feb 2020 18:40:55.000,336.714,31.534,726.056173
3 Feb 2020 18:40:56.000,337.386,31.477,727.031270
3 Feb 2020 18:40:57.000,338.056,31.417,728.074247
3 Feb 2020 18:40:58.000,338.722,31.352,729.184809
3 Feb 2020 18:40:59.000,339.386,31.284,730.362647
3 Feb 2020 18:41:00.000,340.046,31.212,731.607434
3 Feb 2020 18:41:01.000,340.703,31.136,732.918826
3 Feb 2020 18:41:02.000,341.357,31.058,734.296465
3 Feb 2020 18:41:03.000,342.007,30.975,735.739975
3 Feb 2020 18:41:04.000,342.653,30.889,737.248970
3 Feb 2020 18:41:05.000,343.296,30.800,738.823043
3 Feb 2020 18:41:06.000,343.934,30.708,740.461779
3 Feb 2020 18:41:07.000,344.568,30.613,742.164745
3 Feb 2020 18:41:08.000,345.199,30.514,743.931500
3 Feb 2020 18:41:09.000,345.824,30.413,745.761585
3 Feb 2020 18:41:10.000,346.446,30.308,747.654535
3 Feb 2020 18:41:11.000,347.063,30.201,749.609870
3 Feb 2020 18:41:12.000,347.675,30.091,751.627099
3 Feb 2020 18:41:13.000,348.283,29.979,753.705723
3 Feb 2020 18:41:14.000,348.886,29.863,755.845234
3 Feb 2020 18:41:15.000,349.484,29.746,758.045110
3 Feb 2020 18:41:16.000,350.077,29.625,760.304827
3 Feb 2020 18:41:17.000,350.665,29.503,762.623849
3 Feb 2020 18:41:18.000,351.248,29.378,765.001633
3 Feb 2020 18:41:19.000,351.826,29.251,767.437629
3 Feb 2020 18:41:20.000,352.399,29.122,769.931282
3 Feb 2020 18:41:21.000,352.967,28.991,772.482029
3 Feb 2020 18:41:22.000,353.530,28.858,775.089305
3 Feb 2020 18:41:23.000,354.088,28.723,777.752535
3 Feb 2020 18:41:24.000,354.640,28.586,780.471145
3 Feb 2020 18:41:25.000,355.187,28.448,783.244553
3 Feb 2020 18:41:26.000,355.728,28.308,786.072176
3 Feb 2020 18:41:27.000,356.265,28.166,788.953427
3 Feb 2020 18:41:28.000,356.796,28.023,791.887717
3 Feb 2020 18:41:29.000,357.321,27.878,794.874454
3 Feb 2020 18:41:30.000,357.842,27.733,797.913046
3 Feb 2020 18:41:31.000,358.357,27.586,801.002897
3 Feb 2020 18:41:32.000,358.866,27.437,804.143414
3 Feb 2020 18:41:33.000,359.371,27.288,807.334001
3 Feb 2020 18:41:34.000,359.870,27.138,810.574061
3 Feb 2020 18:41:35.000,0.363,26.986,813.863001
3 Feb 2020 18:41:36.000,0.852,26.834,817.200225
3 Feb 2020 18:41:37.000,1.335,26.681,820.585140
3 Feb 2020 18:41:38.000,1.813,26.527,824.017154
3 Feb 2020 18:41:39.000,2.285,26.372,827.495675
3 Feb 2020 18:41:40.000,2.753,26.217,831.020116
3 Feb 2020 18:41:41.000,3.215,26.061,834.589891
3 Feb 2020 18:41:42.000,3.672,25.905,838.204415
3 Feb 2020 18:41:43.000,4.124,25.748,841.863106
3 Feb 2020 18:41:44.000,4.571,25.590,845.565388
3 Feb 2020 18:41:45.000,5.013,25.433,849.310685
3 Feb 2020 18:41:46.000,5.450,25.274,853.098426
3 Feb 2020 18:41:47.000,5.882,25.116,856.928042
3 Feb 2020 18:41:48.000,6.309,24.957,860.798971
3 Feb 2020 18:41:49.000,6.731,24.798,864.710651
3 Feb 2020 18:41:50.000,7.148,24.639,868.662529
3 Feb 2020 18:41:51.000,7.560,24.480,872.654052
3 Feb 2020 18:41:52.000,7.968,24.321,876.684673
3 Feb 2020 18:41:53.000,8.371,24.162,880.753852
3 Feb 2020 18:41:54.000,8.769,24.002,884.861050
3 Feb 2020 18:41:55.000,9.163,23.843,889.005735
3 Feb 2020 18:41:56.000,9.552,23.684,893.187381
3 Feb 2020 18:41:57.000,9.936,23.525,897.405464
3 Feb 2020 18:41:58.000,10.316,23.366,901.659469
3 Feb 2020 18:41:59.000,10.691,23.208,905.948884
3 Feb 2020 18:42:00.000,11.062,23.049,910.273203
3 Feb 2020 18:42:01.000,11.429,22.891,914.631925
3 Feb 2020 18:42:02.000,11.792,22.733,919.024555
3 Feb 2020 18:42:03.000,12.150,22.575,923.450604
3 Feb 2020 18:42:04.000,12.504,22.418,927.909587
3 Feb 2020 18:42:05.000,12.854,22.261,932.401027
3 Feb 2020 18:42:06.000,13.199,22.104,936.924451
3 Feb 2020 18:42:07.000,13.541,21.948,941.479394
3 Feb 2020 18:42:08.000,13.878,21.792,946.065391
3 Feb 2020 18:42:09.000,14.212,21.636,950.681991
3 Feb 2020 18:42:10.000,14.542,21.481,955.328742
3 Feb 2020 18:42:11.000,14.868,21.327,960.005201
3 Feb 2020 18:42:12.000,15.190,21.173,964.710930
3 Feb 2020 18:42:13.000,15.508,21.019,969.445497
3 Feb 2020 18:42:14.000,15.823,20.866,974.208475
3 Feb 2020 18:42:15.000,16.134,20.714,978.999444
3 Feb 2020 18:42:16.000,16.441,20.562,983.817989
3 Feb 2020 18:42:17.000,16.745,20.410,988.663701
3 Feb 2020 18:42:18.000,17.045,20.260,993.536174
3 Feb 2020 18:42:19.000,17.342,20.109,998.435015
3 Feb 2020 18:42:20.000,17.635,19.960,1003.359826
3 Feb 2020 18:42:21.000,17.925,19.811,1008.310225
3 Feb 2020 18:42:22.000,18.212,19.662,1013.285827
3 Feb 2020 18:42:23.000,18.495,19.515,1018.286259
3 Feb 2020 18:42:24.000,18.775,19.367,1023.311150
3 Feb 2020 18:42:25.000,19.052,19.221,1028.360134
3 Feb 2020 18:42:26.000,19.326,19.075,1033.432853
3 Feb 2020 18:42:27.000,19.596,18.930,1038.528953
3 Feb 2020 18:42:28.000,19.864,18.785,1043.648084
3 Feb 2020 18:42:29.000,20.128,18.641,1048.789902
3 Feb 2020 18:42:30.000,20.389,18.498,1053.954070
3 Feb 2020 18:42:31.000,20.648,18.355,1059.140255
3 Feb 2020 18:42:32.000,20.904,18.213,1064.348127
3 Feb 2020 18:42:33.000,21.156,18.072,1069.577363
3 Feb 2020 18:42:34.000,21.406,17.932,1074.827646
3 Feb 2020 18:42:35.000,21.653,17.792,1080.098662
3 Feb 2020 18:42:36.000,21.898,17.653,1085.390102
3 Feb 2020 18:42:37.000,22.139,17.514,1090.701661
3 Feb 2020 18:42:38.000,22.378,17.376,1096.033042
3 Feb 2020 18:42:39.000,22.614,17.239,1101.383951
3 Feb 2020 18:42:40.000,22.848,17.103,1106.754095
3 Feb 2020 18:42:41.000,23.079,16.967,1112.143191
3 Feb 2020 18:42:42.000,23.308,16.832,1117.550958
3 Feb 2020 18:42:43.000,23.534,16.698,1122.977119
3 Feb 2020 18:42:44.000,23.758,16.564,1128.421403
3 Feb 2020 18:42:45.000,23.979,16.431,1133.883541
3 Feb 2020 18:42:46.000,24.198,16.299,1139.363270
3 Feb 2020 18:42:47.000,24.414,16.168,1144.860330
3 Feb 2020 18:42:48.000,24.628,16.037,1150.374466
3 Feb 2020 18:42:49.000,24.840,15.907,1155.905428
3 Feb 2020 18:42:50.000,25.050,15.777,1161.452969
3 Feb 2020 18:42:51.000,25.257,15.649,1167.016843
3 Feb 2020 18:42:52.000,25.463,15.520,1172.596813
3 Feb 2020 18:42:53.000,25.666,15.393,1178.192642
3 Feb 2020 18:42:54.000,25.866,15.266,1183.804099
3 Feb 2020 18:42:55.000,26.065,15.140,1189.430956
3 Feb 2020 18:42:56.000,26.262,15.015,1195.072988
3 Feb 2020 18:42:57.000,26.457,14.890,1200.729977
3 Feb 2020 18:42:58.000,26.649,14.766,1206.401701
3 Feb 2020 18:42:59.000,26.840,14.643,1212.087948
3 Feb 2020 18:43:00.000,27.029,14.520,1217.788509
3 Feb 2020 18:43:01.000,27.215,14.398,1223.503175
3 Feb 2020 18:43:02.000,27.400,14.277,1229.231743
3 Feb 2020 18:43:03.000,27.583,14.156,1234.974013
3 Feb 2020 18:43:04.000,27.764,14.036,1240.729788
3 Feb 2020 18:43:05.000,27.944,13.917,1246.498872
3 Feb 2020 18:43:06.000,28.121,13.798,1252.281076
3 Feb 2020 18:43:07.000,28.297,13.680,1258.076211
3 Feb 2020 18:43:08.000,28.471,13.563,1263.884092
3 Feb 2020 18:43:09.000,28.643,13.446,1269.704539
3 Feb 2020 18:43:10.000,28.814,13.330,1275.537369
3 Feb 2020 18:43:11.000,28.982,13.214,1281.382408
3 Feb 2020 18:43:12.000,29.149,13.099,1287.239483
3 Feb 2020 18:43:13.000,29.315,12.985,1293.108422
3 Feb 2020 18:43:14.000,29.479,12.871,1298.989057
3 Feb 2020 18:43:15.000,29.641,12.758,1304.881225
3 Feb 2020 18:43:16.000,29.802,12.646,1310.784760
3 Feb 2020 18:43:17.000,29.961,12.534,1316.699504
3 Feb 2020 18:43:18.000,30.119,12.422,1322.625299
3 Feb 2020 18:43:19.000,30.275,12.312,1328.561990
3 Feb 2020 18:43:20.000,30.430,12.202,1334.509424
3 Feb 2020 18:43:21.000,30.583,12.092,1340.467451
3 Feb 2020 18:43:22.000,30.735,11.983,1346.435922
3 Feb 2020 18:43:23.000,30.885,11.875,1352.414694
3 Feb 2020 18:43:24.000,31.034,11.767,1358.403621
3 Feb 2020 18:43:25.000,31.181,11.660,1364.402563
3 Feb 2020 18:43:26.000,31.327,11.553,1370.411382
3 Feb 2020 18:43:27.000,31.472,11.447,1376.429940
3 Feb 2020 18:43:28.000,31.616,11.341,1382.458103
3 Feb 2020 18:43:29.000,31.758,11.236,1388.495739
3 Feb 2020 18:43:30.000,31.899,11.132,1394.542717
3 Feb 2020 18:43:31.000,32.038,11.028,1400.598909
3 Feb 2020 18:43:32.000,32.176,10.925,1406.664188
3 Feb 2020 18:43:33.000,32.313,10.822,1412.738431
3 Feb 2020 18:43:34.000,32.449,10.720,1418.821514
3 Feb 2020 18:43:35.000,32.584,10.618,1424.913316
3 Feb 2020 18:43:36.000,32.717,10.517,1431.013721
3 Feb 2020 18:43:37.000,32.849,10.416,1437.122609
3 Feb 2020 18:43:38.000,32.980,10.316,1443.239866
3 Feb 2020 18:43:39.000,33.110,10.216,1449.365379
3 Feb 2020 18:43:40.000,33.238,10.117,1455.499037
3 Feb 2020 18:43:41.000,33.366,10.018,1461.640728
3 Feb 2020 18:43:42.000,33.492,9.920,1467.790344
3 Feb 2020 18:43:43.000,33.618,9.822,1473.947778
3 Feb 2020 18:43:44.000,33.742,9.725,1480.112928
3 Feb 2020 18:43:45.000,33.865,9.628,1486.285689
3 Feb 2020 18:43:46.000,33.987,9.532,1492.465958
3 Feb 2020 18:43:47.000,34.108,9.436,1498.653635
3 Feb 2020 18:43:48.000,34.228,9.340,1504.848621
3 Feb 2020 18:43:49.000,34.347,9.246,1511.050820
3 Feb 2020 18:43:50.000,34.465,9.151,1517.260134
3 Feb 2020 18:43:51.000,34.582,9.057,1523.476470
3 Feb 2020 18:43:52.000,34.698,8.964,1529.699734
3 Feb 2020 18:43:53.000,34.813,8.871,1535.929835
3 Feb 2020 18:43:54.000,34.927,8.778,1542.166682
3 Feb 2020 18:43:55.000,35.040,8.686,1548.410186
3 Feb 2020 18:43:56.000,35.153,8.594,1554.660260
3 Feb 2020 18:43:57.000,35.264,8.503,1560.916814
3 Feb 2020 18:43:58.000,35.374,8.412,1567.179768
3 Feb 2020 18:43:59.000,35.484,8.321,1573.449035
3 Feb 2020 18:44:00.000,35.592,8.231,1579.724533
3 Feb 2020 18:44:01.000,35.700,8.142,1586.006181
3 Feb 2020 18:44:02.000,35.807,8.053,1592.293898
3 Feb 2020 18:44:03.000,35.912,7.964,1598.587605
3 Feb 2020 18:44:04.000,36.018,7.876,1604.887223
3 Feb 2020 18:44:05.000,36.122,7.788,1611.192676
3 Feb 2020 18:44:06.000,36.225,7.700,1617.503888
3 Feb 2020 18:44:07.000,36.328,7.613,1623.820782
3 Feb 2020 18:44:08.000,36.430,7.526,1630.143288
3 Feb 2020 18:44:09.000,36.531,7.440,1636.471333
3 Feb 2020 18:44:10.000,36.631,7.354,1642.804843
3 Feb 2020 18:44:11.000,36.730,7.268,1649.143749
3 Feb 2020 18:44:12.000,36.829,7.183,1655.487981
3 Feb 2020 18:44:13.000,36.927,7.098,1661.837470
3 Feb 2020 18:44:14.000,37.024,7.014,1668.192148
3 Feb 2020 18:44:15.000,37.120,6.930,1674.551949
3 Feb 2020 18:44:16.000,37.216,6.846,1680.916805
3 Feb 2020 18:44:17.000,37.311,6.762,1687.286656
3 Feb 2020 18:44:18.000,37.405,6.679,1693.661434
3 Feb 2020 18:44:19.000,37.498,6.597,1700.041077
3 Feb 2020 18:44:20.000,37.591,6.515,1706.425523
3 Feb 2020 18:44:21.000,37.683,6.433,1712.814711
3 Feb 2020 18:44:22.000,37.775,6.351,1719.208579
3 Feb 2020 18:44:23.000,37.865,6.270,1725.607068
3 Feb 2020 18:44:24.000,37.955,6.189,1732.010117
3 Feb 2020 18:44:25.000,38.045,6.108,1738.417672
3 Feb 2020 18:44:26.000,38.133,6.028,1744.829673
3 Feb 2020 18:44:27.000,38.221,5.948,1751.246065
3 Feb 2020 18:44:28.000,38.309,5.869,1757.666791
3 Feb 2020 18:44:29.000,38.396,5.789,1764.091796
3 Feb 2020 18:44:30.000,38.482,5.710,1770.521026
3 Feb 2020 18:44:31.000,38.567,5.632,1776.954425
3 Feb 2020 18:44:32.000,38.652,5.553,1783.391945
3 Feb 2020 18:44:33.000,38.736,5.475,1789.833531
3 Feb 2020 18:44:34.000,38.820,5.398,1796.279131
3 Feb 2020 18:44:35.000,38.903,5.320,1802.728696
3 Feb 2020 18:44:36.000,38.986,5.243,1809.182174
3 Feb 2020 18:44:37.000,39.068,5.167,1815.639517
3 Feb 2020 18:44:38.000,39.149,5.090,1822.100673
3 Feb 2020 18:44:39.000,39.230,5.014,1828.565598
3 Feb 2020 18:44:40.000,39.310,4.938,1835.034243
3 Feb 2020 18:44:41.000,39.390,4.863,1841.506560
3 Feb 2020 18:44:42.000,39.469,4.787,1847.982504
3 Feb 2020 18:44:43.000,39.547,4.712,1854.462028
3 Feb 2020 18:44:44.000,39.625,4.638,1860.945085
3 Feb 2020 18:44:45.000,39.703,4.563,1867.431636
3 Feb 2020 18:44:46.000,39.780,4.489,1873.921633
3 Feb 2020 18:44:47.000,39.856,4.415,1880.415033
3 Feb 2020 18:44:48.000,39.932,4.342,1886.911793
3 Feb 2020 18:44:49.000,40.007,4.269,1893.411872
3 Feb 2020 18:44:50.000,40.082,4.196,1899.915224
3 Feb 2020 18:44:51.000,40.157,4.123,1906.421813
3 Feb 2020 18:44:52.000,40.231,4.050,1912.931596
3 Feb 2020 18:44:53.000,40.304,3.978,1919.444532
3 Feb 2020 18:44:54.000,40.377,3.906,1925.960582
3 Feb 2020 18:44:55.000,40.449,3.834,1932.479707
3 Feb 2020 18:44:56.000,40.521,3.763,1939.001865
3 Feb 2020 18:44:57.000,40.593,3.692,1945.527022
3 Feb 2020 18:44:58.000,40.664,3.621,1952.055139
3 Feb 2020 18:44:59.000,40.734,3.550,1958.586178
3 Feb 2020 18:45:00.000,40.805,3.480,1965.120102
3 Feb 2020 18:45:01.000,40.874,3.410,1971.656875
3 Feb 2020 18:45:02.000,40.943,3.340,1978.196457
3 Feb 2020 18:45:03.000,41.012,3.270,1984.738819
3 Feb 2020 18:45:04.000,41.080,3.200,1991.283922
3 Feb 2020 18:45:05.000,41.148,3.131,1997.831732
3 Feb 2020 18:45:06.000,41.216,3.062,2004.382214
3 Feb 2020 18:45:07.000,41.283,2.993,2010.935332
3 Feb 2020 18:45:08.000,41.349,2.925,2017.491058
3 Feb 2020 18:45:09.000,41.416,2.857,2024.049355
3 Feb 2020 18:45:10.000,41.481,2.789,2030.610191
3 Feb 2020 18:45:11.000,41.547,2.721,2037.173534
3 Feb 2020 18:45:12.000,41.612,2.653,2043.739349
3 Feb 2020 18:45:13.000,41.676,2.586,2050.307609
3 Feb 2020 18:45:14.000,41.740,2.519,2056.878281
3 Feb 2020 18:45:15.000,41.804,2.452,2063.451334
3 Feb 2020 18:45:16.000,41.868,2.385,2070.026736
3 Feb 2020 18:45:17.000,41.931,2.318,2076.604459
3 Feb 2020 18:45:18.000,41.993,2.252,2083.184470
3 Feb 2020 18:45:19.000,42.055,2.186,2089.766743
3 Feb 2020 18:45:20.000,42.117,2.120,2096.351248
3 Feb 2020 18:45:21.000,42.179,2.054,2102.937956
3 Feb 2020 18:45:22.000,42.240,1.989,2109.526838
3 Feb 2020 18:45:23.000,42.301,1.924,2116.117863
3 Feb 2020 18:45:24.000,42.361,1.859,2122.711008
3 Feb 2020 18:45:25.000,42.421,1.794,2129.306245
