vcc_sched/network/input/aer_vtgs_wj2xms_vcc-a_44428.csv

"Time (UTCG)","Azimuth (deg)","Elevation (deg)","Range (km)"
7 Jan 2020 03:05:02.526,147.216,-0.055,2308.192940
7 Jan 2020 03:05:03.000,147.137,-0.043,2306.849200
7 Jan 2020 03:05:04.000,146.970,-0.018,2304.029336
7 Jan 2020 03:05:05.000,146.802,0.008,2301.227223
7 Jan 2020 03:05:06.000,146.634,0.033,2298.442930
7 Jan 2020 03:05:07.000,146.465,0.058,2295.676525
7 Jan 2020 03:05:08.000,146.296,0.083,2292.928078
7 Jan 2020 03:05:09.000,146.127,0.108,2290.197656
7 Jan 2020 03:05:10.000,145.957,0.133,2287.485329
7 Jan 2020 03:05:11.000,145.787,0.157,2284.791165
7 Jan 2020 03:05:12.000,145.616,0.182,2282.115232
7 Jan 2020 03:05:13.000,145.445,0.206,2279.457599
7 Jan 2020 03:05:14.000,145.274,0.230,2276.818332
7 Jan 2020 03:05:15.000,145.102,0.255,2274.197499
7 Jan 2020 03:05:16.000,144.930,0.278,2271.595171
7 Jan 2020 03:05:17.000,144.757,0.302,2269.011413
7 Jan 2020 03:05:18.000,144.584,0.326,2266.446293
7 Jan 2020 03:05:19.000,144.411,0.349,2263.899877
7 Jan 2020 03:05:20.000,144.237,0.373,2261.372234
7 Jan 2020 03:05:21.000,144.062,0.396,2258.863429
7 Jan 2020 03:05:22.000,143.888,0.419,2256.373526
7 Jan 2020 03:05:23.000,143.713,0.442,2253.902598
7 Jan 2020 03:05:24.000,143.538,0.465,2251.450707
7 Jan 2020 03:05:25.000,143.362,0.487,2249.017920
7 Jan 2020 03:05:26.000,143.186,0.510,2246.604302
7 Jan 2020 03:05:27.000,143.009,0.532,2244.209916
7 Jan 2020 03:05:28.000,142.832,0.554,2241.834832
7 Jan 2020 03:05:29.000,142.655,0.576,2239.479114
7 Jan 2020 03:05:30.000,142.477,0.598,2237.142825
7 Jan 2020 03:05:31.000,142.299,0.620,2234.826030
7 Jan 2020 03:05:32.000,142.121,0.642,2232.528792
7 Jan 2020 03:05:33.000,141.942,0.663,2230.251177
7 Jan 2020 03:05:34.000,141.763,0.684,2227.993249
7 Jan 2020 03:05:35.000,141.583,0.705,2225.755070
7 Jan 2020 03:05:36.000,141.403,0.726,2223.536700
7 Jan 2020 03:05:37.000,141.223,0.747,2221.338208
7 Jan 2020 03:05:38.000,141.043,0.767,2219.159654
7 Jan 2020 03:05:39.000,140.862,0.788,2217.001099
7 Jan 2020 03:05:40.000,140.680,0.808,2214.862603
7 Jan 2020 03:05:41.000,140.499,0.828,2212.744232
7 Jan 2020 03:05:42.000,140.316,0.848,2210.646045
7 Jan 2020 03:05:43.000,140.134,0.868,2208.568100
7 Jan 2020 03:05:44.000,139.951,0.887,2206.510463
7 Jan 2020 03:05:45.000,139.768,0.907,2204.473190
7 Jan 2020 03:05:46.000,139.585,0.926,2202.456341
7 Jan 2020 03:05:47.000,139.401,0.945,2200.459977
7 Jan 2020 03:05:48.000,139.217,0.964,2198.484157
7 Jan 2020 03:05:49.000,139.033,0.983,2196.528936
7 Jan 2020 03:05:50.000,138.848,1.001,2194.594377
7 Jan 2020 03:05:51.000,138.663,1.019,2192.680535
7 Jan 2020 03:05:52.000,138.477,1.038,2190.787466
7 Jan 2020 03:05:53.000,138.292,1.056,2188.915231
7 Jan 2020 03:05:54.000,138.106,1.073,2187.063884
7 Jan 2020 03:05:55.000,137.919,1.091,2185.233479
7 Jan 2020 03:05:56.000,137.733,1.108,2183.424076
7 Jan 2020 03:05:57.000,137.545,1.126,2181.635725
7 Jan 2020 03:05:58.000,137.358,1.143,2179.868487
7 Jan 2020 03:05:59.000,137.171,1.160,2178.122412
7 Jan 2020 03:06:00.000,136.983,1.176,2176.397552
7 Jan 2020 03:06:01.000,136.794,1.193,2174.693966
7 Jan 2020 03:06:02.000,136.606,1.209,2173.011701
7 Jan 2020 03:06:03.000,136.417,1.225,2171.350815
7 Jan 2020 03:06:04.000,136.228,1.241,2169.711353
7 Jan 2020 03:06:05.000,136.039,1.257,2168.093374
7 Jan 2020 03:06:06.000,135.849,1.272,2166.496924
7 Jan 2020 03:06:07.000,135.659,1.288,2164.922052
7 Jan 2020 03:06:08.000,135.469,1.303,2163.368813
7 Jan 2020 03:06:09.000,135.278,1.318,2161.837249
7 Jan 2020 03:06:10.000,135.087,1.333,2160.327417
7 Jan 2020 03:06:11.000,134.896,1.347,2158.839357
7 Jan 2020 03:06:12.000,134.705,1.362,2157.373124
7 Jan 2020 03:06:13.000,134.513,1.376,2155.928759
7 Jan 2020 03:06:14.000,134.321,1.390,2154.506313
7 Jan 2020 03:06:15.000,134.129,1.403,2153.105828
7 Jan 2020 03:06:16.000,133.937,1.417,2151.727350
7 Jan 2020 03:06:17.000,133.744,1.430,2150.370928
7 Jan 2020 03:06:18.000,133.551,1.444,2149.036601
7 Jan 2020 03:06:19.000,133.358,1.456,2147.724416
7 Jan 2020 03:06:20.000,133.165,1.469,2146.434412
7 Jan 2020 03:06:21.000,132.971,1.482,2145.166637
7 Jan 2020 03:06:22.000,132.778,1.494,2143.921126
7 Jan 2020 03:06:23.000,132.584,1.506,2142.697926
7 Jan 2020 03:06:24.000,132.389,1.518,2141.497073
7 Jan 2020 03:06:25.000,132.195,1.530,2140.318608
7 Jan 2020 03:06:26.000,132.000,1.541,2139.162573
7 Jan 2020 03:06:27.000,131.805,1.553,2138.029002
7 Jan 2020 03:06:28.000,131.610,1.564,2136.917935
7 Jan 2020 03:06:29.000,131.415,1.574,2135.829412
7 Jan 2020 03:06:30.000,131.219,1.585,2134.763464
7 Jan 2020 03:06:31.000,131.023,1.596,2133.720133
7 Jan 2020 03:06:32.000,130.828,1.606,2132.699447
7 Jan 2020 03:06:33.000,130.631,1.616,2131.701445
7 Jan 2020 03:06:34.000,130.435,1.626,2130.726162
7 Jan 2020 03:06:35.000,130.239,1.635,2129.773627
7 Jan 2020 03:06:36.000,130.042,1.644,2128.843875
7 Jan 2020 03:06:37.000,129.845,1.654,2127.936936
7 Jan 2020 03:06:38.000,129.648,1.662,2127.052846
7 Jan 2020 03:06:39.000,129.451,1.671,2126.191629
7 Jan 2020 03:06:40.000,129.254,1.680,2125.353317
7 Jan 2020 03:06:41.000,129.056,1.688,2124.537941
7 Jan 2020 03:06:42.000,128.859,1.696,2123.745525
7 Jan 2020 03:06:43.000,128.661,1.704,2122.976098
7 Jan 2020 03:06:44.000,128.463,1.711,2122.229687
7 Jan 2020 03:06:45.000,128.265,1.719,2121.506321
7 Jan 2020 03:06:46.000,128.067,1.726,2120.806020
7 Jan 2020 03:06:47.000,127.868,1.733,2120.128810
7 Jan 2020 03:06:48.000,127.670,1.739,2119.474716
7 Jan 2020 03:06:49.000,127.471,1.746,2118.843762
7 Jan 2020 03:06:50.000,127.273,1.752,2118.235966
7 Jan 2020 03:06:51.000,127.074,1.758,2117.651352
7 Jan 2020 03:06:52.000,126.875,1.764,2117.089940
7 Jan 2020 03:06:53.000,126.676,1.769,2116.551750
7 Jan 2020 03:06:54.000,126.477,1.775,2116.036805
7 Jan 2020 03:06:55.000,126.277,1.780,2115.545116
7 Jan 2020 03:06:56.000,126.078,1.785,2115.076705
7 Jan 2020 03:06:57.000,125.879,1.789,2114.631587
7 Jan 2020 03:06:58.000,125.679,1.794,2114.209779
7 Jan 2020 03:06:59.000,125.480,1.798,2113.811297
7 Jan 2020 03:07:00.000,125.280,1.802,2113.436153
7 Jan 2020 03:07:01.000,125.080,1.806,2113.084366
7 Jan 2020 03:07:02.000,124.880,1.809,2112.755942
7 Jan 2020 03:07:03.000,124.681,1.812,2112.450895
7 Jan 2020 03:07:04.000,124.481,1.815,2112.169238
7 Jan 2020 03:07:05.000,124.281,1.818,2111.910980
7 Jan 2020 03:07:06.000,124.081,1.821,2111.676131
7 Jan 2020 03:07:07.000,123.881,1.823,2111.464700
7 Jan 2020 03:07:08.000,123.681,1.825,2111.276695
7 Jan 2020 03:07:09.000,123.481,1.827,2111.112123
7 Jan 2020 03:07:10.000,123.280,1.829,2110.970990
7 Jan 2020 03:07:11.000,123.080,1.830,2110.853303
7 Jan 2020 03:07:12.000,122.880,1.831,2110.759065
7 Jan 2020 03:07:13.000,122.680,1.832,2110.688281
7 Jan 2020 03:07:14.000,122.480,1.833,2110.640954
7 Jan 2020 03:07:15.000,122.279,1.834,2110.617087
7 Jan 2020 03:07:16.000,122.079,1.834,2110.616680
7 Jan 2020 03:07:17.000,121.879,1.834,2110.639735
7 Jan 2020 03:07:18.000,121.679,1.834,2110.686252
7 Jan 2020 03:07:19.000,121.478,1.833,2110.756229
7 Jan 2020 03:07:20.000,121.278,1.833,2110.849665
7 Jan 2020 03:07:21.000,121.078,1.832,2110.966557
7 Jan 2020 03:07:22.000,120.878,1.831,2111.106902
7 Jan 2020 03:07:23.000,120.678,1.829,2111.270696
7 Jan 2020 03:07:24.000,120.478,1.828,2111.457934
7 Jan 2020 03:07:25.000,120.278,1.826,2111.668611
7 Jan 2020 03:07:26.000,120.078,1.824,2111.902719
7 Jan 2020 03:07:27.000,119.878,1.822,2112.160251
7 Jan 2020 03:07:28.000,119.678,1.819,2112.441199
7 Jan 2020 03:07:29.000,119.478,1.816,2112.745555
7 Jan 2020 03:07:30.000,119.278,1.814,2113.073307
7 Jan 2020 03:07:31.000,119.078,1.810,2113.424447
7 Jan 2020 03:07:32.000,118.879,1.807,2113.798959
7 Jan 2020 03:07:33.000,118.679,1.803,2114.196837
7 Jan 2020 03:07:34.000,118.480,1.799,2114.618065
7 Jan 2020 03:07:35.000,118.280,1.795,2115.062630
7 Jan 2020 03:07:36.000,118.081,1.791,2115.530517
7 Jan 2020 03:07:37.000,117.882,1.786,2116.021710
7 Jan 2020 03:07:38.000,117.683,1.782,2116.536194
7 Jan 2020 03:07:39.000,117.484,1.777,2117.073948
7 Jan 2020 03:07:40.000,117.285,1.771,2117.634962
7 Jan 2020 03:07:41.000,117.086,1.766,2118.219213
7 Jan 2020 03:07:42.000,116.887,1.760,2118.826682
7 Jan 2020 03:07:43.000,116.688,1.754,2119.457349
7 Jan 2020 03:07:44.000,116.490,1.748,2120.111191
7 Jan 2020 03:07:45.000,116.292,1.742,2120.788191
7 Jan 2020 03:07:46.000,116.093,1.735,2121.488326
7 Jan 2020 03:07:47.000,115.895,1.728,2122.211571
7 Jan 2020 03:07:48.000,115.697,1.721,2122.957899
7 Jan 2020 03:07:49.000,115.500,1.714,2123.727293
7 Jan 2020 03:07:50.000,115.302,1.707,2124.519724
7 Jan 2020 03:07:51.000,115.105,1.699,2125.335166
7 Jan 2020 03:07:52.000,114.907,1.691,2126.173589
7 Jan 2020 03:07:53.000,114.710,1.683,2127.034972
7 Jan 2020 03:07:54.000,114.513,1.674,2127.919283
7 Jan 2020 03:07:55.000,114.316,1.666,2128.826494
7 Jan 2020 03:07:56.000,114.120,1.657,2129.756571
7 Jan 2020 03:07:57.000,113.923,1.648,2130.709491
7 Jan 2020 03:07:58.000,113.727,1.639,2131.685219
7 Jan 2020 03:07:59.000,113.531,1.629,2132.683721
7 Jan 2020 03:08:00.000,113.335,1.619,2133.704970
7 Jan 2020 03:08:01.000,113.139,1.610,2134.748929
7 Jan 2020 03:08:02.000,112.943,1.599,2135.815563
7 Jan 2020 03:08:03.000,112.748,1.589,2136.904842
7 Jan 2020 03:08:04.000,112.553,1.579,2138.016725
7 Jan 2020 03:08:05.000,112.358,1.568,2139.151183
7 Jan 2020 03:08:06.000,112.163,1.557,2140.308175
7 Jan 2020 03:08:07.000,111.969,1.546,2141.487662
7 Jan 2020 03:08:08.000,111.774,1.534,2142.689611
7 Jan 2020 03:08:09.000,111.580,1.523,2143.913982
7 Jan 2020 03:08:10.000,111.387,1.511,2145.160731
7 Jan 2020 03:08:11.000,111.193,1.499,2146.429825
7 Jan 2020 03:08:12.000,111.000,1.486,2147.721218
7 Jan 2020 03:08:13.000,110.807,1.474,2149.034874
7 Jan 2020 03:08:14.000,110.614,1.461,2150.370746
7 Jan 2020 03:08:15.000,110.421,1.448,2151.728797
7 Jan 2020 03:08:16.000,110.229,1.435,2153.108979
7 Jan 2020 03:08:17.000,110.037,1.422,2154.511254
7 Jan 2020 03:08:18.000,109.845,1.409,2155.935575
7 Jan 2020 03:08:19.000,109.653,1.395,2157.381894
7 Jan 2020 03:08:20.000,109.462,1.381,2158.850172
7 Jan 2020 03:08:21.000,109.271,1.367,2160.340357
7 Jan 2020 03:08:22.000,109.080,1.353,2161.852409
7 Jan 2020 03:08:23.000,108.889,1.338,2163.386274
7 Jan 2020 03:08:24.000,108.699,1.324,2164.941911
7 Jan 2020 03:08:25.000,108.509,1.309,2166.519266
7 Jan 2020 03:08:26.000,108.319,1.294,2168.118296
7 Jan 2020 03:08:27.000,108.130,1.278,2169.738946
7 Jan 2020 03:08:28.000,107.941,1.263,2171.381170
7 Jan 2020 03:08:29.000,107.752,1.247,2173.044920
7 Jan 2020 03:08:30.000,107.564,1.231,2174.730139
7 Jan 2020 03:08:31.000,107.375,1.215,2176.436783
7 Jan 2020 03:08:32.000,107.187,1.199,2178.164793
7 Jan 2020 03:08:33.000,107.000,1.183,2179.914123
7 Jan 2020 03:08:34.000,106.812,1.166,2181.684714
7 Jan 2020 03:08:35.000,106.625,1.149,2183.476517
7 Jan 2020 03:08:36.000,106.439,1.132,2185.289481
7 Jan 2020 03:08:37.000,106.252,1.115,2187.123544
7 Jan 2020 03:08:38.000,106.066,1.098,2188.978660
7 Jan 2020 03:08:39.000,105.881,1.080,2190.854766
7 Jan 2020 03:08:40.000,105.695,1.063,2192.751811
7 Jan 2020 03:08:41.000,105.510,1.045,2194.669741
7 Jan 2020 03:08:42.000,105.325,1.027,2196.608494
7 Jan 2020 03:08:43.000,105.141,1.008,2198.568016
7 Jan 2020 03:08:44.000,104.957,0.990,2200.548253
7 Jan 2020 03:08:45.000,104.773,0.971,2202.549142
7 Jan 2020 03:08:46.000,104.590,0.953,2204.570627
7 Jan 2020 03:08:47.000,104.407,0.934,2206.612653
7 Jan 2020 03:08:48.000,104.224,0.914,2208.675155
7 Jan 2020 03:08:49.000,104.042,0.895,2210.758077
7 Jan 2020 03:08:50.000,103.860,0.876,2212.861363
7 Jan 2020 03:08:51.000,103.678,0.856,2214.984947
7 Jan 2020 03:08:52.000,103.497,0.836,2217.128770
7 Jan 2020 03:08:53.000,103.316,0.816,2219.292777
7 Jan 2020 03:08:54.000,103.135,0.796,2221.476900
7 Jan 2020 03:08:55.000,102.955,0.776,2223.681079
7 Jan 2020 03:08:56.000,102.775,0.755,2225.905255
7 Jan 2020 03:08:57.000,102.596,0.735,2228.149369
7 Jan 2020 03:08:58.000,102.417,0.714,2230.413351
7 Jan 2020 03:08:59.000,102.238,0.693,2232.697141
7 Jan 2020 03:09:00.000,102.060,0.672,2235.000679
7 Jan 2020 03:09:01.000,101.882,0.650,2237.323903
7 Jan 2020 03:09:02.000,101.704,0.629,2239.666744
7 Jan 2020 03:09:03.000,101.527,0.607,2242.029140
7 Jan 2020 03:09:04.000,101.350,0.585,2244.411029
7 Jan 2020 03:09:05.000,101.173,0.563,2246.812346
7 Jan 2020 03:09:06.000,100.997,0.541,2249.233030
7 Jan 2020 03:09:07.000,100.822,0.519,2251.673009
7 Jan 2020 03:09:08.000,100.646,0.497,2254.132221
7 Jan 2020 03:09:09.000,100.471,0.474,2256.610603
7 Jan 2020 03:09:10.000,100.297,0.451,2259.108087
7 Jan 2020 03:09:11.000,100.123,0.429,2261.624608
7 Jan 2020 03:09:12.000,99.949,0.406,2264.160105
7 Jan 2020 03:09:13.000,99.776,0.382,2266.714504
7 Jan 2020 03:09:14.000,99.603,0.359,2269.287741
7 Jan 2020 03:09:15.000,99.430,0.336,2271.879752
7 Jan 2020 03:09:16.000,99.258,0.312,2274.490468
7 Jan 2020 03:09:17.000,99.086,0.288,2277.119823
7 Jan 2020 03:09:18.000,98.915,0.265,2279.767750
7 Jan 2020 03:09:19.000,98.744,0.241,2282.434186
7 Jan 2020 03:09:20.000,98.573,0.216,2285.119055
7 Jan 2020 03:09:21.000,98.403,0.192,2287.822294
7 Jan 2020 03:09:22.000,98.234,0.168,2290.543835
7 Jan 2020 03:09:23.000,98.064,0.143,2293.283611
7 Jan 2020 03:09:24.000,97.895,0.118,2296.041553
7 Jan 2020 03:09:25.000,97.727,0.094,2298.817594
7 Jan 2020 03:09:26.000,97.559,0.069,2301.611664
7 Jan 2020 03:09:27.000,97.391,0.044,2304.423696
7 Jan 2020 03:09:28.000,97.224,0.018,2307.253621
7 Jan 2020 03:09:29.000,97.057,-0.007,2310.101371
7 Jan 2020 03:09:30.000,96.891,-0.032,2312.966877
7 Jan 2020 03:09:30.898,96.742,-0.055,2315.556334
7 Jan 2020 04:37:44.565,214.849,-0.055,2308.415442
7 Jan 2020 04:37:45.000,214.835,-0.029,2305.444015
7 Jan 2020 04:37:46.000,214.805,0.033,2298.609999
7 Jan 2020 04:37:47.000,214.774,0.095,2291.776643
7 Jan 2020 04:37:48.000,214.743,0.157,2284.943966
7 Jan 2020 04:37:49.000,214.711,0.219,2278.111980
7 Jan 2020 04:37:50.000,214.680,0.281,2271.280700
7 Jan 2020 04:37:51.000,214.648,0.344,2264.450139
7 Jan 2020 04:37:52.000,214.616,0.406,2257.620315
7 Jan 2020 04:37:53.000,214.584,0.469,2250.791241
7 Jan 2020 04:37:54.000,214.552,0.532,2243.962933
7 Jan 2020 04:37:55.000,214.519,0.596,2237.135402
7 Jan 2020 04:37:56.000,214.486,0.659,2230.308671
7 Jan 2020 04:37:57.000,214.453,0.723,2223.482750
7 Jan 2020 04:37:58.000,214.420,0.786,2216.657655
7 Jan 2020 04:37:59.000,214.387,0.851,2209.833405
7 Jan 2020 04:38:00.000,214.353,0.915,2203.010015
7 Jan 2020 04:38:01.000,214.319,0.979,2196.187501
7 Jan 2020 04:38:02.000,214.285,1.044,2189.365876
7 Jan 2020 04:38:03.000,214.251,1.109,2182.545162
7 Jan 2020 04:38:04.000,214.216,1.174,2175.725374
7 Jan 2020 04:38:05.000,214.182,1.239,2168.906529
7 Jan 2020 04:38:06.000,214.147,1.305,2162.088641
7 Jan 2020 04:38:07.000,214.111,1.370,2155.271732
7 Jan 2020 04:38:08.000,214.076,1.436,2148.455817
7 Jan 2020 04:38:09.000,214.040,1.502,2141.640913
7 Jan 2020 04:38:10.000,214.004,1.569,2134.827042
7 Jan 2020 04:38:11.000,213.968,1.635,2128.014219
7 Jan 2020 04:38:12.000,213.932,1.702,2121.202462
7 Jan 2020 04:38:13.000,213.895,1.769,2114.391789
7 Jan 2020 04:38:14.000,213.858,1.836,2107.582223
7 Jan 2020 04:38:15.000,213.821,1.904,2100.773779
7 Jan 2020 04:38:16.000,213.784,1.971,2093.966477
7 Jan 2020 04:38:17.000,213.746,2.039,2087.160336
7 Jan 2020 04:38:18.000,213.708,2.107,2080.355378
7 Jan 2020 04:38:19.000,213.670,2.176,2073.551621
7 Jan 2020 04:38:20.000,213.631,2.245,2066.749083
7 Jan 2020 04:38:21.000,213.593,2.313,2059.947789
7 Jan 2020 04:38:22.000,213.554,2.383,2053.147757
7 Jan 2020 04:38:23.000,213.514,2.452,2046.349009
7 Jan 2020 04:38:24.000,213.475,2.522,2039.551562
7 Jan 2020 04:38:25.000,213.435,2.591,2032.755443
7 Jan 2020 04:38:26.000,213.395,2.662,2025.960671
7 Jan 2020 04:38:27.000,213.355,2.732,2019.167268
7 Jan 2020 04:38:28.000,213.314,2.803,2012.375254
7 Jan 2020 04:38:29.000,213.273,2.874,2005.584655
7 Jan 2020 04:38:30.000,213.232,2.945,1998.795492
7 Jan 2020 04:38:31.000,213.190,3.016,1992.007786
7 Jan 2020 04:38:32.000,213.148,3.088,1985.221564
7 Jan 2020 04:38:33.000,213.106,3.160,1978.436848
7 Jan 2020 04:38:34.000,213.063,3.232,1971.653661
7 Jan 2020 04:38:35.000,213.021,3.305,1964.872025
7 Jan 2020 04:38:36.000,212.978,3.377,1958.091969
7 Jan 2020 04:38:37.000,212.934,3.450,1951.313515
7 Jan 2020 04:38:38.000,212.890,3.524,1944.536689
7 Jan 2020 04:38:39.000,212.846,3.598,1937.761513
7 Jan 2020 04:38:40.000,212.802,3.671,1930.988017
7 Jan 2020 04:38:41.000,212.757,3.746,1924.216225
7 Jan 2020 04:38:42.000,212.712,3.820,1917.446164
7 Jan 2020 04:38:43.000,212.667,3.895,1910.677858
7 Jan 2020 04:38:44.000,212.621,3.970,1903.911338
7 Jan 2020 04:38:45.000,212.575,4.046,1897.146629
7 Jan 2020 04:38:46.000,212.528,4.121,1890.383759
7 Jan 2020 04:38:47.000,212.482,4.198,1883.622753
7 Jan 2020 04:38:48.000,212.434,4.274,1876.863645
7 Jan 2020 04:38:49.000,212.387,4.351,1870.106461
7 Jan 2020 04:38:50.000,212.339,4.428,1863.351230
7 Jan 2020 04:38:51.000,212.291,4.505,1856.597980
7 Jan 2020 04:38:52.000,212.242,4.583,1849.846744
7 Jan 2020 04:38:53.000,212.193,4.661,1843.097551
7 Jan 2020 04:38:54.000,212.144,4.739,1836.350431
7 Jan 2020 04:38:55.000,212.094,4.818,1829.605414
7 Jan 2020 04:38:56.000,212.044,4.897,1822.862535
7 Jan 2020 04:38:57.000,211.993,4.976,1816.121825
7 Jan 2020 04:38:58.000,211.942,5.056,1809.383315
7 Jan 2020 04:38:59.000,211.891,5.136,1802.647036
7 Jan 2020 04:39:00.000,211.839,5.216,1795.913026
7 Jan 2020 04:39:01.000,211.787,5.297,1789.181316
7 Jan 2020 04:39:02.000,211.734,5.378,1782.451941
7 Jan 2020 04:39:03.000,211.681,5.460,1775.724933
7 Jan 2020 04:39:04.000,211.627,5.542,1769.000332
7 Jan 2020 04:39:05.000,211.573,5.624,1762.278171
7 Jan 2020 04:39:06.000,211.519,5.706,1755.558487
7 Jan 2020 04:39:07.000,211.464,5.790,1748.841313
7 Jan 2020 04:39:08.000,211.409,5.873,1742.126692
7 Jan 2020 04:39:09.000,211.353,5.957,1735.414659
7 Jan 2020 04:39:10.000,211.297,6.041,1728.705253
7 Jan 2020 04:39:11.000,211.240,6.126,1721.998509
7 Jan 2020 04:39:12.000,211.183,6.211,1715.294472
7 Jan 2020 04:39:13.000,211.125,6.296,1708.593180
7 Jan 2020 04:39:14.000,211.067,6.382,1701.894673
7 Jan 2020 04:39:15.000,211.009,6.468,1695.198990
7 Jan 2020 04:39:16.000,210.950,6.555,1688.506177
7 Jan 2020 04:39:17.000,210.890,6.642,1681.816274
7 Jan 2020 04:39:18.000,210.830,6.729,1675.129325
7 Jan 2020 04:39:19.000,210.769,6.817,1668.445372
7 Jan 2020 04:39:20.000,210.708,6.906,1661.764459
7 Jan 2020 04:39:21.000,210.646,6.994,1655.086634
7 Jan 2020 04:39:22.000,210.584,7.084,1648.411941
7 Jan 2020 04:39:23.000,210.521,7.173,1641.740426
7 Jan 2020 04:39:24.000,210.458,7.264,1635.072134
7 Jan 2020 04:39:25.000,210.394,7.354,1628.407116
7 Jan 2020 04:39:26.000,210.329,7.445,1621.745420
7 Jan 2020 04:39:27.000,210.264,7.537,1615.087095
7 Jan 2020 04:39:28.000,210.199,7.629,1608.432189
7 Jan 2020 04:39:29.000,210.132,7.722,1601.780753
7 Jan 2020 04:39:30.000,210.066,7.815,1595.132841
7 Jan 2020 04:39:31.000,209.998,7.908,1588.488504
7 Jan 2020 04:39:32.000,209.930,8.002,1581.847795
7 Jan 2020 04:39:33.000,209.861,8.097,1575.210766
7 Jan 2020 04:39:34.000,209.792,8.192,1568.577475
7 Jan 2020 04:39:35.000,209.722,8.288,1561.947977
7 Jan 2020 04:39:36.000,209.652,8.384,1555.322328
7 Jan 2020 04:39:37.000,209.580,8.480,1548.700584
7 Jan 2020 04:39:38.000,209.509,8.578,1542.082804
7 Jan 2020 04:39:39.000,209.436,8.675,1535.469050
7 Jan 2020 04:39:40.000,209.363,8.774,1528.859380
7 Jan 2020 04:39:41.000,209.289,8.873,1522.253855
7 Jan 2020 04:39:42.000,209.214,8.972,1515.652538
7 Jan 2020 04:39:43.000,209.139,9.072,1509.055490
7 Jan 2020 04:39:44.000,209.063,9.173,1502.462779
7 Jan 2020 04:39:45.000,208.986,9.274,1495.874469
7 Jan 2020 04:39:46.000,208.908,9.375,1489.290625
7 Jan 2020 04:39:47.000,208.830,9.478,1482.711316
7 Jan 2020 04:39:48.000,208.751,9.581,1476.136609
7 Jan 2020 04:39:49.000,208.671,9.684,1469.566575
7 Jan 2020 04:39:50.000,208.590,9.788,1463.001286
7 Jan 2020 04:39:51.000,208.509,9.893,1456.440812
7 Jan 2020 04:39:52.000,208.427,9.999,1449.885228
7 Jan 2020 04:39:53.000,208.344,10.105,1443.334606
7 Jan 2020 04:39:54.000,208.260,10.212,1436.789025
7 Jan 2020 04:39:55.000,208.175,10.319,1430.248560
7 Jan 2020 04:39:56.000,208.090,10.427,1423.713292
7 Jan 2020 04:39:57.000,208.003,10.536,1417.183298
7 Jan 2020 04:39:58.000,207.916,10.645,1410.658660
7 Jan 2020 04:39:59.000,207.828,10.755,1404.139460
7 Jan 2020 04:40:00.000,207.738,10.866,1397.625784
7 Jan 2020 04:40:01.000,207.648,10.977,1391.117717
7 Jan 2020 04:40:02.000,207.557,11.090,1384.615345
7 Jan 2020 04:40:03.000,207.465,11.202,1378.118757
7 Jan 2020 04:40:04.000,207.372,11.316,1371.628041
7 Jan 2020 04:40:05.000,207.279,11.430,1365.143293
7 Jan 2020 04:40:06.000,207.184,11.546,1358.664603
7 Jan 2020 04:40:07.000,207.088,11.661,1352.192068
7 Jan 2020 04:40:08.000,206.991,11.778,1345.725783
7 Jan 2020 04:40:09.000,206.893,11.896,1339.265847
7 Jan 2020 04:40:10.000,206.794,12.014,1332.812361
7 Jan 2020 04:40:11.000,206.694,12.133,1326.365424
7 Jan 2020 04:40:12.000,206.593,12.253,1319.925143
7 Jan 2020 04:40:13.000,206.491,12.373,1313.491624
7 Jan 2020 04:40:14.000,206.387,12.495,1307.064972
7 Jan 2020 04:40:15.000,206.283,12.617,1300.645299
7 Jan 2020 04:40:16.000,206.177,12.740,1294.232716
7 Jan 2020 04:40:17.000,206.070,12.864,1287.827336
7 Jan 2020 04:40:18.000,205.962,12.989,1281.429273
7 Jan 2020 04:40:19.000,205.853,13.114,1275.038649
7 Jan 2020 04:40:20.000,205.742,13.241,1268.655583
7 Jan 2020 04:40:21.000,205.631,13.368,1262.280196
7 Jan 2020 04:40:22.000,205.517,13.497,1255.912614
7 Jan 2020 04:40:23.000,205.403,13.626,1249.552963
7 Jan 2020 04:40:24.000,205.287,13.756,1243.201373
7 Jan 2020 04:40:25.000,205.170,13.888,1236.857977
7 Jan 2020 04:40:26.000,205.052,14.020,1230.522906
7 Jan 2020 04:40:27.000,204.932,14.153,1224.196301
7 Jan 2020 04:40:28.000,204.811,14.287,1217.878299
7 Jan 2020 04:40:29.000,204.689,14.422,1211.569045
7 Jan 2020 04:40:30.000,204.565,14.558,1205.268681
7 Jan 2020 04:40:31.000,204.439,14.695,1198.977356
7 Jan 2020 04:40:32.000,204.312,14.833,1192.695222
7 Jan 2020 04:40:33.000,204.184,14.972,1186.422430
7 Jan 2020 04:40:34.000,204.053,15.112,1180.159139
7 Jan 2020 04:40:35.000,203.922,15.254,1173.905508
7 Jan 2020 04:40:36.000,203.788,15.396,1167.661698
7 Jan 2020 04:40:37.000,203.653,15.539,1161.427878
7 Jan 2020 04:40:38.000,203.517,15.684,1155.204215
7 Jan 2020 04:40:39.000,203.378,15.829,1148.990884
7 Jan 2020 04:40:40.000,203.238,15.976,1142.788059
7 Jan 2020 04:40:41.000,203.097,16.124,1136.595920
7 Jan 2020 04:40:42.000,202.953,16.273,1130.414651
7 Jan 2020 04:40:43.000,202.808,16.423,1124.244437
7 Jan 2020 04:40:44.000,202.660,16.574,1118.085471
7 Jan 2020 04:40:45.000,202.511,16.727,1111.937946
7 Jan 2020 04:40:46.000,202.360,16.881,1105.802060
7 Jan 2020 04:40:47.000,202.207,17.036,1099.678016
7 Jan 2020 04:40:48.000,202.052,17.192,1093.566021
7 Jan 2020 04:40:49.000,201.895,17.349,1087.466284
7 Jan 2020 04:40:50.000,201.736,17.508,1081.379020
7 Jan 2020 04:40:51.000,201.574,17.668,1075.304450
7 Jan 2020 04:40:52.000,201.411,17.829,1069.242797
7 Jan 2020 04:40:53.000,201.245,17.992,1063.194288
7 Jan 2020 04:40:54.000,201.077,18.156,1057.159158
7 Jan 2020 04:40:55.000,200.907,18.321,1051.137643
7 Jan 2020 04:40:56.000,200.735,18.488,1045.129987
7 Jan 2020 04:40:57.000,200.560,18.656,1039.136438
7 Jan 2020 04:40:58.000,200.383,18.825,1033.157247
7 Jan 2020 04:40:59.000,200.203,18.996,1027.192674
7 Jan 2020 04:41:00.000,200.021,19.168,1021.242980
7 Jan 2020 04:41:01.000,199.836,19.341,1015.308437
7 Jan 2020 04:41:02.000,199.649,19.516,1009.389317
7 Jan 2020 04:41:03.000,199.459,19.693,1003.485901
7 Jan 2020 04:41:04.000,199.266,19.871,997.598475
7 Jan 2020 04:41:05.000,199.071,20.050,991.727331
7 Jan 2020 04:41:06.000,198.873,20.231,985.872768
7 Jan 2020 04:41:07.000,198.672,20.414,980.035088
7 Jan 2020 04:41:08.000,198.468,20.597,974.214604
7 Jan 2020 04:41:09.000,198.261,20.783,968.411631
7 Jan 2020 04:41:10.000,198.051,20.970,962.626495
7 Jan 2020 04:41:11.000,197.837,21.159,956.859525
7 Jan 2020 04:41:12.000,197.621,21.349,951.111059
7 Jan 2020 04:41:13.000,197.402,21.541,945.381442
7 Jan 2020 04:41:14.000,197.179,21.734,939.671025
7 Jan 2020 04:41:15.000,196.953,21.929,933.980168
7 Jan 2020 04:41:16.000,196.723,22.126,928.309237
7 Jan 2020 04:41:17.000,196.490,22.324,922.658607
7 Jan 2020 04:41:18.000,196.253,22.524,917.028660
7 Jan 2020 04:41:19.000,196.013,22.726,911.419785
7 Jan 2020 04:41:20.000,195.769,22.929,905.832382
7 Jan 2020 04:41:21.000,195.521,23.134,900.266857
7 Jan 2020 04:41:22.000,195.269,23.340,894.723624
7 Jan 2020 04:41:23.000,195.014,23.549,889.203108
7 Jan 2020 04:41:24.000,194.754,23.759,883.705743
7 Jan 2020 04:41:25.000,194.490,23.971,878.231967
7 Jan 2020 04:41:26.000,194.222,24.184,872.782232
7 Jan 2020 04:41:27.000,193.950,24.400,867.356999
7 Jan 2020 04:41:28.000,193.673,24.617,861.956736
7 Jan 2020 04:41:29.000,193.391,24.835,856.581923
7 Jan 2020 04:41:30.000,193.106,25.056,851.233047
7 Jan 2020 04:41:31.000,192.815,25.278,845.910607
7 Jan 2020 04:41:32.000,192.520,25.502,840.615113
7 Jan 2020 04:41:33.000,192.219,25.728,835.347083
7 Jan 2020 04:41:34.000,191.914,25.955,830.107047
7 Jan 2020 04:41:35.000,191.604,26.185,824.895543
7 Jan 2020 04:41:36.000,191.288,26.416,819.713124
7 Jan 2020 04:41:37.000,190.967,26.648,814.560350
7 Jan 2020 04:41:38.000,190.641,26.883,809.437795
7 Jan 2020 04:41:39.000,190.309,27.119,804.346041
7 Jan 2020 04:41:40.000,189.971,27.357,799.285683
7 Jan 2020 04:41:41.000,189.628,27.597,794.257329
7 Jan 2020 04:41:42.000,189.279,27.838,789.261595
7 Jan 2020 04:41:43.000,188.923,28.081,784.299111
7 Jan 2020 04:41:44.000,188.562,28.325,779.370519
7 Jan 2020 04:41:45.000,188.194,28.571,774.476471
7 Jan 2020 04:41:46.000,187.819,28.819,769.617633
7 Jan 2020 04:41:47.000,187.439,29.069,764.794681
7 Jan 2020 04:41:48.000,187.051,29.320,760.008306
7 Jan 2020 04:41:49.000,186.656,29.572,755.259207
7 Jan 2020 04:41:50.000,186.255,29.826,750.548099
7 Jan 2020 04:41:51.000,185.846,30.081,745.875707
7 Jan 2020 04:41:52.000,185.430,30.338,741.242769
7 Jan 2020 04:41:53.000,185.006,30.596,736.650035
7 Jan 2020 04:41:54.000,184.575,30.855,732.098268
7 Jan 2020 04:41:55.000,184.136,31.116,727.588242
7 Jan 2020 04:41:56.000,183.690,31.378,723.120744
7 Jan 2020 04:41:57.000,183.235,31.640,718.696571
7 Jan 2020 04:41:58.000,182.771,31.904,714.316536
7 Jan 2020 04:41:59.000,182.300,32.169,709.981459
7 Jan 2020 04:42:00.000,181.819,32.435,705.692176
7 Jan 2020 04:42:01.000,181.330,32.702,701.449530
7 Jan 2020 04:42:02.000,180.832,32.969,697.254380
7 Jan 2020 04:42:03.000,180.325,33.237,693.107591
7 Jan 2020 04:42:04.000,179.809,33.506,689.010044
7 Jan 2020 04:42:05.000,179.283,33.775,684.962626
7 Jan 2020 04:42:06.000,178.748,34.044,680.966237
7 Jan 2020 04:42:07.000,178.203,34.314,677.021785
7 Jan 2020 04:42:08.000,177.648,34.584,673.130188
7 Jan 2020 04:42:09.000,177.083,34.853,669.292373
7 Jan 2020 04:42:10.000,176.507,35.123,665.509274
7 Jan 2020 04:42:11.000,175.921,35.392,661.781836
7 Jan 2020 04:42:12.000,175.325,35.661,658.111009
7 Jan 2020 04:42:13.000,174.717,35.930,654.497749
7 Jan 2020 04:42:14.000,174.099,36.197,650.943019
7 Jan 2020 04:42:15.000,173.470,36.464,647.447790
7 Jan 2020 04:42:16.000,172.830,36.729,644.013032
7 Jan 2020 04:42:17.000,172.178,36.994,640.639724
7 Jan 2020 04:42:18.000,171.515,37.257,637.328845
7 Jan 2020 04:42:19.000,170.840,37.518,634.081378
7 Jan 2020 04:42:20.000,170.154,37.777,630.898305
7 Jan 2020 04:42:21.000,169.455,38.035,627.780610
7 Jan 2020 04:42:22.000,168.745,38.290,624.729277
7 Jan 2020 04:42:23.000,168.023,38.543,621.745285
7 Jan 2020 04:42:24.000,167.289,38.792,618.829613
7 Jan 2020 04:42:25.000,166.543,39.040,615.983235
7 Jan 2020 04:42:26.000,165.785,39.283,613.207118
7 Jan 2020 04:42:27.000,165.014,39.524,610.502226
7 Jan 2020 04:42:28.000,164.232,39.761,607.869512
7 Jan 2020 04:42:29.000,163.437,39.994,605.309922
7 Jan 2020 04:42:30.000,162.630,40.222,602.824390
7 Jan 2020 04:42:31.000,161.811,40.447,600.413838
7 Jan 2020 04:42:32.000,160.980,40.666,598.079178
7 Jan 2020 04:42:33.000,160.137,40.881,595.821303
7 Jan 2020 04:42:34.000,159.282,41.090,593.641094
7 Jan 2020 04:42:35.000,158.416,41.294,591.539411
7 Jan 2020 04:42:36.000,157.538,41.492,589.517097
7 Jan 2020 04:42:37.000,156.649,41.684,587.574975
7 Jan 2020 04:42:38.000,155.749,41.870,585.713843
7 Jan 2020 04:42:39.000,154.838,42.049,583.934480
7 Jan 2020 04:42:40.000,153.916,42.222,582.237638
7 Jan 2020 04:42:41.000,152.984,42.387,580.624041
7 Jan 2020 04:42:42.000,152.042,42.545,579.094389
7 Jan 2020 04:42:43.000,151.091,42.695,577.649349
7 Jan 2020 04:42:44.000,150.131,42.838,576.289562
7 Jan 2020 04:42:45.000,149.161,42.973,575.015631
7 Jan 2020 04:42:46.000,148.184,43.099,573.828133
7 Jan 2020 04:42:47.000,147.198,43.217,572.727605
7 Jan 2020 04:42:48.000,146.206,43.326,571.714551
7 Jan 2020 04:42:49.000,145.206,43.426,570.789441
7 Jan 2020 04:42:50.000,144.200,43.517,569.952700
7 Jan 2020 04:42:51.000,143.189,43.599,569.204722
7 Jan 2020 04:42:52.000,142.172,43.671,568.545857
7 Jan 2020 04:42:53.000,141.151,43.734,567.976419
7 Jan 2020 04:42:54.000,140.126,43.788,567.496675
7 Jan 2020 04:42:55.000,139.097,43.831,567.106853
7 Jan 2020 04:42:56.000,138.066,43.865,566.807141
7 Jan 2020 04:42:57.000,137.033,43.889,566.597682
7 Jan 2020 04:42:58.000,135.999,43.903,566.478577
7 Jan 2020 04:42:59.000,134.965,43.908,566.449883
7 Jan 2020 04:43:00.000,133.930,43.902,566.511614
7 Jan 2020 04:43:01.000,132.896,43.886,566.663741
7 Jan 2020 04:43:02.000,131.864,43.861,566.906190
7 Jan 2020 04:43:03.000,130.833,43.825,567.238847
7 Jan 2020 04:43:04.000,129.806,43.780,567.661551
7 Jan 2020 04:43:05.000,128.782,43.725,568.174103
7 Jan 2020 04:43:06.000,127.761,43.661,568.776256
7 Jan 2020 04:43:07.000,126.746,43.587,569.467730
7 Jan 2020 04:43:08.000,125.736,43.504,570.248198
7 Jan 2020 04:43:09.000,124.732,43.411,571.117293
7 Jan 2020 04:43:10.000,123.734,43.310,572.074609
7 Jan 2020 04:43:11.000,122.743,43.200,573.119707
7 Jan 2020 04:43:12.000,121.759,43.081,574.252105
7 Jan 2020 04:43:13.000,120.784,42.954,575.471284
7 Jan 2020 04:43:14.000,119.817,42.818,576.776697
7 Jan 2020 04:43:15.000,118.859,42.674,578.167753
7 Jan 2020 04:43:16.000,117.910,42.523,579.643840
7 Jan 2020 04:43:17.000,116.970,42.364,581.204305
7 Jan 2020 04:43:18.000,116.041,42.198,582.848468
7 Jan 2020 04:43:19.000,115.122,42.025,584.575622
7 Jan 2020 04:43:20.000,114.214,41.845,586.385034
7 Jan 2020 04:43:21.000,113.317,41.659,588.275939
7 Jan 2020 04:43:22.000,112.430,41.466,590.247556
7 Jan 2020 04:43:23.000,111.556,41.267,592.299072
7 Jan 2020 04:43:24.000,110.692,41.063,594.429661
7 Jan 2020 04:43:25.000,109.840,40.853,596.638472
7 Jan 2020 04:43:26.000,109.001,40.638,598.924640
7 Jan 2020 04:43:27.000,108.173,40.418,601.287276
7 Jan 2020 04:43:28.000,107.357,40.194,603.725481
7 Jan 2020 04:43:29.000,106.553,39.965,606.238341
7 Jan 2020 04:43:30.000,105.761,39.732,608.824929
7 Jan 2020 04:43:31.000,104.982,39.495,611.484309
7 Jan 2020 04:43:32.000,104.215,39.255,614.215528
7 Jan 2020 04:43:33.000,103.459,39.011,617.017629
7 Jan 2020 04:43:34.000,102.716,38.764,619.889650
7 Jan 2020 04:43:35.000,101.985,38.515,622.830620
7 Jan 2020 04:43:36.000,101.266,38.262,625.839564
7 Jan 2020 04:43:37.000,100.559,38.008,628.915501
7 Jan 2020 04:43:38.000,99.864,37.751,632.057452
7 Jan 2020 04:43:39.000,99.181,37.492,635.264432
7 Jan 2020 04:43:40.000,98.509,37.231,638.535459
7 Jan 2020 04:43:41.000,97.849,36.968,641.869549
7 Jan 2020 04:43:42.000,97.200,36.705,645.265718
7 Jan 2020 04:43:43.000,96.563,36.440,648.722993
7 Jan 2020 04:43:44.000,95.937,36.174,652.240396
7 Jan 2020 04:43:45.000,95.322,35.907,655.816954
7 Jan 2020 04:43:46.000,94.717,35.639,659.451703
7 Jan 2020 04:43:47.000,94.124,35.371,663.143679
7 Jan 2020 04:43:48.000,93.540,35.102,666.891927
7 Jan 2020 04:43:49.000,92.968,34.834,670.695503
7 Jan 2020 04:43:50.000,92.405,34.565,674.553465
7 Jan 2020 04:43:51.000,91.853,34.296,678.464877
7 Jan 2020 04:43:52.000,91.310,34.027,682.428823
7 Jan 2020 04:43:53.000,90.778,33.758,686.444383
7 Jan 2020 04:43:54.000,90.254,33.490,690.510651
7 Jan 2020 04:43:55.000,89.741,33.223,694.626736
7 Jan 2020 04:43:56.000,89.236,32.955,698.791752
7 Jan 2020 04:43:57.000,88.741,32.689,703.004819
7 Jan 2020 04:43:58.000,88.254,32.423,707.265082
7 Jan 2020 04:43:59.000,87.776,32.158,711.571680
7 Jan 2020 04:44:00.000,87.307,31.894,715.923780
7 Jan 2020 04:44:01.000,86.846,31.632,720.320548
7 Jan 2020 04:44:02.000,86.393,31.370,724.761162
7 Jan 2020 04:44:03.000,85.949,31.109,729.244824
7 Jan 2020 04:44:04.000,85.512,30.849,733.770733
7 Jan 2020 04:44:05.000,85.083,30.591,738.338112
7 Jan 2020 04:44:06.000,84.661,30.334,742.946186
7 Jan 2020 04:44:07.000,84.247,30.078,747.594202
7 Jan 2020 04:44:08.000,83.841,29.824,752.281408
7 Jan 2020 04:44:09.000,83.441,29.571,757.007075
7 Jan 2020 04:44:10.000,83.049,29.320,761.770485
7 Jan 2020 04:44:11.000,82.663,29.070,766.570921
7 Jan 2020 04:44:12.000,82.284,28.822,771.407693
7 Jan 2020 04:44:13.000,81.912,28.575,776.280111
7 Jan 2020 04:44:14.000,81.546,28.330,781.187504
7 Jan 2020 04:44:15.000,81.186,28.086,786.129215
7 Jan 2020 04:44:16.000,80.832,27.844,791.104589
7 Jan 2020 04:44:17.000,80.485,27.604,796.112992
7 Jan 2020 04:44:18.000,80.143,27.365,801.153803
7 Jan 2020 04:44:19.000,79.807,27.128,806.226400
7 Jan 2020 04:44:20.000,79.477,26.893,811.330185
7 Jan 2020 04:44:21.000,79.152,26.660,816.464570
7 Jan 2020 04:44:22.000,78.833,26.428,821.628970
7 Jan 2020 04:44:23.000,78.519,26.198,826.822819
7 Jan 2020 04:44:24.000,78.210,25.970,832.045559
7 Jan 2020 04:44:25.000,77.906,25.743,837.296647
7 Jan 2020 04:44:26.000,77.608,25.518,842.575541
7 Jan 2020 04:44:27.000,77.314,25.295,847.881718
7 Jan 2020 04:44:28.000,77.025,25.074,853.214662
7 Jan 2020 04:44:29.000,76.740,24.854,858.573873
7 Jan 2020 04:44:30.000,76.461,24.637,863.958848
7 Jan 2020 04:44:31.000,76.185,24.421,869.369106
7 Jan 2020 04:44:32.000,75.914,24.206,874.804171
7 Jan 2020 04:44:33.000,75.648,23.993,880.263578
7 Jan 2020 04:44:34.000,75.385,23.783,885.746873
7 Jan 2020 04:44:35.000,75.127,23.573,891.253602
7 Jan 2020 04:44:36.000,74.872,23.366,896.783331
7 Jan 2020 04:44:37.000,74.622,23.160,902.335630
7 Jan 2020 04:44:38.000,74.375,22.956,907.910078
7 Jan 2020 04:44:39.000,74.133,22.753,913.506265
7 Jan 2020 04:44:40.000,73.894,22.553,919.123785
7 Jan 2020 04:44:41.000,73.658,22.354,924.762247
7 Jan 2020 04:44:42.000,73.426,22.156,930.421257
7 Jan 2020 04:44:43.000,73.198,21.960,936.100439
7 Jan 2020 04:44:44.000,72.973,21.766,941.799422
7 Jan 2020 04:44:45.000,72.751,21.573,947.517841
7 Jan 2020 04:44:46.000,72.533,21.382,953.255340
7 Jan 2020 04:44:47.000,72.318,21.193,959.011570
7 Jan 2020 04:44:48.000,72.106,21.005,964.786188
7 Jan 2020 04:44:49.000,71.897,20.819,970.578861
7 Jan 2020 04:44:50.000,71.691,20.634,976.389259
7 Jan 2020 04:44:51.000,71.488,20.451,982.217061
7 Jan 2020 04:44:52.000,71.288,20.269,988.061956
7 Jan 2020 04:44:53.000,71.091,20.089,993.923629
7 Jan 2020 04:44:54.000,70.897,19.910,999.801782
7 Jan 2020 04:44:55.000,70.705,19.733,1005.696117
7 Jan 2020 04:44:56.000,70.517,19.557,1011.606346
7 Jan 2020 04:44:57.000,70.330,19.383,1017.532185
7 Jan 2020 04:44:58.000,70.147,19.210,1023.473355
7 Jan 2020 04:44:59.000,69.966,19.039,1029.429584
7 Jan 2020 04:45:00.000,69.787,18.868,1035.400605
7 Jan 2020 04:45:01.000,69.611,18.700,1041.386157
7 Jan 2020 04:45:02.000,69.437,18.532,1047.385984
7 Jan 2020 04:45:03.000,69.266,18.366,1053.399834
7 Jan 2020 04:45:04.000,69.097,18.202,1059.427462
7 Jan 2020 04:45:05.000,68.930,18.039,1065.468627
7 Jan 2020 04:45:06.000,68.765,17.877,1071.523093
7 Jan 2020 04:45:07.000,68.603,17.716,1077.590628
7 Jan 2020 04:45:08.000,68.442,17.556,1083.671006
7 Jan 2020 04:45:09.000,68.284,17.398,1089.764005
7 Jan 2020 04:45:10.000,68.128,17.241,1095.869407
7 Jan 2020 04:45:11.000,67.974,17.086,1101.986998
7 Jan 2020 04:45:12.000,67.822,16.931,1108.116570
7 Jan 2020 04:45:13.000,67.672,16.778,1114.257915
7 Jan 2020 04:45:14.000,67.523,16.626,1120.410838
7 Jan 2020 04:45:15.000,67.377,16.475,1126.575138
7 Jan 2020 04:45:16.000,67.233,16.326,1132.750624
7 Jan 2020 04:45:17.000,67.090,16.177,1138.937106
7 Jan 2020 04:45:18.000,66.949,16.030,1145.134397
7 Jan 2020 04:45:19.000,66.810,15.884,1151.342317
7 Jan 2020 04:45:20.000,66.672,15.739,1157.560688
7 Jan 2020 04:45:21.000,66.537,15.595,1163.789333
7 Jan 2020 04:45:22.000,66.403,15.452,1170.028083
7 Jan 2020 04:45:23.000,66.270,15.310,1176.276768
7 Jan 2020 04:45:24.000,66.140,15.169,1182.535224
7 Jan 2020 04:45:25.000,66.010,15.030,1188.803289
7 Jan 2020 04:45:26.000,65.883,14.891,1195.080805
7 Jan 2020 04:45:27.000,65.757,14.753,1201.367613
7 Jan 2020 04:45:28.000,65.632,14.617,1207.663566
7 Jan 2020 04:45:29.000,65.509,14.481,1213.968513
7 Jan 2020 04:45:30.000,65.387,14.347,1220.282306
7 Jan 2020 04:45:31.000,65.267,14.213,1226.604800
7 Jan 2020 04:45:32.000,65.148,14.080,1232.935856
7 Jan 2020 04:45:33.000,65.031,13.949,1239.275333
7 Jan 2020 04:45:34.000,64.914,13.818,1245.623096
7 Jan 2020 04:45:35.000,64.800,13.688,1251.979012
7 Jan 2020 04:45:36.000,64.686,13.559,1258.342946
7 Jan 2020 04:45:37.000,64.574,13.431,1264.714777
7 Jan 2020 04:45:38.000,64.463,13.304,1271.094374
7 Jan 2020 04:45:39.000,64.354,13.178,1277.481614
7 Jan 2020 04:45:40.000,64.245,13.053,1283.876375
7 Jan 2020 04:45:41.000,64.138,12.928,1290.278538
7 Jan 2020 04:45:42.000,64.032,12.805,1296.687985
7 Jan 2020 04:45:43.000,63.927,12.682,1303.104603
7 Jan 2020 04:45:44.000,63.824,12.560,1309.528273
7 Jan 2020 04:45:45.000,63.721,12.439,1315.958893
7 Jan 2020 04:45:46.000,63.620,12.319,1322.396350
7 Jan 2020 04:45:47.000,63.519,12.199,1328.840536
7 Jan 2020 04:45:48.000,63.420,12.081,1335.291348
7 Jan 2020 04:45:49.000,63.322,11.963,1341.748681
7 Jan 2020 04:45:50.000,63.225,11.846,1348.212431
7 Jan 2020 04:45:51.000,63.129,11.729,1354.682506
7 Jan 2020 04:45:52.000,63.034,11.614,1361.158803
7 Jan 2020 04:45:53.000,62.940,11.499,1367.641228
7 Jan 2020 04:45:54.000,62.847,11.385,1374.129686
7 Jan 2020 04:45:55.000,62.755,11.272,1380.624083
7 Jan 2020 04:45:56.000,62.664,11.159,1387.124330
7 Jan 2020 04:45:57.000,62.574,11.047,1393.630332
7 Jan 2020 04:45:58.000,62.484,10.936,1400.142010
7 Jan 2020 04:45:59.000,62.396,10.826,1406.659272
7 Jan 2020 04:46:00.000,62.309,10.716,1413.182035
7 Jan 2020 04:46:01.000,62.222,10.607,1419.710214
7 Jan 2020 04:46:02.000,62.137,10.498,1426.243724
7 Jan 2020 04:46:03.000,62.052,10.391,1432.782491
7 Jan 2020 04:46:04.000,61.968,10.284,1439.326433
7 Jan 2020 04:46:05.000,61.885,10.177,1445.875471
7 Jan 2020 04:46:06.000,61.803,10.071,1452.429530
7 Jan 2020 04:46:07.000,61.722,9.966,1458.988532
7 Jan 2020 04:46:08.000,61.641,9.862,1465.552402
7 Jan 2020 04:46:09.000,61.561,9.758,1472.121073
7 Jan 2020 04:46:10.000,61.482,9.654,1478.694469
7 Jan 2020 04:46:11.000,61.404,9.552,1485.272520
7 Jan 2020 04:46:12.000,61.327,9.450,1491.855158
7 Jan 2020 04:46:13.000,61.250,9.348,1498.442310
7 Jan 2020 04:46:14.000,61.174,9.247,1505.033915
7 Jan 2020 04:46:15.000,61.099,9.147,1511.629906
7 Jan 2020 04:46:16.000,61.024,9.047,1518.230216
7 Jan 2020 04:46:17.000,60.951,8.948,1524.834782
7 Jan 2020 04:46:18.000,60.878,8.849,1531.443537
7 Jan 2020 04:46:19.000,60.805,8.751,1538.056427
7 Jan 2020 04:46:20.000,60.733,8.654,1544.673387
7 Jan 2020 04:46:21.000,60.662,8.557,1551.294358
7 Jan 2020 04:46:22.000,60.592,8.460,1557.919279
7 Jan 2020 04:46:23.000,60.522,8.365,1564.548091
7 Jan 2020 04:46:24.000,60.453,8.269,1571.180743
7 Jan 2020 04:46:25.000,60.385,8.174,1577.817174
7 Jan 2020 04:46:26.000,60.317,8.080,1584.457331
7 Jan 2020 04:46:27.000,60.250,7.986,1591.101154
7 Jan 2020 04:46:28.000,60.183,7.893,1597.748597
7 Jan 2020 04:46:29.000,60.118,7.800,1604.399604
7 Jan 2020 04:46:30.000,60.052,7.708,1611.054123
7 Jan 2020 04:46:31.000,59.987,7.616,1617.712102
7 Jan 2020 04:46:32.000,59.923,7.524,1624.373488
7 Jan 2020 04:46:33.000,59.860,7.433,1631.038238
7 Jan 2020 04:46:34.000,59.797,7.343,1637.706300
7 Jan 2020 04:46:35.000,59.734,7.253,1644.377625
7 Jan 2020 04:46:36.000,59.672,7.163,1651.052167
7 Jan 2020 04:46:37.000,59.611,7.074,1657.729874
7 Jan 2020 04:46:38.000,59.550,6.986,1664.410708
7 Jan 2020 04:46:39.000,59.490,6.897,1671.094620
7 Jan 2020 04:46:40.000,59.430,6.810,1677.781565
7 Jan 2020 04:46:41.000,59.371,6.722,1684.471496
7 Jan 2020 04:46:42.000,59.312,6.635,1691.164376
7 Jan 2020 04:46:43.000,59.254,6.549,1697.860159
7 Jan 2020 04:46:44.000,59.196,6.463,1704.558804
7 Jan 2020 04:46:45.000,59.139,6.377,1711.260264
7 Jan 2020 04:46:46.000,59.082,6.292,1717.964506
7 Jan 2020 04:46:47.000,59.026,6.207,1724.671487
7 Jan 2020 04:46:48.000,58.970,6.123,1731.381165
7 Jan 2020 04:46:49.000,58.915,6.039,1738.093501
7 Jan 2020 04:46:50.000,58.860,5.955,1744.808459
7 Jan 2020 04:46:51.000,58.806,5.872,1751.526001
7 Jan 2020 04:46:52.000,58.752,5.789,1758.246087
7 Jan 2020 04:46:53.000,58.699,5.707,1764.968682
7 Jan 2020 04:46:54.000,58.646,5.624,1771.693745
7 Jan 2020 04:46:55.000,58.593,5.543,1778.421246
7 Jan 2020 04:46:56.000,58.541,5.461,1785.151148
7 Jan 2020 04:46:57.000,58.489,5.380,1791.883415
7 Jan 2020 04:46:58.000,58.438,5.300,1798.618009
7 Jan 2020 04:46:59.000,58.387,5.220,1805.354903
7 Jan 2020 04:47:00.000,58.337,5.140,1812.094060
7 Jan 2020 04:47:01.000,58.287,5.060,1818.835446
7 Jan 2020 04:47:02.000,58.237,4.981,1825.579027
7 Jan 2020 04:47:03.000,58.188,4.902,1832.324775
7 Jan 2020 04:47:04.000,58.139,4.823,1839.072657
7 Jan 2020 04:47:05.000,58.091,4.745,1845.822640
7 Jan 2020 04:47:06.000,58.042,4.667,1852.574691
7 Jan 2020 04:47:07.000,57.995,4.590,1859.328786
7 Jan 2020 04:47:08.000,57.947,4.513,1866.084890
7 Jan 2020 04:47:09.000,57.901,4.436,1872.842975
7 Jan 2020 04:47:10.000,57.854,4.359,1879.603008
7 Jan 2020 04:47:11.000,57.808,4.283,1886.364966
7 Jan 2020 04:47:12.000,57.762,4.207,1893.128817
7 Jan 2020 04:47:13.000,57.717,4.131,1899.894534
7 Jan 2020 04:47:14.000,57.671,4.056,1906.662085
7 Jan 2020 04:47:15.000,57.627,3.981,1913.431449
7 Jan 2020 04:47:16.000,57.582,3.906,1920.202595
7 Jan 2020 04:47:17.000,57.538,3.832,1926.975494
7 Jan 2020 04:47:18.000,57.494,3.758,1933.750126
7 Jan 2020 04:47:19.000,57.451,3.684,1940.526462
7 Jan 2020 04:47:20.000,57.408,3.610,1947.304474
7 Jan 2020 04:47:21.000,57.365,3.537,1954.084136
7 Jan 2020 04:47:22.000,57.323,3.464,1960.865428
7 Jan 2020 04:47:23.000,57.281,3.392,1967.648321
7 Jan 2020 04:47:24.000,57.239,3.319,1974.432793
7 Jan 2020 04:47:25.000,57.197,3.247,1981.218814
7 Jan 2020 04:47:26.000,57.156,3.175,1988.006368
7 Jan 2020 04:47:27.000,57.115,3.104,1994.795427
7 Jan 2020 04:47:28.000,57.075,3.032,2001.585969
7 Jan 2020 04:47:29.000,57.035,2.961,2008.377968
7 Jan 2020 04:47:30.000,56.995,2.890,2015.171405
7 Jan 2020 04:47:31.000,56.955,2.820,2021.966257
7 Jan 2020 04:47:32.000,56.916,2.750,2028.762501
7 Jan 2020 04:47:33.000,56.877,2.680,2035.560111
7 Jan 2020 04:47:34.000,56.838,2.610,2042.359072
7 Jan 2020 04:47:35.000,56.799,2.540,2049.159360
7 Jan 2020 04:47:36.000,56.761,2.471,2055.960950
7 Jan 2020 04:47:37.000,56.723,2.402,2062.763827
7 Jan 2020 04:47:38.000,56.686,2.333,2069.567969
7 Jan 2020 04:47:39.000,56.648,2.265,2076.373353
7 Jan 2020 04:47:40.000,56.611,2.196,2083.179957
7 Jan 2020 04:47:41.000,56.574,2.128,2089.987768
7 Jan 2020 04:47:42.000,56.538,2.060,2096.796761
7 Jan 2020 04:47:43.000,56.501,1.993,2103.606919
7 Jan 2020 04:47:44.000,56.465,1.925,2110.418217
7 Jan 2020 04:47:45.000,56.429,1.858,2117.230644
7 Jan 2020 04:47:46.000,56.394,1.791,2124.044177
7 Jan 2020 04:47:47.000,56.358,1.725,2130.858795
7 Jan 2020 04:47:48.000,56.323,1.658,2137.674485
7 Jan 2020 04:47:49.000,56.289,1.592,2144.491225
7 Jan 2020 04:47:50.000,56.254,1.526,2151.308999
7 Jan 2020 04:47:51.000,56.220,1.460,2158.127785
7 Jan 2020 04:47:52.000,56.185,1.395,2164.947571
7 Jan 2020 04:47:53.000,56.152,1.329,2171.768337
7 Jan 2020 04:47:54.000,56.118,1.264,2178.590065
7 Jan 2020 04:47:55.000,56.085,1.199,2185.412736
7 Jan 2020 04:47:56.000,56.051,1.134,2192.236339
7 Jan 2020 04:47:57.000,56.018,1.070,2199.060854
7 Jan 2020 04:47:58.000,55.986,1.005,2205.886260
7 Jan 2020 04:47:59.000,55.953,0.941,2212.712549
7 Jan 2020 04:48:00.000,55.921,0.877,2219.539701
7 Jan 2020 04:48:01.000,55.889,0.813,2226.367699
7 Jan 2020 04:48:02.000,55.857,0.750,2233.196526
7 Jan 2020 04:48:03.000,55.825,0.686,2240.026170
7 Jan 2020 04:48:04.000,55.794,0.623,2246.856615
7 Jan 2020 04:48:05.000,55.763,0.560,2253.687843
7 Jan 2020 04:48:06.000,55.732,0.498,2260.519838
7 Jan 2020 04:48:07.000,55.701,0.435,2267.352590
7 Jan 2020 04:48:08.000,55.670,0.372,2274.186081
7 Jan 2020 04:48:09.000,55.640,0.310,2281.020294
7 Jan 2020 04:48:10.000,55.610,0.248,2287.855219
7 Jan 2020 04:48:11.000,55.580,0.186,2294.690840
7 Jan 2020 04:48:12.000,55.550,0.125,2301.527142
7 Jan 2020 04:48:13.000,55.521,0.063,2308.364108
7 Jan 2020 04:48:14.000,55.491,0.002,2315.201731
7 Jan 2020 04:48:14.932,55.464,-0.055,2321.575420
7 Jan 2020 06:14:37.742,262.751,-0.056,2315.503645
7 Jan 2020 06:14:38.000,262.771,-0.041,2313.877030
7 Jan 2020 06:14:39.000,262.846,0.016,2307.562177
7 Jan 2020 06:14:40.000,262.922,0.073,2301.250650
7 Jan 2020 06:14:41.000,262.998,0.130,2294.942483
7 Jan 2020 06:14:42.000,263.074,0.187,2288.637708
7 Jan 2020 06:14:43.000,263.151,0.244,2282.336367
7 Jan 2020 06:14:44.000,263.228,0.302,2276.038493
7 Jan 2020 06:14:45.000,263.306,0.360,2269.744121
7 Jan 2020 06:14:46.000,263.384,0.417,2263.453288
7 Jan 2020 06:14:47.000,263.462,0.475,2257.166030
7 Jan 2020 06:14:48.000,263.541,0.533,2250.882384
7 Jan 2020 06:14:49.000,263.621,0.591,2244.602389
7 Jan 2020 06:14:50.000,263.700,0.649,2238.326082
7 Jan 2020 06:14:51.000,263.781,0.708,2232.053501
7 Jan 2020 06:14:52.000,263.861,0.766,2225.784681
7 Jan 2020 06:14:53.000,263.942,0.825,2219.519669
7 Jan 2020 06:14:54.000,264.024,0.884,2213.258499
7 Jan 2020 06:14:55.000,264.106,0.943,2207.001213
7 Jan 2020 06:14:56.000,264.189,1.002,2200.747850
7 Jan 2020 06:14:57.000,264.271,1.061,2194.498451
7 Jan 2020 06:14:58.000,264.355,1.120,2188.253057
7 Jan 2020 06:14:59.000,264.439,1.180,2182.011710
7 Jan 2020 06:15:00.000,264.523,1.240,2175.774451
7 Jan 2020 06:15:01.000,264.608,1.299,2169.541322
7 Jan 2020 06:15:02.000,264.693,1.359,2163.312367
7 Jan 2020 06:15:03.000,264.779,1.419,2157.087629
7 Jan 2020 06:15:04.000,264.865,1.480,2150.867148
7 Jan 2020 06:15:05.000,264.952,1.540,2144.650974
7 Jan 2020 06:15:06.000,265.039,1.600,2138.439150
7 Jan 2020 06:15:07.000,265.127,1.661,2132.231720
7 Jan 2020 06:15:08.000,265.215,1.722,2126.028730
7 Jan 2020 06:15:09.000,265.304,1.783,2119.830225
7 Jan 2020 06:15:10.000,265.393,1.844,2113.636252
7 Jan 2020 06:15:11.000,265.483,1.905,2107.446859
7 Jan 2020 06:15:12.000,265.573,1.967,2101.262092
7 Jan 2020 06:15:13.000,265.664,2.028,2095.082000
7 Jan 2020 06:15:14.000,265.755,2.090,2088.906631
7 Jan 2020 06:15:15.000,265.847,2.152,2082.736034
7 Jan 2020 06:15:16.000,265.940,2.214,2076.570259
7 Jan 2020 06:15:17.000,266.033,2.276,2070.409355
7 Jan 2020 06:15:18.000,266.126,2.339,2064.253374
7 Jan 2020 06:15:19.000,266.220,2.401,2058.102366
7 Jan 2020 06:15:20.000,266.315,2.464,2051.956379
7 Jan 2020 06:15:21.000,266.410,2.527,2045.815474
7 Jan 2020 06:15:22.000,266.506,2.590,2039.679698
7 Jan 2020 06:15:23.000,266.602,2.653,2033.549106
7 Jan 2020 06:15:24.000,266.699,2.716,2027.423752
7 Jan 2020 06:15:25.000,266.797,2.780,2021.303690
7 Jan 2020 06:15:26.000,266.895,2.843,2015.188975
7 Jan 2020 06:15:27.000,266.993,2.907,2009.079663
7 Jan 2020 06:15:28.000,267.093,2.971,2002.975810
7 Jan 2020 06:15:29.000,267.192,3.035,1996.877473
7 Jan 2020 06:15:30.000,267.293,3.100,1990.784710
7 Jan 2020 06:15:31.000,267.394,3.164,1984.697579
7 Jan 2020 06:15:32.000,267.496,3.229,1978.616139
7 Jan 2020 06:15:33.000,267.598,3.294,1972.540449
7 Jan 2020 06:15:34.000,267.701,3.359,1966.470570
7 Jan 2020 06:15:35.000,267.805,3.424,1960.406562
7 Jan 2020 06:15:36.000,267.909,3.489,1954.348487
7 Jan 2020 06:15:37.000,268.014,3.555,1948.296407
7 Jan 2020 06:15:38.000,268.119,3.621,1942.250385
7 Jan 2020 06:15:39.000,268.225,3.686,1936.210484
7 Jan 2020 06:15:40.000,268.332,3.753,1930.176769
7 Jan 2020 06:15:41.000,268.440,3.819,1924.149305
7 Jan 2020 06:15:42.000,268.548,3.885,1918.128157
7 Jan 2020 06:15:43.000,268.657,3.952,1912.113392
7 Jan 2020 06:15:44.000,268.766,4.019,1906.105077
7 Jan 2020 06:15:45.000,268.877,4.086,1900.103281
7 Jan 2020 06:15:46.000,268.988,4.153,1894.108071
7 Jan 2020 06:15:47.000,269.099,4.220,1888.119517
7 Jan 2020 06:15:48.000,269.212,4.288,1882.137690
7 Jan 2020 06:15:49.000,269.325,4.356,1876.162660
7 Jan 2020 06:15:50.000,269.439,4.424,1870.194501
7 Jan 2020 06:15:51.000,269.553,4.492,1864.233283
7 Jan 2020 06:15:52.000,269.669,4.560,1858.279081
7 Jan 2020 06:15:53.000,269.785,4.629,1852.331969
7 Jan 2020 06:15:54.000,269.901,4.697,1846.392022
7 Jan 2020 06:15:55.000,270.019,4.766,1840.459317
7 Jan 2020 06:15:56.000,270.137,4.835,1834.533930
7 Jan 2020 06:15:57.000,270.256,4.905,1828.615939
7 Jan 2020 06:15:58.000,270.376,4.974,1822.705423
7 Jan 2020 06:15:59.000,270.497,5.044,1816.802461
7 Jan 2020 06:16:00.000,270.618,5.114,1810.907134
7 Jan 2020 06:16:01.000,270.741,5.184,1805.019523
7 Jan 2020 06:16:02.000,270.864,5.254,1799.139711
7 Jan 2020 06:16:03.000,270.988,5.324,1793.267780
7 Jan 2020 06:16:04.000,271.112,5.395,1787.403816
7 Jan 2020 06:16:05.000,271.238,5.466,1781.547904
7 Jan 2020 06:16:06.000,271.364,5.537,1775.700129
7 Jan 2020 06:16:07.000,271.492,5.608,1769.860579
7 Jan 2020 06:16:08.000,271.620,5.680,1764.029342
7 Jan 2020 06:16:09.000,271.749,5.751,1758.206508
7 Jan 2020 06:16:10.000,271.878,5.823,1752.392166
7 Jan 2020 06:16:11.000,272.009,5.896,1746.586412
7 Jan 2020 06:16:12.000,272.141,5.968,1740.789330
7 Jan 2020 06:16:13.000,272.273,6.040,1735.001019
7 Jan 2020 06:16:14.000,272.407,6.113,1729.221572
7 Jan 2020 06:16:15.000,272.541,6.186,1723.451084
7 Jan 2020 06:16:16.000,272.676,6.259,1717.689654
7 Jan 2020 06:16:17.000,272.812,6.333,1711.937378
7 Jan 2020 06:16:18.000,272.950,6.406,1706.194356
7 Jan 2020 06:16:19.000,273.088,6.480,1700.460688
7 Jan 2020 06:16:20.000,273.227,6.554,1694.736475
7 Jan 2020 06:16:21.000,273.367,6.628,1689.021820
7 Jan 2020 06:16:22.000,273.507,6.702,1683.316827
7 Jan 2020 06:16:23.000,273.649,6.777,1677.621603
7 Jan 2020 06:16:24.000,273.792,6.852,1671.936248
7 Jan 2020 06:16:25.000,273.936,6.927,1666.260874
7 Jan 2020 06:16:26.000,274.081,7.002,1660.595588
7 Jan 2020 06:16:27.000,274.227,7.078,1654.940501
7 Jan 2020 06:16:28.000,274.374,7.154,1649.295723
7 Jan 2020 06:16:29.000,274.522,7.229,1643.661368
7 Jan 2020 06:16:30.000,274.671,7.306,1638.037548
7 Jan 2020 06:16:31.000,274.821,7.382,1632.424381
7 Jan 2020 06:16:32.000,274.973,7.459,1626.821984
7 Jan 2020 06:16:33.000,275.125,7.535,1621.230470
7 Jan 2020 06:16:34.000,275.278,7.612,1615.649960
7 Jan 2020 06:16:35.000,275.433,7.690,1610.080576
7 Jan 2020 06:16:36.000,275.588,7.767,1604.522440
7 Jan 2020 06:16:37.000,275.745,7.845,1598.975675
7 Jan 2020 06:16:38.000,275.903,7.923,1593.440405
7 Jan 2020 06:16:39.000,276.062,8.001,1587.916762
7 Jan 2020 06:16:40.000,276.222,8.079,1582.404865
7 Jan 2020 06:16:41.000,276.383,8.158,1576.904848
7 Jan 2020 06:16:42.000,276.545,8.236,1571.416841
7 Jan 2020 06:16:43.000,276.709,8.315,1565.940977
7 Jan 2020 06:16:44.000,276.874,8.395,1560.477390
7 Jan 2020 06:16:45.000,277.040,8.474,1555.026218
7 Jan 2020 06:16:46.000,277.207,8.554,1549.587592
7 Jan 2020 06:16:47.000,277.376,8.633,1544.161654
7 Jan 2020 06:16:48.000,277.545,8.714,1538.748543
7 Jan 2020 06:16:49.000,277.716,8.794,1533.348403
7 Jan 2020 06:16:50.000,277.889,8.874,1527.961379
7 Jan 2020 06:16:51.000,278.062,8.955,1522.587611
7 Jan 2020 06:16:52.000,278.237,9.036,1517.227247
7 Jan 2020 06:16:53.000,278.413,9.117,1511.880438
7 Jan 2020 06:16:54.000,278.590,9.198,1506.547332
7 Jan 2020 06:16:55.000,278.769,9.280,1501.228087
7 Jan 2020 06:16:56.000,278.949,9.362,1495.922847
7 Jan 2020 06:16:57.000,279.130,9.444,1490.631772
7 Jan 2020 06:16:58.000,279.313,9.526,1485.355020
7 Jan 2020 06:16:59.000,279.497,9.608,1480.092753
7 Jan 2020 06:17:00.000,279.683,9.691,1474.845124
7 Jan 2020 06:17:01.000,279.870,9.774,1469.612300
7 Jan 2020 06:17:02.000,280.058,9.857,1464.394445
7 Jan 2020 06:17:03.000,280.248,9.940,1459.191730
7 Jan 2020 06:17:04.000,280.439,10.023,1454.004315
7 Jan 2020 06:17:05.000,280.631,10.107,1448.832373
7 Jan 2020 06:17:06.000,280.825,10.191,1443.676078
7 Jan 2020 06:17:07.000,281.021,10.275,1438.535605
7 Jan 2020 06:17:08.000,281.218,10.359,1433.411125
7 Jan 2020 06:17:09.000,281.416,10.444,1428.302819
7 Jan 2020 06:17:10.000,281.616,10.528,1423.210869
7 Jan 2020 06:17:11.000,281.818,10.613,1418.135450
7 Jan 2020 06:17:12.000,282.021,10.698,1413.076750
7 Jan 2020 06:17:13.000,282.226,10.783,1408.034955
7 Jan 2020 06:17:14.000,282.432,10.868,1403.010255
7 Jan 2020 06:17:15.000,282.640,10.954,1398.002834
7 Jan 2020 06:17:16.000,282.849,11.039,1393.012886
7 Jan 2020 06:17:17.000,283.060,11.125,1388.040610
7 Jan 2020 06:17:18.000,283.273,11.211,1383.086194
7 Jan 2020 06:17:19.000,283.487,11.298,1378.149840
7 Jan 2020 06:17:20.000,283.703,11.384,1373.231751
7 Jan 2020 06:17:21.000,283.920,11.470,1368.332123
7 Jan 2020 06:17:22.000,284.139,11.557,1363.451167
7 Jan 2020 06:17:23.000,284.360,11.644,1358.589083
7 Jan 2020 06:17:24.000,284.583,11.731,1353.746082
7 Jan 2020 06:17:25.000,284.807,11.818,1348.922380
7 Jan 2020 06:17:26.000,285.033,11.905,1344.118182
7 Jan 2020 06:17:27.000,285.261,11.993,1339.333710
7 Jan 2020 06:17:28.000,285.490,12.080,1334.569175
7 Jan 2020 06:17:29.000,285.722,12.168,1329.824799
7 Jan 2020 06:17:30.000,285.955,12.255,1325.100808
7 Jan 2020 06:17:31.000,286.190,12.343,1320.397419
7 Jan 2020 06:17:32.000,286.426,12.431,1315.714865
7 Jan 2020 06:17:33.000,286.665,12.519,1311.053366
7 Jan 2020 06:17:34.000,286.905,12.608,1306.413161
7 Jan 2020 06:17:35.000,287.148,12.696,1301.794475
7 Jan 2020 06:17:36.000,287.392,12.784,1297.197547
7 Jan 2020 06:17:37.000,287.638,12.873,1292.622617
7 Jan 2020 06:17:38.000,287.885,12.961,1288.069918
7 Jan 2020 06:17:39.000,288.135,13.050,1283.539697
7 Jan 2020 06:17:40.000,288.387,13.139,1279.032192
7 Jan 2020 06:17:41.000,288.641,13.227,1274.547655
7 Jan 2020 06:17:42.000,288.896,13.316,1270.086329
7 Jan 2020 06:17:43.000,289.154,13.405,1265.648469
7 Jan 2020 06:17:44.000,289.413,13.494,1261.234321
7 Jan 2020 06:17:45.000,289.675,13.583,1256.844148
7 Jan 2020 06:17:46.000,289.938,13.672,1252.478198
7 Jan 2020 06:17:47.000,290.204,13.761,1248.136738
7 Jan 2020 06:17:48.000,290.471,13.849,1243.820024
7 Jan 2020 06:17:49.000,290.741,13.938,1239.528318
7 Jan 2020 06:17:50.000,291.013,14.027,1235.261891
7 Jan 2020 06:17:51.000,291.286,14.116,1231.021004
7 Jan 2020 06:17:52.000,291.562,14.205,1226.805932
7 Jan 2020 06:17:53.000,291.840,14.294,1222.616941
7 Jan 2020 06:17:54.000,292.120,14.383,1218.454310
7 Jan 2020 06:17:55.000,292.402,14.471,1214.318313
7 Jan 2020 06:17:56.000,292.687,14.560,1210.209222
7 Jan 2020 06:17:57.000,292.973,14.649,1206.127324
7 Jan 2020 06:17:58.000,293.262,14.737,1202.072897
7 Jan 2020 06:17:59.000,293.552,14.825,1198.046222
7 Jan 2020 06:18:00.000,293.845,14.914,1194.047588
7 Jan 2020 06:18:01.000,294.140,15.002,1190.077281
7 Jan 2020 06:18:02.000,294.438,15.090,1186.135585
7 Jan 2020 06:18:03.000,294.737,15.178,1182.222798
7 Jan 2020 06:18:04.000,295.039,15.265,1178.339207
7 Jan 2020 06:18:05.000,295.343,15.353,1174.485105
7 Jan 2020 06:18:06.000,295.649,15.440,1170.660791
7 Jan 2020 06:18:07.000,295.957,15.527,1166.866561
7 Jan 2020 06:18:08.000,296.268,15.614,1163.102712
7 Jan 2020 06:18:09.000,296.581,15.701,1159.369541
7 Jan 2020 06:18:10.000,296.896,15.787,1155.667356
7 Jan 2020 06:18:11.000,297.213,15.874,1151.996456
7 Jan 2020 06:18:12.000,297.533,15.960,1148.357145
7 Jan 2020 06:18:13.000,297.855,16.045,1144.749725
7 Jan 2020 06:18:14.000,298.179,16.131,1141.174508
7 Jan 2020 06:18:15.000,298.505,16.216,1137.631798
7 Jan 2020 06:18:16.000,298.834,16.300,1134.121904
7 Jan 2020 06:18:17.000,299.165,16.385,1130.645136
7 Jan 2020 06:18:18.000,299.499,16.469,1127.201802
7 Jan 2020 06:18:19.000,299.835,16.552,1123.792211
7 Jan 2020 06:18:20.000,300.173,16.636,1120.416681
7 Jan 2020 06:18:21.000,300.513,16.718,1117.075521
7 Jan 2020 06:18:22.000,300.856,16.801,1113.769043
7 Jan 2020 06:18:23.000,301.200,16.883,1110.497560
7 Jan 2020 06:18:24.000,301.548,16.964,1107.261387
7 Jan 2020 06:18:25.000,301.897,17.045,1104.060837
7 Jan 2020 06:18:26.000,302.249,17.126,1100.896224
7 Jan 2020 06:18:27.000,302.603,17.206,1097.767862
7 Jan 2020 06:18:28.000,302.960,17.286,1094.676064
7 Jan 2020 06:18:29.000,303.319,17.364,1091.621146
7 Jan 2020 06:18:30.000,303.680,17.443,1088.603419
7 Jan 2020 06:18:31.000,304.043,17.521,1085.623198
7 Jan 2020 06:18:32.000,304.409,17.598,1082.680795
7 Jan 2020 06:18:33.000,304.777,17.674,1079.776522
7 Jan 2020 06:18:34.000,305.147,17.750,1076.910691
7 Jan 2020 06:18:35.000,305.519,17.826,1074.083612
7 Jan 2020 06:18:36.000,305.894,17.900,1071.295594
7 Jan 2020 06:18:37.000,306.271,17.974,1068.546947
7 Jan 2020 06:18:38.000,306.650,18.047,1065.837977
7 Jan 2020 06:18:39.000,307.031,18.120,1063.168991
7 Jan 2020 06:18:40.000,307.415,18.191,1060.540293
7 Jan 2020 06:18:41.000,307.801,18.262,1057.952185
7 Jan 2020 06:18:42.000,308.189,18.332,1055.404970
7 Jan 2020 06:18:43.000,308.579,18.401,1052.898948
7 Jan 2020 06:18:44.000,308.971,18.470,1050.434412
7 Jan 2020 06:18:45.000,309.365,18.537,1048.011659
7 Jan 2020 06:18:46.000,309.762,18.604,1045.630983
7 Jan 2020 06:18:47.000,310.160,18.669,1043.292673
7 Jan 2020 06:18:48.000,310.561,18.734,1040.997020
7 Jan 2020 06:18:49.000,310.964,18.798,1038.744303
7 Jan 2020 06:18:50.000,311.368,18.861,1036.534808
7 Jan 2020 06:18:51.000,311.775,18.923,1034.368813
7 Jan 2020 06:18:52.000,312.184,18.984,1032.246596
7 Jan 2020 06:18:53.000,312.594,19.043,1030.168426
7 Jan 2020 06:18:54.000,313.007,19.102,1028.134573
7 Jan 2020 06:18:55.000,313.421,19.160,1026.145306
7 Jan 2020 06:18:56.000,313.838,19.216,1024.200880
7 Jan 2020 06:18:57.000,314.256,19.272,1022.301557
7 Jan 2020 06:18:58.000,314.676,19.326,1020.447592
7 Jan 2020 06:18:59.000,315.097,19.379,1018.639229
7 Jan 2020 06:19:00.000,315.521,19.431,1016.876716
7 Jan 2020 06:19:01.000,315.946,19.482,1015.160296
7 Jan 2020 06:19:02.000,316.373,19.532,1013.490199
7 Jan 2020 06:19:03.000,316.801,19.580,1011.866660
7 Jan 2020 06:19:04.000,317.231,19.627,1010.289902
7 Jan 2020 06:19:05.000,317.663,19.673,1008.760150
7 Jan 2020 06:19:06.000,318.096,19.718,1007.277613
7 Jan 2020 06:19:07.000,318.531,19.761,1005.842507
7 Jan 2020 06:19:08.000,318.967,19.803,1004.455032
7 Jan 2020 06:19:09.000,319.405,19.844,1003.115391
7 Jan 2020 06:19:10.000,319.843,19.883,1001.823771
7 Jan 2020 06:19:11.000,320.284,19.921,1000.580366
7 Jan 2020 06:19:12.000,320.725,19.957,999.385352
7 Jan 2020 06:19:13.000,321.168,19.993,998.238904
7 Jan 2020 06:19:14.000,321.612,20.026,997.141192
7 Jan 2020 06:19:15.000,322.057,20.059,996.092376
7 Jan 2020 06:19:16.000,322.503,20.089,995.092614
7 Jan 2020 06:19:17.000,322.950,20.119,994.142053
7 Jan 2020 06:19:18.000,323.398,20.147,993.240833
7 Jan 2020 06:19:19.000,323.847,20.173,992.389093
7 Jan 2020 06:19:20.000,324.297,20.198,991.586958
7 Jan 2020 06:19:21.000,324.748,20.222,990.834549
7 Jan 2020 06:19:22.000,325.199,20.244,990.131979
7 Jan 2020 06:19:23.000,325.652,20.264,989.479358
7 Jan 2020 06:19:24.000,326.105,20.283,988.876782
7 Jan 2020 06:19:25.000,326.558,20.301,988.324344
7 Jan 2020 06:19:26.000,327.013,20.316,987.822127
7 Jan 2020 06:19:27.000,327.467,20.331,987.370207
7 Jan 2020 06:19:28.000,327.923,20.344,986.968656
7 Jan 2020 06:19:29.000,328.378,20.355,986.617533
7 Jan 2020 06:19:30.000,328.834,20.364,986.316893
7 Jan 2020 06:19:31.000,329.291,20.372,986.066782
7 Jan 2020 06:19:32.000,329.747,20.379,985.867237
7 Jan 2020 06:19:33.000,330.204,20.384,985.718290
