vcc_sched/network/input/aer_wff_wff_vcc-a_44428.csv

"Time (UTCG)","Azimuth (deg)","Elevation (deg)","Range (km)"
3 Feb 2020 16:56:47.496,200.399,-0.079,2313.948335
3 Feb 2020 16:56:48.000,200.365,-0.049,2310.696766
3 Feb 2020 16:56:49.000,200.299,0.009,2304.242609
3 Feb 2020 16:56:50.000,200.232,0.067,2297.791347
3 Feb 2020 16:56:51.000,200.164,0.126,2291.343014
3 Feb 2020 16:56:52.000,200.097,0.184,2284.897644
3 Feb 2020 16:56:53.000,200.029,0.243,2278.455268
3 Feb 2020 16:56:54.000,199.960,0.302,2272.015920
3 Feb 2020 16:56:55.000,199.891,0.361,2265.579633
3 Feb 2020 16:56:56.000,199.822,0.420,2259.146443
3 Feb 2020 16:56:57.000,199.752,0.479,2252.716382
3 Feb 2020 16:56:58.000,199.682,0.539,2246.289487
3 Feb 2020 16:56:59.000,199.611,0.598,2239.865793
3 Feb 2020 16:57:00.000,199.540,0.658,2233.445335
3 Feb 2020 16:57:01.000,199.469,0.718,2227.028148
3 Feb 2020 16:57:02.000,199.397,0.778,2220.614270
3 Feb 2020 16:57:03.000,199.325,0.838,2214.203737
3 Feb 2020 16:57:04.000,199.252,0.898,2207.796584
3 Feb 2020 16:57:05.000,199.179,0.959,2201.392853
3 Feb 2020 16:57:06.000,199.106,1.020,2194.992578
3 Feb 2020 16:57:07.000,199.032,1.080,2188.595799
3 Feb 2020 16:57:08.000,198.958,1.141,2182.202554
3 Feb 2020 16:57:09.000,198.883,1.202,2175.812883
3 Feb 2020 16:57:10.000,198.807,1.264,2169.426824
3 Feb 2020 16:57:11.000,198.732,1.325,2163.044418
3 Feb 2020 16:57:12.000,198.655,1.387,2156.665703
3 Feb 2020 16:57:13.000,198.579,1.449,2150.290724
3 Feb 2020 16:57:14.000,198.502,1.510,2143.919520
3 Feb 2020 16:57:15.000,198.424,1.573,2137.552132
3 Feb 2020 16:57:16.000,198.346,1.635,2131.188602
3 Feb 2020 16:57:17.000,198.267,1.697,2124.828974
3 Feb 2020 16:57:18.000,198.188,1.760,2118.473291
3 Feb 2020 16:57:19.000,198.109,1.822,2112.121594
3 Feb 2020 16:57:20.000,198.028,1.885,2105.773929
3 Feb 2020 16:57:21.000,197.948,1.948,2099.430341
3 Feb 2020 16:57:22.000,197.867,2.012,2093.090873
3 Feb 2020 16:57:23.000,197.785,2.075,2086.755573
3 Feb 2020 16:57:24.000,197.703,2.139,2080.424484
3 Feb 2020 16:57:25.000,197.621,2.203,2074.097654
3 Feb 2020 16:57:26.000,197.537,2.266,2067.775130
3 Feb 2020 16:57:27.000,197.454,2.331,2061.456960
3 Feb 2020 16:57:28.000,197.370,2.395,2055.143190
3 Feb 2020 16:57:29.000,197.285,2.459,2048.833869
3 Feb 2020 16:57:30.000,197.200,2.524,2042.529047
3 Feb 2020 16:57:31.000,197.114,2.589,2036.228774
3 Feb 2020 16:57:32.000,197.027,2.654,2029.933100
3 Feb 2020 16:57:33.000,196.941,2.719,2023.642075
3 Feb 2020 16:57:34.000,196.853,2.784,2017.355750
3 Feb 2020 16:57:35.000,196.765,2.850,2011.074178
3 Feb 2020 16:57:36.000,196.676,2.916,2004.797410
3 Feb 2020 16:57:37.000,196.587,2.982,1998.525501
3 Feb 2020 16:57:38.000,196.497,3.048,1992.258503
3 Feb 2020 16:57:39.000,196.407,3.114,1985.996470
3 Feb 2020 16:57:40.000,196.316,3.181,1979.739459
3 Feb 2020 16:57:41.000,196.225,3.247,1973.487524
3 Feb 2020 16:57:42.000,196.132,3.314,1967.240721
3 Feb 2020 16:57:43.000,196.040,3.381,1960.999108
3 Feb 2020 16:57:44.000,195.946,3.449,1954.762741
3 Feb 2020 16:57:45.000,195.852,3.516,1948.531679
3 Feb 2020 16:57:46.000,195.758,3.584,1942.305981
3 Feb 2020 16:57:47.000,195.662,3.652,1936.085706
3 Feb 2020 16:57:48.000,195.567,3.720,1929.870915
3 Feb 2020 16:57:49.000,195.470,3.788,1923.661667
3 Feb 2020 16:57:50.000,195.373,3.857,1917.458025
3 Feb 2020 16:57:51.000,195.275,3.926,1911.260052
3 Feb 2020 16:57:52.000,195.176,3.994,1905.067808
3 Feb 2020 16:57:53.000,195.077,4.064,1898.881360
3 Feb 2020 16:57:54.000,194.977,4.133,1892.700771
3 Feb 2020 16:57:55.000,194.877,4.203,1886.526108
3 Feb 2020 16:57:56.000,194.776,4.272,1880.357434
3 Feb 2020 16:57:57.000,194.674,4.342,1874.194818
3 Feb 2020 16:57:58.000,194.571,4.412,1868.038328
3 Feb 2020 16:57:59.000,194.468,4.483,1861.888030
3 Feb 2020 16:58:00.000,194.364,4.554,1855.743996
3 Feb 2020 16:58:01.000,194.259,4.624,1849.606294
3 Feb 2020 16:58:02.000,194.153,4.695,1843.474996
3 Feb 2020 16:58:03.000,194.047,4.767,1837.350174
3 Feb 2020 16:58:04.000,193.940,4.838,1831.231899
3 Feb 2020 16:58:05.000,193.832,4.910,1825.120246
3 Feb 2020 16:58:06.000,193.724,4.982,1819.015289
3 Feb 2020 16:58:07.000,193.615,5.054,1812.917103
3 Feb 2020 16:58:08.000,193.504,5.127,1806.825764
3 Feb 2020 16:58:09.000,193.394,5.199,1800.741349
3 Feb 2020 16:58:10.000,193.282,5.272,1794.663937
3 Feb 2020 16:58:11.000,193.170,5.345,1788.593607
3 Feb 2020 16:58:12.000,193.056,5.419,1782.530437
3 Feb 2020 16:58:13.000,192.942,5.492,1776.474509
3 Feb 2020 16:58:14.000,192.828,5.566,1770.425906
3 Feb 2020 16:58:15.000,192.712,5.640,1764.384708
3 Feb 2020 16:58:16.000,192.595,5.714,1758.351002
3 Feb 2020 16:58:17.000,192.478,5.789,1752.324872
3 Feb 2020 16:58:18.000,192.360,5.864,1746.306403
3 Feb 2020 16:58:19.000,192.241,5.939,1740.295683
3 Feb 2020 16:58:20.000,192.121,6.014,1734.292799
3 Feb 2020 16:58:21.000,192.000,6.090,1728.297841
3 Feb 2020 16:58:22.000,191.878,6.165,1722.310899
3 Feb 2020 16:58:23.000,191.756,6.241,1716.332064
3 Feb 2020 16:58:24.000,191.632,6.318,1710.361429
3 Feb 2020 16:58:25.000,191.508,6.394,1704.399088
3 Feb 2020 16:58:26.000,191.382,6.471,1698.445135
3 Feb 2020 16:58:27.000,191.256,6.548,1692.499667
3 Feb 2020 16:58:28.000,191.129,6.625,1686.562780
3 Feb 2020 16:58:29.000,191.001,6.703,1680.634572
3 Feb 2020 16:58:30.000,190.872,6.780,1674.715144
3 Feb 2020 16:58:31.000,190.742,6.858,1668.804595
3 Feb 2020 16:58:32.000,190.611,6.937,1662.903029
3 Feb 2020 16:58:33.000,190.478,7.015,1657.010549
3 Feb 2020 16:58:34.000,190.345,7.094,1651.127259
3 Feb 2020 16:58:35.000,190.211,7.173,1645.253265
3 Feb 2020 16:58:36.000,190.076,7.253,1639.388674
3 Feb 2020 16:58:37.000,189.940,7.332,1633.533596
3 Feb 2020 16:58:38.000,189.803,7.412,1627.688140
3 Feb 2020 16:58:39.000,189.665,7.492,1621.852417
3 Feb 2020 16:58:40.000,189.525,7.573,1616.026540
3 Feb 2020 16:58:41.000,189.385,7.653,1610.210623
3 Feb 2020 16:58:42.000,189.244,7.734,1604.404783
3 Feb 2020 16:58:43.000,189.101,7.815,1598.609135
3 Feb 2020 16:58:44.000,188.957,7.897,1592.823799
3 Feb 2020 16:58:45.000,188.813,7.979,1587.048894
3 Feb 2020 16:58:46.000,188.667,8.061,1581.284543
3 Feb 2020 16:58:47.000,188.520,8.143,1575.530867
3 Feb 2020 16:58:48.000,188.372,8.225,1569.787993
3 Feb 2020 16:58:49.000,188.222,8.308,1564.056045
3 Feb 2020 16:58:50.000,188.072,8.391,1558.335152
3 Feb 2020 16:58:51.000,187.920,8.475,1552.625443
3 Feb 2020 16:58:52.000,187.767,8.558,1546.927049
3 Feb 2020 16:58:53.000,187.613,8.642,1541.240103
3 Feb 2020 16:58:54.000,187.458,8.727,1535.564738
3 Feb 2020 16:58:55.000,187.301,8.811,1529.901092
3 Feb 2020 16:58:56.000,187.143,8.896,1524.249301
3 Feb 2020 16:58:57.000,186.984,8.981,1518.609506
3 Feb 2020 16:58:58.000,186.824,9.066,1512.981848
3 Feb 2020 16:58:59.000,186.662,9.152,1507.366469
3 Feb 2020 16:59:00.000,186.499,9.238,1501.763514
3 Feb 2020 16:59:01.000,186.335,9.324,1496.173130
3 Feb 2020 16:59:02.000,186.170,9.410,1490.595465
3 Feb 2020 16:59:03.000,186.003,9.497,1485.030670
3 Feb 2020 16:59:04.000,185.834,9.584,1479.478897
3 Feb 2020 16:59:05.000,185.665,9.671,1473.940300
3 Feb 2020 16:59:06.000,185.494,9.759,1468.415036
3 Feb 2020 16:59:07.000,185.321,9.847,1462.903261
3 Feb 2020 16:59:08.000,185.147,9.935,1457.405137
3 Feb 2020 16:59:09.000,184.972,10.023,1451.920824
3 Feb 2020 16:59:10.000,184.795,10.112,1446.450488
3 Feb 2020 16:59:11.000,184.617,10.201,1440.994295
3 Feb 2020 16:59:12.000,184.438,10.290,1435.552411
3 Feb 2020 16:59:13.000,184.257,10.380,1430.125009
3 Feb 2020 16:59:14.000,184.074,10.470,1424.712259
3 Feb 2020 16:59:15.000,183.890,10.560,1419.314336
3 Feb 2020 16:59:16.000,183.704,10.650,1413.931418
3 Feb 2020 16:59:17.000,183.517,10.741,1408.563683
3 Feb 2020 16:59:18.000,183.328,10.832,1403.211311
3 Feb 2020 16:59:19.000,183.138,10.923,1397.874487
3 Feb 2020 16:59:20.000,182.946,11.014,1392.553395
3 Feb 2020 16:59:21.000,182.753,11.106,1387.248224
3 Feb 2020 16:59:22.000,182.557,11.198,1381.959163
3 Feb 2020 16:59:23.000,182.361,11.290,1376.686405
3 Feb 2020 16:59:24.000,182.162,11.383,1371.430144
3 Feb 2020 16:59:25.000,181.962,11.475,1366.190578
3 Feb 2020 16:59:26.000,181.760,11.568,1360.967906
3 Feb 2020 16:59:27.000,181.557,11.662,1355.762330
3 Feb 2020 16:59:28.000,181.352,11.755,1350.574054
3 Feb 2020 16:59:29.000,181.145,11.849,1345.403285
3 Feb 2020 16:59:30.000,180.936,11.943,1340.250232
3 Feb 2020 16:59:31.000,180.726,12.037,1335.115107
3 Feb 2020 16:59:32.000,180.513,12.132,1329.998124
3 Feb 2020 16:59:33.000,180.299,12.227,1324.899499
3 Feb 2020 16:59:34.000,180.083,12.322,1319.819452
3 Feb 2020 16:59:35.000,179.866,12.417,1314.758205
3 Feb 2020 16:59:36.000,179.646,12.512,1309.715982
3 Feb 2020 16:59:37.000,179.425,12.608,1304.693010
3 Feb 2020 16:59:38.000,179.201,12.704,1299.689518
3 Feb 2020 16:59:39.000,178.976,12.800,1294.705739
3 Feb 2020 16:59:40.000,178.749,12.896,1289.741908
3 Feb 2020 16:59:41.000,178.520,12.993,1284.798262
3 Feb 2020 16:59:42.000,178.289,13.090,1279.875042
3 Feb 2020 16:59:43.000,178.056,13.187,1274.972489
3 Feb 2020 16:59:44.000,177.820,13.284,1270.090851
3 Feb 2020 16:59:45.000,177.583,13.381,1265.230374
3 Feb 2020 16:59:46.000,177.344,13.479,1260.391311
3 Feb 2020 16:59:47.000,177.103,13.577,1255.573915
3 Feb 2020 16:59:48.000,176.860,13.675,1250.778442
3 Feb 2020 16:59:49.000,176.615,13.773,1246.005152
3 Feb 2020 16:59:50.000,176.367,13.871,1241.254306
3 Feb 2020 16:59:51.000,176.118,13.969,1236.526170
3 Feb 2020 16:59:52.000,175.866,14.068,1231.821011
3 Feb 2020 16:59:53.000,175.612,14.166,1227.139099
3 Feb 2020 16:59:54.000,175.356,14.265,1222.480708
3 Feb 2020 16:59:55.000,175.098,14.364,1217.846113
3 Feb 2020 16:59:56.000,174.837,14.463,1213.235593
3 Feb 2020 16:59:57.000,174.575,14.562,1208.649429
3 Feb 2020 16:59:58.000,174.310,14.662,1204.087905
3 Feb 2020 16:59:59.000,174.042,14.761,1199.551309
3 Feb 2020 17:00:00.000,173.773,14.861,1195.039931
3 Feb 2020 17:00:01.000,173.501,14.960,1190.554062
3 Feb 2020 17:00:02.000,173.227,15.060,1186.093998
3 Feb 2020 17:00:03.000,172.950,15.159,1181.660036
3 Feb 2020 17:00:04.000,172.672,15.259,1177.252479
3 Feb 2020 17:00:05.000,172.390,15.359,1172.871627
3 Feb 2020 17:00:06.000,172.107,15.459,1168.517789
3 Feb 2020 17:00:07.000,171.821,15.558,1164.191272
3 Feb 2020 17:00:08.000,171.532,15.658,1159.892388
3 Feb 2020 17:00:09.000,171.242,15.758,1155.621451
3 Feb 2020 17:00:10.000,170.948,15.858,1151.378776
3 Feb 2020 17:00:11.000,170.653,15.957,1147.164685
3 Feb 2020 17:00:12.000,170.354,16.057,1142.979497
3 Feb 2020 17:00:13.000,170.054,16.157,1138.823536
3 Feb 2020 17:00:14.000,169.750,16.256,1134.697131
3 Feb 2020 17:00:15.000,169.444,16.356,1130.600609
3 Feb 2020 17:00:16.000,169.136,16.455,1126.534302
3 Feb 2020 17:00:17.000,168.825,16.554,1122.498543
3 Feb 2020 17:00:18.000,168.512,16.653,1118.493669
3 Feb 2020 17:00:19.000,168.196,16.752,1114.520017
3 Feb 2020 17:00:20.000,167.877,16.851,1110.577927
3 Feb 2020 17:00:21.000,167.556,16.950,1106.667743
3 Feb 2020 17:00:22.000,167.232,17.048,1102.789809
3 Feb 2020 17:00:23.000,166.905,17.146,1098.944471
3 Feb 2020 17:00:24.000,166.576,17.244,1095.132077
3 Feb 2020 17:00:25.000,166.244,17.342,1091.352978
3 Feb 2020 17:00:26.000,165.909,17.439,1087.607526
3 Feb 2020 17:00:27.000,165.572,17.537,1083.896075
3 Feb 2020 17:00:28.000,165.232,17.633,1080.218978
3 Feb 2020 17:00:29.000,164.890,17.730,1076.576595
3 Feb 2020 17:00:30.000,164.544,17.826,1072.969284
3 Feb 2020 17:00:31.000,164.196,17.922,1069.397402
3 Feb 2020 17:00:32.000,163.846,18.017,1065.861311
3 Feb 2020 17:00:33.000,163.492,18.112,1062.361375
3 Feb 2020 17:00:34.000,163.136,18.207,1058.897954
3 Feb 2020 17:00:35.000,162.777,18.301,1055.471415
3 Feb 2020 17:00:36.000,162.416,18.395,1052.082122
3 Feb 2020 17:00:37.000,162.051,18.488,1048.730440
3 Feb 2020 17:00:38.000,161.684,18.581,1045.416734
3 Feb 2020 17:00:39.000,161.314,18.673,1042.141373
3 Feb 2020 17:00:40.000,160.942,18.765,1038.904723
3 Feb 2020 17:00:41.000,160.566,18.856,1035.707151
3 Feb 2020 17:00:42.000,160.188,18.946,1032.549025
3 Feb 2020 17:00:43.000,159.808,19.036,1029.430712
3 Feb 2020 17:00:44.000,159.424,19.125,1026.352579
3 Feb 2020 17:00:45.000,159.038,19.214,1023.314992
3 Feb 2020 17:00:46.000,158.649,19.301,1020.318318
3 Feb 2020 17:00:47.000,158.257,19.388,1017.362922
3 Feb 2020 17:00:48.000,157.863,19.475,1014.449170
3 Feb 2020 17:00:49.000,157.466,19.560,1011.577424
3 Feb 2020 17:00:50.000,157.066,19.645,1008.748048
3 Feb 2020 17:00:51.000,156.664,19.729,1005.961403
3 Feb 2020 17:00:52.000,156.259,19.812,1003.217848
3 Feb 2020 17:00:53.000,155.851,19.894,1000.517743
3 Feb 2020 17:00:54.000,155.441,19.975,997.861443
3 Feb 2020 17:00:55.000,155.028,20.055,995.249302
3 Feb 2020 17:00:56.000,154.612,20.134,992.681673
3 Feb 2020 17:00:57.000,154.194,20.212,990.158905
3 Feb 2020 17:00:58.000,153.774,20.290,987.681347
3 Feb 2020 17:00:59.000,153.350,20.366,985.249342
3 Feb 2020 17:01:00.000,152.925,20.441,982.863232
3 Feb 2020 17:01:01.000,152.497,20.515,980.523355
3 Feb 2020 17:01:02.000,152.066,20.588,978.230045
3 Feb 2020 17:01:03.000,151.633,20.660,975.983636
3 Feb 2020 17:01:04.000,151.198,20.730,973.784454
3 Feb 2020 17:01:05.000,150.760,20.799,971.632823
3 Feb 2020 17:01:06.000,150.320,20.867,969.529062
3 Feb 2020 17:01:07.000,149.877,20.934,967.473488
3 Feb 2020 17:01:08.000,149.433,21.000,965.466411
3 Feb 2020 17:01:09.000,148.986,21.064,963.508135
3 Feb 2020 17:01:10.000,148.537,21.126,961.598964
3 Feb 2020 17:01:11.000,148.085,21.188,959.739193
3 Feb 2020 17:01:12.000,147.632,21.248,957.929109
3 Feb 2020 17:01:13.000,147.176,21.306,956.169002
3 Feb 2020 17:01:14.000,146.719,21.364,954.459146
3 Feb 2020 17:01:15.000,146.260,21.419,952.799819
3 Feb 2020 17:01:16.000,145.798,21.473,951.191286
3 Feb 2020 17:01:17.000,145.335,21.526,949.633804
3 Feb 2020 17:01:18.000,144.870,21.577,948.127633
3 Feb 2020 17:01:19.000,144.403,21.626,946.673014
3 Feb 2020 17:01:20.000,143.934,21.674,945.270193
3 Feb 2020 17:01:21.000,143.464,21.720,943.919398
3 Feb 2020 17:01:22.000,142.992,21.765,942.620857
3 Feb 2020 17:01:23.000,142.519,21.808,941.374790
3 Feb 2020 17:01:24.000,142.044,21.849,940.181404
3 Feb 2020 17:01:25.000,141.567,21.889,939.040906
3 Feb 2020 17:01:26.000,141.089,21.927,937.953486
3 Feb 2020 17:01:27.000,140.610,21.963,936.919333
3 Feb 2020 17:01:28.000,140.130,21.997,935.938627
3 Feb 2020 17:01:29.000,139.648,22.029,935.011534
3 Feb 2020 17:01:30.000,139.165,22.060,934.138217
3 Feb 2020 17:01:31.000,138.681,22.089,933.318832
3 Feb 2020 17:01:32.000,138.196,22.116,932.553516
3 Feb 2020 17:01:33.000,137.710,22.141,931.842407
3 Feb 2020 17:01:34.000,137.223,22.165,931.185630
3 Feb 2020 17:01:35.000,136.736,22.186,930.583304
3 Feb 2020 17:01:36.000,136.247,22.206,930.035532
3 Feb 2020 17:01:37.000,135.758,22.224,929.542412
3 Feb 2020 17:01:38.000,135.269,22.240,929.104034
3 Feb 2020 17:01:39.000,134.779,22.254,928.720475
3 Feb 2020 17:01:40.000,134.288,22.266,928.391805
3 Feb 2020 17:01:41.000,133.797,22.276,928.118083
3 Feb 2020 17:01:42.000,133.306,22.284,927.899360
3 Feb 2020 17:01:43.000,132.814,22.290,927.735672
3 Feb 2020 17:01:44.000,132.322,22.295,927.627050
3 Feb 2020 17:01:45.000,131.830,22.297,927.573514
3 Feb 2020 17:01:46.000,131.338,22.298,927.575075
3 Feb 2020 17:01:47.000,130.846,22.296,927.631733
3 Feb 2020 17:01:48.000,130.354,22.293,927.743478
3 Feb 2020 17:01:49.000,129.863,22.288,927.910290
3 Feb 2020 17:01:50.000,129.371,22.280,928.132137
3 Feb 2020 17:01:51.000,128.880,22.271,928.408985
3 Feb 2020 17:01:52.000,128.390,22.260,928.740784
3 Feb 2020 17:01:53.000,127.899,22.247,929.127472
3 Feb 2020 17:01:54.000,127.410,22.232,929.568984
3 Feb 2020 17:01:55.000,126.921,22.216,930.065239
3 Feb 2020 17:01:56.000,126.432,22.197,930.616151
3 Feb 2020 17:01:57.000,125.945,22.177,931.221622
3 Feb 2020 17:01:58.000,125.458,22.154,931.881542
3 Feb 2020 17:01:59.000,124.972,22.130,932.595802
3 Feb 2020 17:02:00.000,124.487,22.104,933.364274
3 Feb 2020 17:02:01.000,124.003,22.076,934.186822
3 Feb 2020 17:02:02.000,123.520,22.046,935.063302
3 Feb 2020 17:02:03.000,123.038,22.015,935.993567
3 Feb 2020 17:02:04.000,122.558,21.982,936.977452
3 Feb 2020 17:02:05.000,122.078,21.946,938.014786
3 Feb 2020 17:02:06.000,121.600,21.910,939.105397
3 Feb 2020 17:02:07.000,121.124,21.871,940.249095
3 Feb 2020 17:02:08.000,120.649,21.831,941.445683
3 Feb 2020 17:02:09.000,120.175,21.789,942.694964
3 Feb 2020 17:02:10.000,119.703,21.745,943.996723
3 Feb 2020 17:02:11.000,119.233,21.700,945.350746
3 Feb 2020 17:02:12.000,118.764,21.653,946.756804
3 Feb 2020 17:02:13.000,118.297,21.605,948.214669
3 Feb 2020 17:02:14.000,117.832,21.555,949.724099
3 Feb 2020 17:02:15.000,117.368,21.503,951.284843
3 Feb 2020 17:02:16.000,116.907,21.450,952.896651
3 Feb 2020 17:02:17.000,116.447,21.395,954.559265
3 Feb 2020 17:02:18.000,115.990,21.339,956.272414
3 Feb 2020 17:02:19.000,115.534,21.281,958.035830
3 Feb 2020 17:02:20.000,115.081,21.222,959.849229
3 Feb 2020 17:02:21.000,114.630,21.162,961.712332
3 Feb 2020 17:02:22.000,114.180,21.100,963.624843
3 Feb 2020 17:02:23.000,113.733,21.037,965.586470
3 Feb 2020 17:02:24.000,113.289,20.972,967.596915
3 Feb 2020 17:02:25.000,112.846,20.906,969.655866
3 Feb 2020 17:02:26.000,112.406,20.839,971.763017
3 Feb 2020 17:02:27.000,111.968,20.771,973.918054
3 Feb 2020 17:02:28.000,111.532,20.701,976.120653
3 Feb 2020 17:02:29.000,111.099,20.630,978.370494
3 Feb 2020 17:02:30.000,110.669,20.558,980.667248
3 Feb 2020 17:02:31.000,110.240,20.485,983.010589
3 Feb 2020 17:02:32.000,109.815,20.411,985.400174
3 Feb 2020 17:02:33.000,109.391,20.335,987.835669
3 Feb 2020 17:02:34.000,108.971,20.259,990.316733
3 Feb 2020 17:02:35.000,108.552,20.181,992.843021
3 Feb 2020 17:02:36.000,108.137,20.103,995.414187
3 Feb 2020 17:02:37.000,107.724,20.024,998.029884
3 Feb 2020 17:02:38.000,107.313,19.943,1000.689754
3 Feb 2020 17:02:39.000,106.906,19.862,1003.393446
3 Feb 2020 17:02:40.000,106.501,19.780,1006.140604
3 Feb 2020 17:02:41.000,106.098,19.697,1008.930871
3 Feb 2020 17:02:42.000,105.698,19.613,1011.763885
3 Feb 2020 17:02:43.000,105.301,19.528,1014.639287
3 Feb 2020 17:02:44.000,104.907,19.443,1017.556714
3 Feb 2020 17:02:45.000,104.515,19.356,1020.515803
3 Feb 2020 17:02:46.000,104.126,19.269,1023.516189
3 Feb 2020 17:02:47.000,103.740,19.182,1026.557506
3 Feb 2020 17:02:48.000,103.356,19.093,1029.639389
3 Feb 2020 17:02:49.000,102.975,19.004,1032.761471
3 Feb 2020 17:02:50.000,102.597,18.914,1035.923386
3 Feb 2020 17:02:51.000,102.222,18.824,1039.124766
3 Feb 2020 17:02:52.000,101.849,18.733,1042.365245
3 Feb 2020 17:02:53.000,101.479,18.642,1045.644455
3 Feb 2020 17:02:54.000,101.112,18.549,1048.962030
3 Feb 2020 17:02:55.000,100.748,18.457,1052.317603
3 Feb 2020 17:02:56.000,100.386,18.364,1055.710805
3 Feb 2020 17:02:57.000,100.027,18.270,1059.141277
3 Feb 2020 17:02:58.000,99.671,18.176,1062.608652
3 Feb 2020 17:02:59.000,99.317,18.082,1066.112565
3 Feb 2020 17:03:00.000,98.967,17.987,1069.652653
3 Feb 2020 17:03:01.000,98.619,17.892,1073.228555
3 Feb 2020 17:03:02.000,98.273,17.796,1076.839907
3 Feb 2020 17:03:03.000,97.931,17.700,1080.486356
3 Feb 2020 17:03:04.000,97.591,17.604,1084.167540
3 Feb 2020 17:03:05.000,97.254,17.508,1087.883103
3 Feb 2020 17:03:06.000,96.919,17.411,1091.632689
3 Feb 2020 17:03:07.000,96.587,17.314,1095.415943
3 Feb 2020 17:03:08.000,96.258,17.216,1099.232518
3 Feb 2020 17:03:09.000,95.932,17.118,1103.082062
3 Feb 2020 17:03:10.000,95.608,17.021,1106.964222
3 Feb 2020 17:03:11.000,95.286,16.923,1110.878660
3 Feb 2020 17:03:12.000,94.968,16.824,1114.825027
3 Feb 2020 17:03:13.000,94.652,16.726,1118.802982
3 Feb 2020 17:03:14.000,94.338,16.627,1122.812180
3 Feb 2020 17:03:15.000,94.027,16.529,1126.852291
3 Feb 2020 17:03:16.000,93.719,16.430,1130.922973
3 Feb 2020 17:03:17.000,93.413,16.331,1135.023898
3 Feb 2020 17:03:18.000,93.110,16.232,1139.154731
3 Feb 2020 17:03:19.000,92.809,16.133,1143.315142
3 Feb 2020 17:03:20.000,92.511,16.034,1147.504810
3 Feb 2020 17:03:21.000,92.215,15.934,1151.723407
3 Feb 2020 17:03:22.000,91.922,15.835,1155.970610
3 Feb 2020 17:03:23.000,91.632,15.736,1160.246106
3 Feb 2020 17:03:24.000,91.343,15.636,1164.549571
3 Feb 2020 17:03:25.000,91.057,15.537,1168.880699
3 Feb 2020 17:03:26.000,90.774,15.438,1173.239173
3 Feb 2020 17:03:27.000,90.493,15.339,1177.624689
3 Feb 2020 17:03:28.000,90.214,15.239,1182.036939
3 Feb 2020 17:03:29.000,89.938,15.140,1186.475617
3 Feb 2020 17:03:30.000,89.664,15.041,1190.940428
3 Feb 2020 17:03:31.000,89.392,14.942,1195.431068
3 Feb 2020 17:03:32.000,89.123,14.843,1199.947249
3 Feb 2020 17:03:33.000,88.856,14.744,1204.488671
3 Feb 2020 17:03:34.000,88.591,14.645,1209.055052
3 Feb 2020 17:03:35.000,88.328,14.546,1213.646099
3 Feb 2020 17:03:36.000,88.068,14.447,1218.261530
3 Feb 2020 17:03:37.000,87.810,14.349,1222.901068
3 Feb 2020 17:03:38.000,87.554,14.250,1227.564427
3 Feb 2020 17:03:39.000,87.300,14.152,1232.251339
3 Feb 2020 17:03:40.000,87.049,14.054,1236.961523
3 Feb 2020 17:03:41.000,86.800,13.956,1241.694717
3 Feb 2020 17:03:42.000,86.552,13.858,1246.450645
3 Feb 2020 17:03:43.000,86.307,13.760,1251.229047
3 Feb 2020 17:03:44.000,86.064,13.663,1256.029665
3 Feb 2020 17:03:45.000,85.823,13.565,1260.852232
3 Feb 2020 17:03:46.000,85.584,13.468,1265.696499
3 Feb 2020 17:03:47.000,85.348,13.371,1270.562206
3 Feb 2020 17:03:48.000,85.113,13.274,1275.449104
3 Feb 2020 17:03:49.000,84.880,13.178,1280.356949
3 Feb 2020 17:03:50.000,84.649,13.081,1285.285489
3 Feb 2020 17:03:51.000,84.420,12.985,1290.234488
3 Feb 2020 17:03:52.000,84.193,12.889,1295.203698
3 Feb 2020 17:03:53.000,83.968,12.793,1300.192887
3 Feb 2020 17:03:54.000,83.745,12.698,1305.201822
3 Feb 2020 17:03:55.000,83.524,12.602,1310.230264
3 Feb 2020 17:03:56.000,83.305,12.507,1315.277988
3 Feb 2020 17:03:57.000,83.087,12.412,1320.344767
3 Feb 2020 17:03:58.000,82.872,12.317,1325.430380
3 Feb 2020 17:03:59.000,82.658,12.223,1330.534598
3 Feb 2020 17:04:00.000,82.446,12.129,1335.657205
3 Feb 2020 17:04:01.000,82.236,12.035,1340.797989
3 Feb 2020 17:04:02.000,82.027,11.941,1345.956728
3 Feb 2020 17:04:03.000,81.821,11.847,1351.133215
3 Feb 2020 17:04:04.000,81.616,11.754,1356.327239
3 Feb 2020 17:04:05.000,81.413,11.661,1361.538599
3 Feb 2020 17:04:06.000,81.211,11.568,1366.767082
3 Feb 2020 17:04:07.000,81.012,11.476,1372.012491
3 Feb 2020 17:04:08.000,80.813,11.384,1377.274630
3 Feb 2020 17:04:09.000,80.617,11.292,1382.553295
3 Feb 2020 17:04:10.000,80.422,11.200,1387.848294
3 Feb 2020 17:04:11.000,80.229,11.108,1393.159435
3 Feb 2020 17:04:12.000,80.038,11.017,1398.486529
3 Feb 2020 17:04:13.000,79.848,10.926,1403.829391
3 Feb 2020 17:04:14.000,79.659,10.836,1409.187828
3 Feb 2020 17:04:15.000,79.472,10.745,1414.561662
3 Feb 2020 17:04:16.000,79.287,10.655,1419.950711
3 Feb 2020 17:04:17.000,79.104,10.565,1425.354799
3 Feb 2020 17:04:18.000,78.921,10.476,1430.773744
3 Feb 2020 17:04:19.000,78.741,10.386,1436.207375
3 Feb 2020 17:04:20.000,78.561,10.297,1441.655518
3 Feb 2020 17:04:21.000,78.384,10.209,1447.118004
3 Feb 2020 17:04:22.000,78.207,10.120,1452.594666
3 Feb 2020 17:04:23.000,78.033,10.032,1458.085339
3 Feb 2020 17:04:24.000,77.859,9.944,1463.589855
3 Feb 2020 17:04:25.000,77.687,9.856,1469.108053
3 Feb 2020 17:04:26.000,77.517,9.769,1474.639774
3 Feb 2020 17:04:27.000,77.347,9.682,1480.184860
3 Feb 2020 17:04:28.000,77.180,9.595,1485.743156
3 Feb 2020 17:04:29.000,77.013,9.509,1491.314510
3 Feb 2020 17:04:30.000,76.848,9.422,1496.898763
3 Feb 2020 17:04:31.000,76.684,9.336,1502.495769
3 Feb 2020 17:04:32.000,76.522,9.251,1508.105379
3 Feb 2020 17:04:33.000,76.361,9.165,1513.727447
3 Feb 2020 17:04:34.000,76.201,9.080,1519.361828
3 Feb 2020 17:04:35.000,76.042,8.995,1525.008378
3 Feb 2020 17:04:36.000,75.885,8.910,1530.666957
3 Feb 2020 17:04:37.000,75.729,8.826,1536.337429
3 Feb 2020 17:04:38.000,75.574,8.742,1542.019650
3 Feb 2020 17:04:39.000,75.420,8.658,1547.713485
3 Feb 2020 17:04:40.000,75.268,8.575,1553.418803
3 Feb 2020 17:04:41.000,75.117,8.492,1559.135469
3 Feb 2020 17:04:42.000,74.967,8.409,1564.863352
3 Feb 2020 17:04:43.000,74.818,8.326,1570.602325
3 Feb 2020 17:04:44.000,74.670,8.244,1576.352258
3 Feb 2020 17:04:45.000,74.524,8.161,1582.113026
3 Feb 2020 17:04:46.000,74.379,8.080,1587.884503
3 Feb 2020 17:04:47.000,74.234,7.998,1593.666568
3 Feb 2020 17:04:48.000,74.091,7.917,1599.459099
3 Feb 2020 17:04:49.000,73.949,7.836,1605.261979
3 Feb 2020 17:04:50.000,73.808,7.755,1611.075082
3 Feb 2020 17:04:51.000,73.669,7.674,1616.898295
3 Feb 2020 17:04:52.000,73.530,7.594,1622.731503
3 Feb 2020 17:04:53.000,73.392,7.514,1628.574592
3 Feb 2020 17:04:54.000,73.256,7.434,1634.427448
3 Feb 2020 17:04:55.000,73.120,7.355,1640.289960
3 Feb 2020 17:04:56.000,72.986,7.276,1646.162019
3 Feb 2020 17:04:57.000,72.852,7.197,1652.043516
3 Feb 2020 17:04:58.000,72.720,7.118,1657.934344
3 Feb 2020 17:04:59.000,72.588,7.040,1663.834396
3 Feb 2020 17:05:00.000,72.458,6.961,1669.743569
3 Feb 2020 17:05:01.000,72.328,6.883,1675.661758
3 Feb 2020 17:05:02.000,72.200,6.806,1681.588862
3 Feb 2020 17:05:03.000,72.072,6.728,1687.524780
3 Feb 2020 17:05:04.000,71.946,6.651,1693.469413
3 Feb 2020 17:05:05.000,71.820,6.574,1699.422662
3 Feb 2020 17:05:06.000,71.695,6.498,1705.384429
3 Feb 2020 17:05:07.000,71.572,6.421,1711.354620
3 Feb 2020 17:05:08.000,71.449,6.345,1717.333139
3 Feb 2020 17:05:09.000,71.327,6.269,1723.319893
3 Feb 2020 17:05:10.000,71.206,6.194,1729.314790
3 Feb 2020 17:05:11.000,71.086,6.118,1735.317737
3 Feb 2020 17:05:12.000,70.966,6.043,1741.328645
3 Feb 2020 17:05:13.000,70.848,5.968,1747.347424
3 Feb 2020 17:05:14.000,70.731,5.893,1753.373988
3 Feb 2020 17:05:15.000,70.614,5.819,1759.408247
3 Feb 2020 17:05:16.000,70.498,5.745,1765.450118
3 Feb 2020 17:05:17.000,70.383,5.671,1771.499514
3 Feb 2020 17:05:18.000,70.269,5.597,1777.556353
3 Feb 2020 17:05:19.000,70.156,5.524,1783.620550
3 Feb 2020 17:05:20.000,70.043,5.450,1789.692025
3 Feb 2020 17:05:21.000,69.931,5.377,1795.770697
3 Feb 2020 17:05:22.000,69.821,5.304,1801.856485
3 Feb 2020 17:05:23.000,69.710,5.232,1807.949310
3 Feb 2020 17:05:24.000,69.601,5.160,1814.049096
3 Feb 2020 17:05:25.000,69.493,5.087,1820.155764
3 Feb 2020 17:05:26.000,69.385,5.016,1826.269238
3 Feb 2020 17:05:27.000,69.278,4.944,1832.389444
3 Feb 2020 17:05:28.000,69.172,4.872,1838.516307
3 Feb 2020 17:05:29.000,69.066,4.801,1844.649754
3 Feb 2020 17:05:30.000,68.961,4.730,1850.789711
3 Feb 2020 17:05:31.000,68.857,4.659,1856.936108
3 Feb 2020 17:05:32.000,68.754,4.589,1863.088873
3 Feb 2020 17:05:33.000,68.651,4.519,1869.247936
3 Feb 2020 17:05:34.000,68.550,4.448,1875.413229
3 Feb 2020 17:05:35.000,68.448,4.379,1881.584678
3 Feb 2020 17:05:36.000,68.348,4.309,1887.762225
3 Feb 2020 17:05:37.000,68.248,4.239,1893.945798
3 Feb 2020 17:05:38.000,68.149,4.170,1900.135331
3 Feb 2020 17:05:39.000,68.051,4.101,1906.330759
3 Feb 2020 17:05:40.000,67.953,4.032,1912.532018
3 Feb 2020 17:05:41.000,67.856,3.963,1918.739043
3 Feb 2020 17:05:42.000,67.760,3.895,1924.951773
3 Feb 2020 17:05:43.000,67.664,3.827,1931.170144
3 Feb 2020 17:05:44.000,67.569,3.759,1937.394095
3 Feb 2020 17:05:45.000,67.474,3.691,1943.623566
3 Feb 2020 17:05:46.000,67.381,3.623,1949.858495
3 Feb 2020 17:05:47.000,67.287,3.556,1956.098824
3 Feb 2020 17:05:48.000,67.195,3.489,1962.344494
3 Feb 2020 17:05:49.000,67.103,3.421,1968.595443
3 Feb 2020 17:05:50.000,67.012,3.355,1974.851621
3 Feb 2020 17:05:51.000,66.921,3.288,1981.112967
3 Feb 2020 17:05:52.000,66.831,3.221,1987.379425
3 Feb 2020 17:05:53.000,66.741,3.155,1993.650941
3 Feb 2020 17:05:54.000,66.652,3.089,1999.927458
3 Feb 2020 17:05:55.000,66.564,3.023,2006.208923
3 Feb 2020 17:05:56.000,66.476,2.958,2012.495283
3 Feb 2020 17:05:57.000,66.389,2.892,2018.786483
3 Feb 2020 17:05:58.000,66.303,2.827,2025.082472
3 Feb 2020 17:05:59.000,66.217,2.761,2031.383197
3 Feb 2020 17:06:00.000,66.131,2.697,2037.688605
3 Feb 2020 17:06:01.000,66.046,2.632,2043.998651
3 Feb 2020 17:06:02.000,65.962,2.567,2050.313281
3 Feb 2020 17:06:03.000,65.878,2.503,2056.632447
3 Feb 2020 17:06:04.000,65.795,2.438,2062.956098
3 Feb 2020 17:06:05.000,65.712,2.374,2069.284187
3 Feb 2020 17:06:06.000,65.630,2.310,2075.616665
3 Feb 2020 17:06:07.000,65.548,2.247,2081.953485
3 Feb 2020 17:06:08.000,65.467,2.183,2088.294601
3 Feb 2020 17:06:09.000,65.386,2.120,2094.639962
3 Feb 2020 17:06:10.000,65.306,2.057,2100.989529
3 Feb 2020 17:06:11.000,65.227,1.994,2107.343254
3 Feb 2020 17:06:12.000,65.147,1.931,2113.701091
3 Feb 2020 17:06:13.000,65.069,1.868,2120.062996
3 Feb 2020 17:06:14.000,64.991,1.805,2126.428926
3 Feb 2020 17:06:15.000,64.913,1.743,2132.798836
3 Feb 2020 17:06:16.000,64.836,1.681,2139.172684
3 Feb 2020 17:06:17.000,64.759,1.619,2145.550424
3 Feb 2020 17:06:18.000,64.683,1.557,2151.932021
3 Feb 2020 17:06:19.000,64.607,1.495,2158.317429
3 Feb 2020 17:06:20.000,64.532,1.434,2164.706607
3 Feb 2020 17:06:21.000,64.457,1.372,2171.099515
3 Feb 2020 17:06:22.000,64.383,1.311,2177.496112
3 Feb 2020 17:06:23.000,64.309,1.250,2183.896358
3 Feb 2020 17:06:24.000,64.236,1.189,2190.300215
3 Feb 2020 17:06:25.000,64.163,1.128,2196.707639
3 Feb 2020 17:06:26.000,64.090,1.068,2203.118598
3 Feb 2020 17:06:27.000,64.018,1.007,2209.533052
3 Feb 2020 17:06:28.000,63.947,0.947,2215.950962
3 Feb 2020 17:06:29.000,63.875,0.887,2222.372290
3 Feb 2020 17:06:30.000,63.805,0.827,2228.797000
3 Feb 2020 17:06:31.000,63.734,0.767,2235.225056
3 Feb 2020 17:06:32.000,63.664,0.707,2241.656416
3 Feb 2020 17:06:33.000,63.595,0.647,2248.091053
3 Feb 2020 17:06:34.000,63.526,0.588,2254.528927
3 Feb 2020 17:06:35.000,63.457,0.529,2260.970003
3 Feb 2020 17:06:36.000,63.389,0.470,2267.414246
3 Feb 2020 17:06:37.000,63.321,0.411,2273.861622
3 Feb 2020 17:06:38.000,63.253,0.352,2280.312097
3 Feb 2020 17:06:39.000,63.186,0.293,2286.765634
3 Feb 2020 17:06:40.000,63.120,0.234,2293.222205
3 Feb 2020 17:06:41.000,63.053,0.176,2299.681775
3 Feb 2020 17:06:42.000,62.988,0.118,2306.144310
3 Feb 2020 17:06:43.000,62.922,0.060,2312.609779
3 Feb 2020 17:06:44.000,62.857,0.001,2319.078149
3 Feb 2020 17:06:45.000,62.792,-0.056,2325.549385
3 Feb 2020 17:06:45.379,62.768,-0.078,2328.000660
3 Feb 2020 18:32:50.943,249.794,-0.079,2320.698532
3 Feb 2020 18:32:51.000,249.797,-0.075,2320.314631
3 Feb 2020 18:32:52.000,249.845,-0.015,2313.630811
3 Feb 2020 18:32:53.000,249.893,0.045,2306.948305
3 Feb 2020 18:32:54.000,249.941,0.106,2300.267126
3 Feb 2020 18:32:55.000,249.990,0.166,2293.587303
3 Feb 2020 18:32:56.000,250.039,0.227,2286.908851
3 Feb 2020 18:32:57.000,250.088,0.288,2280.231790
3 Feb 2020 18:32:58.000,250.137,0.349,2273.556136
3 Feb 2020 18:32:59.000,250.187,0.410,2266.881917
3 Feb 2020 18:33:00.000,250.237,0.472,2260.209148
3 Feb 2020 18:33:01.000,250.287,0.533,2253.537852
3 Feb 2020 18:33:02.000,250.338,0.595,2246.868048
3 Feb 2020 18:33:03.000,250.389,0.657,2240.199755
3 Feb 2020 18:33:04.000,250.440,0.719,2233.533000
3 Feb 2020 18:33:05.000,250.491,0.781,2226.867802
3 Feb 2020 18:33:06.000,250.543,0.844,2220.204181
3 Feb 2020 18:33:07.000,250.595,0.906,2213.542158
3 Feb 2020 18:33:08.000,250.647,0.969,2206.881760
3 Feb 2020 18:33:09.000,250.700,1.032,2200.223006
3 Feb 2020 18:33:10.000,250.753,1.096,2193.565920
3 Feb 2020 18:33:11.000,250.806,1.159,2186.910525
3 Feb 2020 18:33:12.000,250.859,1.223,2180.256839
3 Feb 2020 18:33:13.000,250.913,1.286,2173.604893
3 Feb 2020 18:33:14.000,250.968,1.350,2166.954708
3 Feb 2020 18:33:15.000,251.022,1.414,2160.306308
3 Feb 2020 18:33:16.000,251.077,1.479,2153.659712
3 Feb 2020 18:33:17.000,251.132,1.543,2147.014953
3 Feb 2020 18:33:18.000,251.188,1.608,2140.372052
3 Feb 2020 18:33:19.000,251.243,1.673,2133.731033
3 Feb 2020 18:33:20.000,251.300,1.738,2127.091922
3 Feb 2020 18:33:21.000,251.356,1.804,2120.454742
3 Feb 2020 18:33:22.000,251.413,1.869,2113.819524
3 Feb 2020 18:33:23.000,251.470,1.935,2107.186292
3 Feb 2020 18:33:24.000,251.528,2.001,2100.555072
3 Feb 2020 18:33:25.000,251.586,2.067,2093.925887
3 Feb 2020 18:33:26.000,251.644,2.134,2087.298772
3 Feb 2020 18:33:27.000,251.703,2.200,2080.673750
3 Feb 2020 18:33:28.000,251.762,2.267,2074.050849
3 Feb 2020 18:33:29.000,251.821,2.334,2067.430096
3 Feb 2020 18:33:30.000,251.881,2.401,2060.811518
3 Feb 2020 18:33:31.000,251.941,2.469,2054.195148
3 Feb 2020 18:33:32.000,252.001,2.537,2047.581014
3 Feb 2020 18:33:33.000,252.062,2.605,2040.969144
3 Feb 2020 18:33:34.000,252.123,2.673,2034.359568
3 Feb 2020 18:33:35.000,252.185,2.741,2027.752312
3 Feb 2020 18:33:36.000,252.247,2.810,2021.147414
3 Feb 2020 18:33:37.000,252.310,2.879,2014.544901
3 Feb 2020 18:33:38.000,252.373,2.948,2007.944804
3 Feb 2020 18:33:39.000,252.436,3.017,2001.347155
3 Feb 2020 18:33:40.000,252.499,3.087,1994.751982
3 Feb 2020 18:33:41.000,252.564,3.157,1988.159324
3 Feb 2020 18:33:42.000,252.628,3.227,1981.569211
3 Feb 2020 18:33:43.000,252.693,3.297,1974.981675
3 Feb 2020 18:33:44.000,252.758,3.368,1968.396751
3 Feb 2020 18:33:45.000,252.824,3.439,1961.814467
3 Feb 2020 18:33:46.000,252.890,3.510,1955.234866
3 Feb 2020 18:33:47.000,252.957,3.581,1948.657979
3 Feb 2020 18:33:48.000,253.024,3.653,1942.083841
3 Feb 2020 18:33:49.000,253.092,3.725,1935.512487
3 Feb 2020 18:33:50.000,253.160,3.797,1928.943950
3 Feb 2020 18:33:51.000,253.228,3.869,1922.378273
3 Feb 2020 18:33:52.000,253.297,3.942,1915.815490
3 Feb 2020 18:33:53.000,253.367,4.015,1909.255639
3 Feb 2020 18:33:54.000,253.437,4.088,1902.698756
3 Feb 2020 18:33:55.000,253.507,4.161,1896.144878
3 Feb 2020 18:33:56.000,253.578,4.235,1889.594048
3 Feb 2020 18:33:57.000,253.649,4.309,1883.046305
3 Feb 2020 18:33:58.000,253.721,4.383,1876.501687
3 Feb 2020 18:33:59.000,253.793,4.458,1869.960234
3 Feb 2020 18:34:00.000,253.866,4.533,1863.421987
3 Feb 2020 18:34:01.000,253.940,4.608,1856.886985
3 Feb 2020 18:34:02.000,254.014,4.684,1850.355276
3 Feb 2020 18:34:03.000,254.088,4.759,1843.826900
3 Feb 2020 18:34:04.000,254.163,4.835,1837.301898
3 Feb 2020 18:34:05.000,254.238,4.912,1830.780315
3 Feb 2020 18:34:06.000,254.314,4.989,1824.262195
3 Feb 2020 18:34:07.000,254.391,5.066,1817.747579
3 Feb 2020 18:34:08.000,254.468,5.143,1811.236520
3 Feb 2020 18:34:09.000,254.546,5.220,1804.729059
3 Feb 2020 18:34:10.000,254.624,5.298,1798.225243
3 Feb 2020 18:34:11.000,254.703,5.377,1791.725120
3 Feb 2020 18:34:12.000,254.782,5.455,1785.228734
3 Feb 2020 18:34:13.000,254.862,5.534,1778.736139
3 Feb 2020 18:34:14.000,254.943,5.613,1772.247383
3 Feb 2020 18:34:15.000,255.024,5.693,1765.762514
3 Feb 2020 18:34:16.000,255.106,5.773,1759.281583
3 Feb 2020 18:34:17.000,255.188,5.853,1752.804640
3 Feb 2020 18:34:18.000,255.271,5.933,1746.331739
3 Feb 2020 18:34:19.000,255.355,6.014,1739.862927
3 Feb 2020 18:34:20.000,255.439,6.095,1733.398265
3 Feb 2020 18:34:21.000,255.524,6.177,1726.937803
3 Feb 2020 18:34:22.000,255.609,6.259,1720.481597
3 Feb 2020 18:34:23.000,255.695,6.341,1714.029701
3 Feb 2020 18:34:24.000,255.782,6.424,1707.582172
3 Feb 2020 18:34:25.000,255.870,6.507,1701.139063
3 Feb 2020 18:34:26.000,255.958,6.590,1694.700440
3 Feb 2020 18:34:27.000,256.047,6.674,1688.266356
3 Feb 2020 18:34:28.000,256.136,6.758,1681.836873
3 Feb 2020 18:34:29.000,256.227,6.843,1675.412049
3 Feb 2020 18:34:30.000,256.317,6.928,1668.991947
3 Feb 2020 18:34:31.000,256.409,7.013,1662.576628
3 Feb 2020 18:34:32.000,256.502,7.098,1656.166151
3 Feb 2020 18:34:33.000,256.595,7.184,1649.760588
3 Feb 2020 18:34:34.000,256.689,7.271,1643.359999
3 Feb 2020 18:34:35.000,256.783,7.358,1636.964451
3 Feb 2020 18:34:36.000,256.879,7.445,1630.574009
3 Feb 2020 18:34:37.000,256.975,7.533,1624.188743
3 Feb 2020 18:34:38.000,257.072,7.621,1617.808719
3 Feb 2020 18:34:39.000,257.169,7.709,1611.434004
3 Feb 2020 18:34:40.000,257.268,7.798,1605.064675
3 Feb 2020 18:34:41.000,257.367,7.887,1598.700802
3 Feb 2020 18:34:42.000,257.467,7.977,1592.342455
3 Feb 2020 18:34:43.000,257.568,8.067,1585.989710
3 Feb 2020 18:34:44.000,257.670,8.158,1579.642641
3 Feb 2020 18:34:45.000,257.773,8.249,1573.301323
3 Feb 2020 18:34:46.000,257.876,8.340,1566.965835
3 Feb 2020 18:34:47.000,257.981,8.432,1560.636253
3 Feb 2020 18:34:48.000,258.086,8.524,1554.312654
3 Feb 2020 18:34:49.000,258.192,8.617,1547.995126
3 Feb 2020 18:34:50.000,258.299,8.710,1541.683747
3 Feb 2020 18:34:51.000,258.407,8.804,1535.378599
3 Feb 2020 18:34:52.000,258.516,8.898,1529.079767
3 Feb 2020 18:34:53.000,258.626,8.993,1522.787337
3 Feb 2020 18:34:54.000,258.736,9.088,1516.501395
3 Feb 2020 18:34:55.000,258.848,9.184,1510.222030
3 Feb 2020 18:34:56.000,258.961,9.280,1503.949330
3 Feb 2020 18:34:57.000,259.075,9.376,1497.683388
3 Feb 2020 18:34:58.000,259.189,9.473,1491.424292
3 Feb 2020 18:34:59.000,259.305,9.571,1485.172141
3 Feb 2020 18:35:00.000,259.422,9.669,1478.927029
3 Feb 2020 18:35:01.000,259.539,9.768,1472.689052
3 Feb 2020 18:35:02.000,259.658,9.867,1466.458307
3 Feb 2020 18:35:03.000,259.778,9.966,1460.234895
3 Feb 2020 18:35:04.000,259.899,10.066,1454.018916
3 Feb 2020 18:35:05.000,260.021,10.167,1447.810474
3 Feb 2020 18:35:06.000,260.144,10.268,1441.609673
3 Feb 2020 18:35:07.000,260.268,10.370,1435.416619
3 Feb 2020 18:35:08.000,260.394,10.472,1429.231419
3 Feb 2020 18:35:09.000,260.520,10.575,1423.054183
3 Feb 2020 18:35:10.000,260.648,10.678,1416.885023
3 Feb 2020 18:35:11.000,260.777,10.782,1410.724051
3 Feb 2020 18:35:12.000,260.907,10.887,1404.571378
3 Feb 2020 18:35:13.000,261.038,10.992,1398.427128
3 Feb 2020 18:35:14.000,261.171,11.097,1392.291416
3 Feb 2020 18:35:15.000,261.305,11.203,1386.164362
3 Feb 2020 18:35:16.000,261.440,11.310,1380.046088
3 Feb 2020 18:35:17.000,261.576,11.417,1373.936719
3 Feb 2020 18:35:18.000,261.714,11.525,1367.836381
3 Feb 2020 18:35:19.000,261.852,11.634,1361.745202
3 Feb 2020 18:35:20.000,261.993,11.743,1355.663312
3 Feb 2020 18:35:21.000,262.134,11.853,1349.590844
3 Feb 2020 18:35:22.000,262.277,11.963,1343.527933
3 Feb 2020 18:35:23.000,262.422,12.074,1337.474715
3 Feb 2020 18:35:24.000,262.567,12.185,1331.431329
3 Feb 2020 18:35:25.000,262.715,12.298,1325.397917
3 Feb 2020 18:35:26.000,262.863,12.410,1319.374622
3 Feb 2020 18:35:27.000,263.013,12.524,1313.361590
3 Feb 2020 18:35:28.000,263.165,12.638,1307.358970
3 Feb 2020 18:35:29.000,263.318,12.753,1301.366913
3 Feb 2020 18:35:30.000,263.473,12.868,1295.385571
3 Feb 2020 18:35:31.000,263.629,12.984,1289.415101
3 Feb 2020 18:35:32.000,263.787,13.101,1283.455661
3 Feb 2020 18:35:33.000,263.946,13.218,1277.507412
3 Feb 2020 18:35:34.000,264.107,13.336,1271.570518
3 Feb 2020 18:35:35.000,264.270,13.455,1265.645145
3 Feb 2020 18:35:36.000,264.434,13.574,1259.731463
3 Feb 2020 18:35:37.000,264.600,13.694,1253.829643
3 Feb 2020 18:35:38.000,264.768,13.815,1247.939861
3 Feb 2020 18:35:39.000,264.937,13.937,1242.062295
3 Feb 2020 18:35:40.000,265.108,14.059,1236.197125
3 Feb 2020 18:35:41.000,265.281,14.182,1230.344535
3 Feb 2020 18:35:42.000,265.456,14.305,1224.504712
3 Feb 2020 18:35:43.000,265.633,14.430,1218.677846
3 Feb 2020 18:35:44.000,265.811,14.555,1212.864130
3 Feb 2020 18:35:45.000,265.992,14.681,1207.063765
3 Feb 2020 18:35:46.000,266.174,14.807,1201.276943
3 Feb 2020 18:35:47.000,266.358,14.934,1195.503871
3 Feb 2020 18:35:48.000,266.545,15.062,1189.744756
3 Feb 2020 18:35:49.000,266.733,15.191,1183.999807
3 Feb 2020 18:35:50.000,266.923,15.320,1178.269239
3 Feb 2020 18:35:51.000,267.116,15.451,1172.553268
3 Feb 2020 18:35:52.000,267.310,15.582,1166.852116
3 Feb 2020 18:35:53.000,267.507,15.713,1161.166007
3 Feb 2020 18:35:54.000,267.705,15.846,1155.495169
3 Feb 2020 18:35:55.000,267.906,15.979,1149.839835
3 Feb 2020 18:35:56.000,268.110,16.113,1144.200245
3 Feb 2020 18:35:57.000,268.315,16.248,1138.576631
3 Feb 2020 18:35:58.000,268.523,16.384,1132.969241
3 Feb 2020 18:35:59.000,268.733,16.520,1127.378325
3 Feb 2020 18:36:00.000,268.945,16.657,1121.804133
3 Feb 2020 18:36:01.000,269.160,16.795,1116.246923
3 Feb 2020 18:36:02.000,269.377,16.934,1110.706957
3 Feb 2020 18:36:03.000,269.597,17.073,1105.184499
3 Feb 2020 18:36:04.000,269.819,17.214,1099.679823
3 Feb 2020 18:36:05.000,270.044,17.355,1094.193196
3 Feb 2020 18:36:06.000,270.271,17.497,1088.724901
3 Feb 2020 18:36:07.000,270.501,17.639,1083.275221
3 Feb 2020 18:36:08.000,270.734,17.783,1077.844446
3 Feb 2020 18:36:09.000,270.969,17.927,1072.432871
3 Feb 2020 18:36:10.000,271.208,18.072,1067.040787
3 Feb 2020 18:36:11.000,271.448,18.218,1061.668502
3 Feb 2020 18:36:12.000,271.692,18.365,1056.316323
3 Feb 2020 18:36:13.000,271.939,18.512,1050.984563
3 Feb 2020 18:36:14.000,272.188,18.660,1045.673545
3 Feb 2020 18:36:15.000,272.441,18.810,1040.383583
3 Feb 2020 18:36:16.000,272.696,18.959,1035.115012
3 Feb 2020 18:36:17.000,272.955,19.110,1029.868164
3 Feb 2020 18:36:18.000,273.216,19.261,1024.643382
3 Feb 2020 18:36:19.000,273.481,19.414,1019.441006
3 Feb 2020 18:36:20.000,273.749,19.567,1014.261388
3 Feb 2020 18:36:21.000,274.020,19.720,1009.104885
3 Feb 2020 18:36:22.000,274.294,19.875,1003.971863
3 Feb 2020 18:36:23.000,274.572,20.030,998.862681
3 Feb 2020 18:36:24.000,274.853,20.186,993.777717
3 Feb 2020 18:36:25.000,275.137,20.343,988.717352
3 Feb 2020 18:36:26.000,275.425,20.501,983.681967
3 Feb 2020 18:36:27.000,275.717,20.659,978.671955
3 Feb 2020 18:36:28.000,276.012,20.818,973.687716
3 Feb 2020 18:36:29.000,276.311,20.978,968.729647
3 Feb 2020 18:36:30.000,276.613,21.138,963.798161
3 Feb 2020 18:36:31.000,276.919,21.299,958.893677
3 Feb 2020 18:36:32.000,277.229,21.461,954.016609
3 Feb 2020 18:36:33.000,277.543,21.623,949.167389
3 Feb 2020 18:36:34.000,277.860,21.786,944.346455
3 Feb 2020 18:36:35.000,278.182,21.950,939.554241
3 Feb 2020 18:36:36.000,278.507,22.114,934.791199
3 Feb 2020 18:36:37.000,278.837,22.279,930.057777
3 Feb 2020 18:36:38.000,279.171,22.445,925.354438
3 Feb 2020 18:36:39.000,279.509,22.611,920.681651
3 Feb 2020 18:36:40.000,279.851,22.778,916.039883
3 Feb 2020 18:36:41.000,280.197,22.945,911.429618
3 Feb 2020 18:36:42.000,280.548,23.113,906.851335
3 Feb 2020 18:36:43.000,280.903,23.281,902.305534
3 Feb 2020 18:36:44.000,281.263,23.450,897.792705
3 Feb 2020 18:36:45.000,281.627,23.619,893.313359
3 Feb 2020 18:36:46.000,281.996,23.788,888.868002
3 Feb 2020 18:36:47.000,282.369,23.958,884.457157
3 Feb 2020 18:36:48.000,282.747,24.128,880.081341
3 Feb 2020 18:36:49.000,283.130,24.299,875.741090
3 Feb 2020 18:36:50.000,283.518,24.469,871.436934
3 Feb 2020 18:36:51.000,283.910,24.641,867.169421
3 Feb 2020 18:36:52.000,284.307,24.812,862.939093
3 Feb 2020 18:36:53.000,284.710,24.983,858.746511
3 Feb 2020 18:36:54.000,285.117,25.155,854.592231
3 Feb 2020 18:36:55.000,285.530,25.326,850.476816
3 Feb 2020 18:36:56.000,285.947,25.498,846.400844
3 Feb 2020 18:36:57.000,286.370,25.670,842.364887
3 Feb 2020 18:36:58.000,286.798,25.842,838.369525
3 Feb 2020 18:36:59.000,287.232,26.013,834.415353
3 Feb 2020 18:37:00.000,287.670,26.185,830.502958
3 Feb 2020 18:37:01.000,288.114,26.356,826.632936
3 Feb 2020 18:37:02.000,288.564,26.527,822.805893
3 Feb 2020 18:37:03.000,289.019,26.698,819.022435
3 Feb 2020 18:37:04.000,289.480,26.868,815.283168
3 Feb 2020 18:37:05.000,289.946,27.038,811.588713
3 Feb 2020 18:37:06.000,290.418,27.208,807.939686
3 Feb 2020 18:37:07.000,290.895,27.376,804.336709
3 Feb 2020 18:37:08.000,291.378,27.545,800.780407
3 Feb 2020 18:37:09.000,291.867,27.713,797.271405
3 Feb 2020 18:37:10.000,292.362,27.880,793.810340
3 Feb 2020 18:37:11.000,292.863,28.046,790.397843
3 Feb 2020 18:37:12.000,293.369,28.211,787.034548
3 Feb 2020 18:37:13.000,293.881,28.375,783.721093
3 Feb 2020 18:37:14.000,294.399,28.539,780.458115
3 Feb 2020 18:37:15.000,294.923,28.701,777.246255
3 Feb 2020 18:37:16.000,295.453,28.862,774.086150
3 Feb 2020 18:37:17.000,295.989,29.022,770.978441
3 Feb 2020 18:37:18.000,296.531,29.180,767.923768
3 Feb 2020 18:37:19.000,297.079,29.337,764.922767
3 Feb 2020 18:37:20.000,297.632,29.493,761.976078
3 Feb 2020 18:37:21.000,298.192,29.647,759.084334
3 Feb 2020 18:37:22.000,298.757,29.799,756.248169
3 Feb 2020 18:37:23.000,299.329,29.949,753.468214
3 Feb 2020 18:37:24.000,299.906,30.098,750.745096
3 Feb 2020 18:37:25.000,300.489,30.245,748.079438
3 Feb 2020 18:37:26.000,301.079,30.389,745.471859
3 Feb 2020 18:37:27.000,301.673,30.532,742.922972
3 Feb 2020 18:37:28.000,302.274,30.672,740.433388
3 Feb 2020 18:37:29.000,302.880,30.810,738.003707
3 Feb 2020 18:37:30.000,303.492,30.945,735.634529
3 Feb 2020 18:37:31.000,304.110,31.078,733.326437
3 Feb 2020 18:37:32.000,304.733,31.208,731.080014
3 Feb 2020 18:37:33.000,305.362,31.336,728.895832
3 Feb 2020 18:37:34.000,305.996,31.461,726.774458
3 Feb 2020 18:37:35.000,306.635,31.582,724.716439
3 Feb 2020 18:37:36.000,307.280,31.701,722.722322
3 Feb 2020 18:37:37.000,307.930,31.817,720.792640
3 Feb 2020 18:37:38.000,308.584,31.929,718.927910
3 Feb 2020 18:37:39.000,309.244,32.039,717.128642
3 Feb 2020 18:37:40.000,309.908,32.144,715.395333
3 Feb 2020 18:37:41.000,310.578,32.247,713.728462
3 Feb 2020 18:37:42.000,311.251,32.345,712.128501
3 Feb 2020 18:37:43.000,311.929,32.441,710.595898
3 Feb 2020 18:37:44.000,312.612,32.532,709.131096
3 Feb 2020 18:37:45.000,313.298,32.619,707.734512
3 Feb 2020 18:37:46.000,313.988,32.703,706.406557
3 Feb 2020 18:37:47.000,314.683,32.783,705.147615
3 Feb 2020 18:37:48.000,315.380,32.858,703.958062
3 Feb 2020 18:37:49.000,316.082,32.930,702.838248
3 Feb 2020 18:37:50.000,316.786,32.997,701.788505
3 Feb 2020 18:37:51.000,317.494,33.060,700.809155
3 Feb 2020 18:37:52.000,318.204,33.119,699.900489
3 Feb 2020 18:37:53.000,318.917,33.173,699.062784
3 Feb 2020 18:37:54.000,319.633,33.223,698.296297
3 Feb 2020 18:37:55.000,320.351,33.268,697.601263
3 Feb 2020 18:37:56.000,321.071,33.309,696.977894
3 Feb 2020 18:37:57.000,321.792,33.345,696.426385
3 Feb 2020 18:37:58.000,322.516,33.377,695.946907
3 Feb 2020 18:37:59.000,323.240,33.404,695.539607
3 Feb 2020 18:38:00.000,323.966,33.426,695.204612
3 Feb 2020 18:38:01.000,324.693,33.444,694.942028
3 Feb 2020 18:38:02.000,325.421,33.457,694.751935
3 Feb 2020 18:38:03.000,326.149,33.465,694.634393
3 Feb 2020 18:38:04.000,326.878,33.468,694.589438
3 Feb 2020 18:38:05.000,327.606,33.467,694.617084
3 Feb 2020 18:38:06.000,328.334,33.461,694.717321
3 Feb 2020 18:38:07.000,329.062,33.450,694.890118
3 Feb 2020 18:38:08.000,329.789,33.435,695.135419
3 Feb 2020 18:38:09.000,330.516,33.414,695.453146
3 Feb 2020 18:38:10.000,331.241,33.390,695.843201
3 Feb 2020 18:38:11.000,331.965,33.360,696.305459
3 Feb 2020 18:38:12.000,332.687,33.326,696.839777
3 Feb 2020 18:38:13.000,333.407,33.287,697.445986
3 Feb 2020 18:38:14.000,334.126,33.244,698.123901
3 Feb 2020 18:38:15.000,334.842,33.196,698.873309
3 Feb 2020 18:38:16.000,335.556,33.144,699.693978
3 Feb 2020 18:38:17.000,336.267,33.087,700.585659
3 Feb 2020 18:38:18.000,336.976,33.026,701.548078
3 Feb 2020 18:38:19.000,337.681,32.961,702.580942
3 Feb 2020 18:38:20.000,338.384,32.891,703.683940
3 Feb 2020 18:38:21.000,339.083,32.817,704.856741
3 Feb 2020 18:38:22.000,339.778,32.740,706.098994
3 Feb 2020 18:38:23.000,340.469,32.658,707.410333
3 Feb 2020 18:38:24.000,341.157,32.572,708.790370
3 Feb 2020 18:38:25.000,341.841,32.483,710.238704
3 Feb 2020 18:38:26.000,342.520,32.389,711.754915
3 Feb 2020 18:38:27.000,343.195,32.292,713.338569
3 Feb 2020 18:38:28.000,343.866,32.192,714.989214
3 Feb 2020 18:38:29.000,344.532,32.087,716.706385
3 Feb 2020 18:38:30.000,345.193,31.980,718.489603
3 Feb 2020 18:38:31.000,345.849,31.869,720.338375
3 Feb 2020 18:38:32.000,346.500,31.755,722.252194
3 Feb 2020 18:38:33.000,347.146,31.638,724.230541
3 Feb 2020 18:38:34.000,347.787,31.517,726.272887
3 Feb 2020 18:38:35.000,348.423,31.394,728.378691
3 Feb 2020 18:38:36.000,349.053,31.268,730.547399
3 Feb 2020 18:38:37.000,349.678,31.139,732.778452
3 Feb 2020 18:38:38.000,350.298,31.008,735.071278
3 Feb 2020 18:38:39.000,350.912,30.874,737.425297
3 Feb 2020 18:38:40.000,351.520,30.737,739.839923
3 Feb 2020 18:38:41.000,352.122,30.598,742.314559
3 Feb 2020 18:38:42.000,352.719,30.457,744.848606
3 Feb 2020 18:38:43.000,353.310,30.314,747.441454
3 Feb 2020 18:38:44.000,353.895,30.169,750.092491
3 Feb 2020 18:38:45.000,354.474,30.021,752.801098
3 Feb 2020 18:38:46.000,355.047,29.872,755.566652
3 Feb 2020 18:38:47.000,355.615,29.721,758.388527
3 Feb 2020 18:38:48.000,356.176,29.568,761.266092
3 Feb 2020 18:38:49.000,356.732,29.413,764.198714
3 Feb 2020 18:38:50.000,357.281,29.257,767.185758
3 Feb 2020 18:38:51.000,357.825,29.100,770.226587
3 Feb 2020 18:38:52.000,358.363,28.941,773.320562
3 Feb 2020 18:38:53.000,358.895,28.781,776.467044
3 Feb 2020 18:38:54.000,359.420,28.620,779.665392
3 Feb 2020 18:38:55.000,359.940,28.457,782.914967
3 Feb 2020 18:38:56.000,0.455,28.294,786.215129
3 Feb 2020 18:38:57.000,0.963,28.129,789.565240
3 Feb 2020 18:38:58.000,1.465,27.964,792.964662
3 Feb 2020 18:38:59.000,1.962,27.798,796.412759
3 Feb 2020 18:39:00.000,2.453,27.631,799.908897
3 Feb 2020 18:39:01.000,2.938,27.463,803.452445
3 Feb 2020 18:39:02.000,3.417,27.295,807.042772
3 Feb 2020 18:39:03.000,3.891,27.126,810.679253
3 Feb 2020 18:39:04.000,4.359,26.957,814.361265
3 Feb 2020 18:39:05.000,4.821,26.787,818.088189
3 Feb 2020 18:39:06.000,5.278,26.617,821.859408
3 Feb 2020 18:39:07.000,5.729,26.447,825.674310
3 Feb 2020 18:39:08.000,6.175,26.276,829.532288
3 Feb 2020 18:39:09.000,6.616,26.105,833.432738
3 Feb 2020 18:39:10.000,7.051,25.934,837.375063
3 Feb 2020 18:39:11.000,7.481,25.763,841.358668
3 Feb 2020 18:39:12.000,7.905,25.592,845.382965
3 Feb 2020 18:39:13.000,8.324,25.420,849.447369
3 Feb 2020 18:39:14.000,8.739,25.249,853.551303
3 Feb 2020 18:39:15.000,9.148,25.078,857.694195
3 Feb 2020 18:39:16.000,9.552,24.907,861.875476
3 Feb 2020 18:39:17.000,9.951,24.736,866.094587
3 Feb 2020 18:39:18.000,10.345,24.566,870.350970
3 Feb 2020 18:39:19.000,10.734,24.395,874.644076
3 Feb 2020 18:39:20.000,11.119,24.225,878.973363
3 Feb 2020 18:39:21.000,11.498,24.055,883.338292
3 Feb 2020 18:39:22.000,11.873,23.886,887.738332
3 Feb 2020 18:39:23.000,12.243,23.716,892.172957
3 Feb 2020 18:39:24.000,12.609,23.548,896.641650
3 Feb 2020 18:39:25.000,12.970,23.379,901.143897
3 Feb 2020 18:39:26.000,13.327,23.211,905.679193
3 Feb 2020 18:39:27.000,13.679,23.044,910.247037
3 Feb 2020 18:39:28.000,14.027,22.877,914.846938
3 Feb 2020 18:39:29.000,14.371,22.711,919.478405
3 Feb 2020 18:39:30.000,14.710,22.545,924.140962
3 Feb 2020 18:39:31.000,15.046,22.379,928.834131
3 Feb 2020 18:39:32.000,15.377,22.215,933.557447
3 Feb 2020 18:39:33.000,15.704,22.051,938.310449
3 Feb 2020 18:39:34.000,16.027,21.887,943.092680
3 Feb 2020 18:39:35.000,16.346,21.724,947.903693
3 Feb 2020 18:39:36.000,16.661,21.562,952.743045
3 Feb 2020 18:39:37.000,16.972,21.400,957.610301
3 Feb 2020 18:39:38.000,17.279,21.239,962.505033
3 Feb 2020 18:39:39.000,17.583,21.079,967.426814
3 Feb 2020 18:39:40.000,17.883,20.920,972.375231
3 Feb 2020 18:39:41.000,18.180,20.761,977.349871
3 Feb 2020 18:39:42.000,18.472,20.603,982.350329
3 Feb 2020 18:39:43.000,18.762,20.445,987.376209
3 Feb 2020 18:39:44.000,19.047,20.289,992.427116
3 Feb 2020 18:39:45.000,19.330,20.133,997.502664
3 Feb 2020 18:39:46.000,19.609,19.977,1002.602474
3 Feb 2020 18:39:47.000,19.884,19.823,1007.726168
3 Feb 2020 18:39:48.000,20.157,19.669,1012.873380
3 Feb 2020 18:39:49.000,20.426,19.517,1018.043746
3 Feb 2020 18:39:50.000,20.692,19.364,1023.236910
3 Feb 2020 18:39:51.000,20.954,19.213,1028.452517
3 Feb 2020 18:39:52.000,21.214,19.063,1033.690223
3 Feb 2020 18:39:53.000,21.471,18.913,1038.949686
3 Feb 2020 18:39:54.000,21.724,18.764,1044.230573
3 Feb 2020 18:39:55.000,21.975,18.616,1049.532552
3 Feb 2020 18:39:56.000,22.223,18.468,1054.855298
3 Feb 2020 18:39:57.000,22.468,18.322,1060.198493
3 Feb 2020 18:39:58.000,22.710,18.176,1065.561824
3 Feb 2020 18:39:59.000,22.949,18.031,1070.944978
3 Feb 2020 18:40:00.000,23.185,17.886,1076.347653
3 Feb 2020 18:40:01.000,23.419,17.743,1081.769550
3 Feb 2020 18:40:02.000,23.650,17.600,1087.210374
3 Feb 2020 18:40:03.000,23.879,17.459,1092.669837
3 Feb 2020 18:40:04.000,24.104,17.317,1098.147653
3 Feb 2020 18:40:05.000,24.328,17.177,1103.643541
3 Feb 2020 18:40:06.000,24.549,17.038,1109.157228
3 Feb 2020 18:40:07.000,24.767,16.899,1114.688441
3 Feb 2020 18:40:08.000,24.983,16.761,1120.236914
3 Feb 2020 18:40:09.000,25.196,16.624,1125.802386
3 Feb 2020 18:40:10.000,25.407,16.488,1131.384600
3 Feb 2020 18:40:11.000,25.616,16.352,1136.983299
3 Feb 2020 18:40:12.000,25.823,16.217,1142.598236
3 Feb 2020 18:40:13.000,26.027,16.083,1148.229166
3 Feb 2020 18:40:14.000,26.229,15.950,1153.875847
3 Feb 2020 18:40:15.000,26.428,15.818,1159.538043
3 Feb 2020 18:40:16.000,26.626,15.686,1165.215520
3 Feb 2020 18:40:17.000,26.822,15.555,1170.908050
3 Feb 2020 18:40:18.000,27.015,15.425,1176.615408
3 Feb 2020 18:40:19.000,27.206,15.295,1182.337369
3 Feb 2020 18:40:20.000,27.395,15.167,1188.073716
3 Feb 2020 18:40:21.000,27.583,15.039,1193.824237
3 Feb 2020 18:40:22.000,27.768,14.911,1199.588718
3 Feb 2020 18:40:23.000,27.951,14.785,1205.366954
3 Feb 2020 18:40:24.000,28.132,14.659,1211.158740
3 Feb 2020 18:40:25.000,28.312,14.534,1216.963876
3 Feb 2020 18:40:26.000,28.490,14.410,1222.782164
3 Feb 2020 18:40:27.000,28.665,14.286,1228.613411
3 Feb 2020 18:40:28.000,28.839,14.163,1234.457425
3 Feb 2020 18:40:29.000,29.011,14.041,1240.314018
3 Feb 2020 18:40:30.000,29.182,13.920,1246.183008
3 Feb 2020 18:40:31.000,29.350,13.799,1252.064211
3 Feb 2020 18:40:32.000,29.517,13.679,1257.957450
3 Feb 2020 18:40:33.000,29.682,13.559,1263.862548
3 Feb 2020 18:40:34.000,29.846,13.441,1269.779336
3 Feb 2020 18:40:35.000,30.008,13.323,1275.707638
3 Feb 2020 18:40:36.000,30.168,13.205,1281.647292
3 Feb 2020 18:40:37.000,30.327,13.089,1287.598131
3 Feb 2020 18:40:38.000,30.484,12.972,1293.559994
3 Feb 2020 18:40:39.000,30.639,12.857,1299.532722
3 Feb 2020 18:40:40.000,30.793,12.742,1305.516160
3 Feb 2020 18:40:41.000,30.946,12.628,1311.510152
3 Feb 2020 18:40:42.000,31.097,12.515,1317.514547
3 Feb 2020 18:40:43.000,31.246,12.402,1323.529198
3 Feb 2020 18:40:44.000,31.394,12.290,1329.553956
3 Feb 2020 18:40:45.000,31.541,12.178,1335.588679
3 Feb 2020 18:40:46.000,31.686,12.067,1341.633223
3 Feb 2020 18:40:47.000,31.830,11.957,1347.687451
3 Feb 2020 18:40:48.000,31.972,11.847,1353.751223
3 Feb 2020 18:40:49.000,32.113,11.738,1359.824406
3 Feb 2020 18:40:50.000,32.253,11.630,1365.906865
3 Feb 2020 18:40:51.000,32.392,11.522,1371.998471
3 Feb 2020 18:40:52.000,32.529,11.414,1378.099096
3 Feb 2020 18:40:53.000,32.665,11.308,1384.208612
3 Feb 2020 18:40:54.000,32.799,11.202,1390.326894
3 Feb 2020 18:40:55.000,32.933,11.096,1396.453820
3 Feb 2020 18:40:56.000,33.065,10.991,1402.589270
3 Feb 2020 18:40:57.000,33.196,10.886,1408.733124
3 Feb 2020 18:40:58.000,33.325,10.783,1414.885265
3 Feb 2020 18:40:59.000,33.454,10.679,1421.045578
3 Feb 2020 18:41:00.000,33.581,10.576,1427.213950
3 Feb 2020 18:41:01.000,33.707,10.474,1433.390270
3 Feb 2020 18:41:02.000,33.832,10.373,1439.574428
3 Feb 2020 18:41:03.000,33.956,10.271,1445.766314
3 Feb 2020 18:41:04.000,34.079,10.171,1451.965825
3 Feb 2020 18:41:05.000,34.201,10.071,1458.172853
3 Feb 2020 18:41:06.000,34.322,9.971,1464.387297
3 Feb 2020 18:41:07.000,34.441,9.872,1470.609054
3 Feb 2020 18:41:08.000,34.560,9.773,1476.838025
3 Feb 2020 18:41:09.000,34.677,9.675,1483.074110
3 Feb 2020 18:41:10.000,34.794,9.578,1489.317214
3 Feb 2020 18:41:11.000,34.909,9.481,1495.567242
3 Feb 2020 18:41:12.000,35.024,9.384,1501.824098
3 Feb 2020 18:41:13.000,35.137,9.288,1508.087691
3 Feb 2020 18:41:14.000,35.250,9.192,1514.357929
3 Feb 2020 18:41:15.000,35.361,9.097,1520.634722
3 Feb 2020 18:41:16.000,35.472,9.003,1526.917982
3 Feb 2020 18:41:17.000,35.582,8.909,1533.207622
3 Feb 2020 18:41:18.000,35.690,8.815,1539.503556
3 Feb 2020 18:41:19.000,35.798,8.722,1545.805699
3 Feb 2020 18:41:20.000,35.905,8.629,1552.113967
3 Feb 2020 18:41:21.000,36.011,8.536,1558.428280
3 Feb 2020 18:41:22.000,36.116,8.445,1564.748557
3 Feb 2020 18:41:23.000,36.221,8.353,1571.074718
3 Feb 2020 18:41:24.000,36.324,8.262,1577.406684
3 Feb 2020 18:41:25.000,36.427,8.172,1583.744377
3 Feb 2020 18:41:26.000,36.528,8.081,1590.087723
3 Feb 2020 18:41:27.000,36.629,7.992,1596.436646
3 Feb 2020 18:41:28.000,36.730,7.902,1602.791071
3 Feb 2020 18:41:29.000,36.829,7.814,1609.150925
3 Feb 2020 18:41:30.000,36.927,7.725,1615.516138
3 Feb 2020 18:41:31.000,37.025,7.637,1621.886639
3 Feb 2020 18:41:32.000,37.122,7.550,1628.262358
3 Feb 2020 18:41:33.000,37.218,7.462,1634.643226
3 Feb 2020 18:41:34.000,37.314,7.375,1641.029175
3 Feb 2020 18:41:35.000,37.408,7.289,1647.420138
3 Feb 2020 18:41:36.000,37.502,7.203,1653.816049
3 Feb 2020 18:41:37.000,37.595,7.117,1660.216842
3 Feb 2020 18:41:38.000,37.688,7.032,1666.622457
3 Feb 2020 18:41:39.000,37.780,6.947,1673.032829
3 Feb 2020 18:41:40.000,37.871,6.863,1679.447895
3 Feb 2020 18:41:41.000,37.961,6.779,1685.867593
3 Feb 2020 18:41:42.000,38.051,6.695,1692.291865
3 Feb 2020 18:41:43.000,38.140,6.612,1698.720649
3 Feb 2020 18:41:44.000,38.228,6.529,1705.153885
3 Feb 2020 18:41:45.000,38.315,6.446,1711.591520
3 Feb 2020 18:41:46.000,38.402,6.364,1718.033493
3 Feb 2020 18:41:47.000,38.489,6.282,1724.479749
3 Feb 2020 18:41:48.000,38.574,6.200,1730.930232
3 Feb 2020 18:41:49.000,38.659,6.119,1737.384887
3 Feb 2020 18:41:50.000,38.744,6.038,1743.843658
3 Feb 2020 18:41:51.000,38.828,5.958,1750.306496
3 Feb 2020 18:41:52.000,38.911,5.877,1756.773346
3 Feb 2020 18:41:53.000,38.993,5.798,1763.244156
3 Feb 2020 18:41:54.000,39.075,5.718,1769.718875
3 Feb 2020 18:41:55.000,39.157,5.639,1776.197453
3 Feb 2020 18:41:56.000,39.237,5.560,1782.679838
3 Feb 2020 18:41:57.000,39.318,5.482,1789.165981
3 Feb 2020 18:41:58.000,39.397,5.403,1795.655837
3 Feb 2020 18:41:59.000,39.476,5.325,1802.149356
3 Feb 2020 18:42:00.000,39.555,5.248,1808.646490
3 Feb 2020 18:42:01.000,39.633,5.171,1815.147193
3 Feb 2020 18:42:02.000,39.710,5.094,1821.651419
3 Feb 2020 18:42:03.000,39.787,5.017,1828.159121
3 Feb 2020 18:42:04.000,39.863,4.941,1834.670257
3 Feb 2020 18:42:05.000,39.939,4.865,1841.184782
3 Feb 2020 18:42:06.000,40.014,4.789,1847.702651
3 Feb 2020 18:42:07.000,40.089,4.713,1854.223822
3 Feb 2020 18:42:08.000,40.163,4.638,1860.748253
3 Feb 2020 18:42:09.000,40.237,4.563,1867.275898
3 Feb 2020 18:42:10.000,40.310,4.489,1873.806721
3 Feb 2020 18:42:11.000,40.383,4.414,1880.340679
3 Feb 2020 18:42:12.000,40.455,4.340,1886.877731
3 Feb 2020 18:42:13.000,40.526,4.267,1893.417838
3 Feb 2020 18:42:14.000,40.598,4.193,1899.960957
3 Feb 2020 18:42:15.000,40.668,4.120,1906.507055
3 Feb 2020 18:42:16.000,40.739,4.047,1913.056090
3 Feb 2020 18:42:17.000,40.808,3.975,1919.608026
3 Feb 2020 18:42:18.000,40.878,3.902,1926.162823
3 Feb 2020 18:42:19.000,40.947,3.830,1932.720446
3 Feb 2020 18:42:20.000,41.015,3.758,1939.280856
3 Feb 2020 18:42:21.000,41.083,3.687,1945.844020
3 Feb 2020 18:42:22.000,41.150,3.615,1952.409902
3 Feb 2020 18:42:23.000,41.217,3.544,1958.978466
3 Feb 2020 18:42:24.000,41.284,3.473,1965.549676
3 Feb 2020 18:42:25.000,41.350,3.403,1972.123498
3 Feb 2020 18:42:26.000,41.416,3.333,1978.699900
3 Feb 2020 18:42:27.000,41.481,3.263,1985.278848
3 Feb 2020 18:42:28.000,41.546,3.193,1991.860308
3 Feb 2020 18:42:29.000,41.611,3.123,1998.444248
3 Feb 2020 18:42:30.000,41.675,3.054,2005.030633
3 Feb 2020 18:42:31.000,41.739,2.985,2011.619435
3 Feb 2020 18:42:32.000,41.802,2.916,2018.210621
3 Feb 2020 18:42:33.000,41.865,2.847,2024.804160
3 Feb 2020 18:42:34.000,41.927,2.779,2031.400020
3 Feb 2020 18:42:35.000,41.990,2.711,2037.998170
3 Feb 2020 18:42:36.000,42.051,2.643,2044.598583
3 Feb 2020 18:42:37.000,42.113,2.575,2051.201228
3 Feb 2020 18:42:38.000,42.174,2.508,2057.806074
3 Feb 2020 18:42:39.000,42.234,2.440,2064.413094
3 Feb 2020 18:42:40.000,42.295,2.373,2071.022256
3 Feb 2020 18:42:41.000,42.354,2.307,2077.633537
3 Feb 2020 18:42:42.000,42.414,2.240,2084.246905
3 Feb 2020 18:42:43.000,42.473,2.174,2090.862333
3 Feb 2020 18:42:44.000,42.532,2.107,2097.479795
3 Feb 2020 18:42:45.000,42.590,2.041,2104.099259
3 Feb 2020 18:42:46.000,42.648,1.976,2110.720706
3 Feb 2020 18:42:47.000,42.706,1.910,2117.344104
3 Feb 2020 18:42:48.000,42.763,1.845,2123.969429
3 Feb 2020 18:42:49.000,42.821,1.780,2130.596654
