vcc_sched/network/input/aer_odugs_wj2xoh_vcc-a_44428.csv

"Time (UTCG)","Azimuth (deg)","Elevation (deg)","Range (km)"
16 Dec 2019 17:25:11.233,320.788,-0.124,2336.263373
16 Dec 2019 17:25:12.000,320.890,-0.092,2332.693303
16 Dec 2019 17:25:13.000,321.025,-0.051,2328.048568
16 Dec 2019 17:25:14.000,321.159,-0.009,2323.414567
16 Dec 2019 17:25:15.000,321.295,0.032,2318.791373
16 Dec 2019 17:25:16.000,321.430,0.074,2314.179057
16 Dec 2019 17:25:17.000,321.567,0.116,2309.577686
16 Dec 2019 17:25:18.000,321.704,0.157,2304.987335
16 Dec 2019 17:25:19.000,321.841,0.199,2300.408071
16 Dec 2019 17:25:20.000,321.979,0.240,2295.839970
16 Dec 2019 17:25:21.000,322.117,0.282,2291.283099
16 Dec 2019 17:25:22.000,322.256,0.323,2286.737536
16 Dec 2019 17:25:23.000,322.396,0.365,2282.203349
16 Dec 2019 17:25:24.000,322.536,0.406,2277.680615
16 Dec 2019 17:25:25.000,322.677,0.447,2273.169404
16 Dec 2019 17:25:26.000,322.818,0.489,2268.669794
16 Dec 2019 17:25:27.000,322.960,0.530,2264.181855
16 Dec 2019 17:25:28.000,323.102,0.571,2259.705667
16 Dec 2019 17:25:29.000,323.245,0.613,2255.241299
16 Dec 2019 17:25:30.000,323.388,0.654,2250.788832
16 Dec 2019 17:25:31.000,323.532,0.695,2246.348338
16 Dec 2019 17:25:32.000,323.676,0.737,2241.919897
16 Dec 2019 17:25:33.000,323.822,0.778,2237.503581
16 Dec 2019 17:25:34.000,323.967,0.819,2233.099472
16 Dec 2019 17:25:35.000,324.113,0.860,2228.707643
16 Dec 2019 17:25:36.000,324.260,0.901,2224.328177
16 Dec 2019 17:25:37.000,324.407,0.942,2219.961146
16 Dec 2019 17:25:38.000,324.555,0.983,2215.606635
16 Dec 2019 17:25:39.000,324.704,1.024,2211.264719
16 Dec 2019 17:25:40.000,324.853,1.065,2206.935477
16 Dec 2019 17:25:41.000,325.002,1.106,2202.618991
16 Dec 2019 17:25:42.000,325.153,1.147,2198.315339
16 Dec 2019 17:25:43.000,325.303,1.188,2194.024605
16 Dec 2019 17:25:44.000,325.455,1.229,2189.746865
16 Dec 2019 17:25:45.000,325.607,1.270,2185.482205
16 Dec 2019 17:25:46.000,325.759,1.310,2181.230705
16 Dec 2019 17:25:47.000,325.912,1.351,2176.992445
16 Dec 2019 17:25:48.000,326.066,1.392,2172.767511
16 Dec 2019 17:25:49.000,326.220,1.432,2168.555981
16 Dec 2019 17:25:50.000,326.375,1.473,2164.357944
16 Dec 2019 17:25:51.000,326.530,1.514,2160.173480
16 Dec 2019 17:25:52.000,326.687,1.554,2156.002671
16 Dec 2019 17:25:53.000,326.843,1.594,2151.845606
16 Dec 2019 17:25:54.000,327.000,1.635,2147.702366
16 Dec 2019 17:25:55.000,327.158,1.675,2143.573039
16 Dec 2019 17:25:56.000,327.317,1.715,2139.457709
16 Dec 2019 17:25:57.000,327.476,1.756,2135.356459
16 Dec 2019 17:25:58.000,327.635,1.796,2131.269379
16 Dec 2019 17:25:59.000,327.796,1.836,2127.196553
16 Dec 2019 17:26:00.000,327.957,1.876,2123.138070
16 Dec 2019 17:26:01.000,328.118,1.916,2119.094016
16 Dec 2019 17:26:02.000,328.280,1.956,2115.064476
16 Dec 2019 17:26:03.000,328.443,1.996,2111.049543
16 Dec 2019 17:26:04.000,328.606,2.036,2107.049301
16 Dec 2019 17:26:05.000,328.770,2.075,2103.063839
16 Dec 2019 17:26:06.000,328.935,2.115,2099.093248
16 Dec 2019 17:26:07.000,329.100,2.155,2095.137615
16 Dec 2019 17:26:08.000,329.266,2.194,2091.197030
16 Dec 2019 17:26:09.000,329.432,2.234,2087.271584
16 Dec 2019 17:26:10.000,329.599,2.273,2083.361366
16 Dec 2019 17:26:11.000,329.767,2.313,2079.466467
16 Dec 2019 17:26:12.000,329.935,2.352,2075.586976
16 Dec 2019 17:26:13.000,330.104,2.391,2071.722987
16 Dec 2019 17:26:14.000,330.273,2.430,2067.874590
16 Dec 2019 17:26:15.000,330.443,2.469,2064.041874
16 Dec 2019 17:26:16.000,330.614,2.508,2060.224937
16 Dec 2019 17:26:17.000,330.786,2.547,2056.423867
16 Dec 2019 17:26:18.000,330.958,2.586,2052.638757
16 Dec 2019 17:26:19.000,331.130,2.625,2048.869700
16 Dec 2019 17:26:20.000,331.304,2.663,2045.116791
16 Dec 2019 17:26:21.000,331.478,2.702,2041.380121
16 Dec 2019 17:26:22.000,331.652,2.740,2037.659786
16 Dec 2019 17:26:23.000,331.827,2.779,2033.955876
16 Dec 2019 17:26:24.000,332.003,2.817,2030.268490
16 Dec 2019 17:26:25.000,332.180,2.855,2026.597720
16 Dec 2019 17:26:26.000,332.357,2.893,2022.943662
16 Dec 2019 17:26:27.000,332.535,2.931,2019.306407
16 Dec 2019 17:26:28.000,332.713,2.969,2015.686056
16 Dec 2019 17:26:29.000,332.892,3.007,2012.082702
16 Dec 2019 17:26:30.000,333.072,3.045,2008.496440
16 Dec 2019 17:26:31.000,333.252,3.082,2004.927367
16 Dec 2019 17:26:32.000,333.433,3.120,2001.375577
16 Dec 2019 17:26:33.000,333.614,3.157,1997.841169
16 Dec 2019 17:26:34.000,333.797,3.194,1994.324238
16 Dec 2019 17:26:35.000,333.980,3.232,1990.824882
16 Dec 2019 17:26:36.000,334.163,3.269,1987.343196
16 Dec 2019 17:26:37.000,334.347,3.306,1983.879279
16 Dec 2019 17:26:38.000,334.532,3.342,1980.433226
16 Dec 2019 17:26:39.000,334.718,3.379,1977.005137
16 Dec 2019 17:26:40.000,334.904,3.416,1973.595109
16 Dec 2019 17:26:41.000,335.090,3.452,1970.203239
16 Dec 2019 17:26:42.000,335.278,3.488,1966.829626
16 Dec 2019 17:26:43.000,335.466,3.525,1963.474366
16 Dec 2019 17:26:44.000,335.655,3.561,1960.137560
16 Dec 2019 17:26:45.000,335.844,3.597,1956.819303
16 Dec 2019 17:26:46.000,336.034,3.633,1953.519695
16 Dec 2019 17:26:47.000,336.225,3.668,1950.238836
16 Dec 2019 17:26:48.000,336.416,3.704,1946.976823
16 Dec 2019 17:26:49.000,336.608,3.739,1943.733755
16 Dec 2019 17:26:50.000,336.800,3.775,1940.509731
16 Dec 2019 17:26:51.000,336.993,3.810,1937.304850
16 Dec 2019 17:26:52.000,337.187,3.845,1934.119210
16 Dec 2019 17:26:53.000,337.382,3.880,1930.952911
16 Dec 2019 17:26:54.000,337.577,3.914,1927.806051
16 Dec 2019 17:26:55.000,337.773,3.949,1924.678730
16 Dec 2019 17:26:56.000,337.969,3.983,1921.571047
16 Dec 2019 17:26:57.000,338.166,4.018,1918.483101
16 Dec 2019 17:26:58.000,338.364,4.052,1915.414990
16 Dec 2019 17:26:59.000,338.562,4.086,1912.366814
16 Dec 2019 17:27:00.000,338.761,4.120,1909.338673
16 Dec 2019 17:27:01.000,338.961,4.153,1906.330664
16 Dec 2019 17:27:02.000,339.161,4.187,1903.342887
16 Dec 2019 17:27:03.000,339.362,4.220,1900.375442
16 Dec 2019 17:27:04.000,339.563,4.253,1897.428426
16 Dec 2019 17:27:05.000,339.765,4.286,1894.501939
16 Dec 2019 17:27:06.000,339.968,4.319,1891.596079
16 Dec 2019 17:27:07.000,340.171,4.352,1888.710945
16 Dec 2019 17:27:08.000,340.375,4.384,1885.846635
16 Dec 2019 17:27:09.000,340.580,4.417,1883.003249
16 Dec 2019 17:27:10.000,340.785,4.449,1880.180884
16 Dec 2019 17:27:11.000,340.991,4.481,1877.379638
16 Dec 2019 17:27:12.000,341.198,4.512,1874.599609
16 Dec 2019 17:27:13.000,341.405,4.544,1871.840895
16 Dec 2019 17:27:14.000,341.612,4.575,1869.103594
16 Dec 2019 17:27:15.000,341.821,4.607,1866.387804
16 Dec 2019 17:27:16.000,342.030,4.638,1863.693620
16 Dec 2019 17:27:17.000,342.239,4.668,1861.021142
16 Dec 2019 17:27:18.000,342.449,4.699,1858.370465
16 Dec 2019 17:27:19.000,342.660,4.729,1855.741685
16 Dec 2019 17:27:20.000,342.872,4.760,1853.134899
16 Dec 2019 17:27:21.000,343.084,4.790,1850.550204
16 Dec 2019 17:27:22.000,343.296,4.820,1847.987694
16 Dec 2019 17:27:23.000,343.509,4.849,1845.447465
16 Dec 2019 17:27:24.000,343.723,4.879,1842.929613
16 Dec 2019 17:27:25.000,343.938,4.908,1840.434234
16 Dec 2019 17:27:26.000,344.153,4.937,1837.961419
16 Dec 2019 17:27:27.000,344.368,4.965,1835.511263
16 Dec 2019 17:27:28.000,344.584,4.994,1833.083862
16 Dec 2019 17:27:29.000,344.801,5.022,1830.679307
16 Dec 2019 17:27:30.000,345.018,5.050,1828.297694
16 Dec 2019 17:27:31.000,345.236,5.078,1825.939112
16 Dec 2019 17:27:32.000,345.454,5.106,1823.603654
16 Dec 2019 17:27:33.000,345.673,5.133,1821.291414
16 Dec 2019 17:27:34.000,345.893,5.160,1819.002481
16 Dec 2019 17:27:35.000,346.113,5.187,1816.736948
16 Dec 2019 17:27:36.000,346.334,5.214,1814.494902
16 Dec 2019 17:27:37.000,346.555,5.240,1812.276436
16 Dec 2019 17:27:38.000,346.777,5.267,1810.081637
16 Dec 2019 17:27:39.000,346.999,5.293,1807.910597
16 Dec 2019 17:27:40.000,347.222,5.318,1805.763400
16 Dec 2019 17:27:41.000,347.445,5.344,1803.640137
16 Dec 2019 17:27:42.000,347.669,5.369,1801.540894
16 Dec 2019 17:27:43.000,347.894,5.394,1799.465758
16 Dec 2019 17:27:44.000,348.119,5.419,1797.414814
16 Dec 2019 17:27:45.000,348.344,5.443,1795.388148
16 Dec 2019 17:27:46.000,348.570,5.467,1793.385845
16 Dec 2019 17:27:47.000,348.797,5.491,1791.407988
16 Dec 2019 17:27:48.000,349.024,5.515,1789.454662
16 Dec 2019 17:27:49.000,349.251,5.538,1787.525949
16 Dec 2019 17:27:50.000,349.480,5.562,1785.621931
16 Dec 2019 17:27:51.000,349.708,5.585,1783.742690
16 Dec 2019 17:27:52.000,349.937,5.607,1781.888305
16 Dec 2019 17:27:53.000,350.167,5.629,1780.058857
16 Dec 2019 17:27:54.000,350.397,5.652,1778.254426
16 Dec 2019 17:27:55.000,350.627,5.673,1776.475088
16 Dec 2019 17:27:56.000,350.858,5.695,1774.720924
16 Dec 2019 17:27:57.000,351.089,5.716,1772.992007
16 Dec 2019 17:27:58.000,351.321,5.737,1771.288416
16 Dec 2019 17:27:59.000,351.554,5.758,1769.610226
16 Dec 2019 17:28:00.000,351.786,5.778,1767.957509
16 Dec 2019 17:28:01.000,352.020,5.798,1766.330341
16 Dec 2019 17:28:02.000,352.253,5.818,1764.728793
16 Dec 2019 17:28:03.000,352.487,5.837,1763.152939
16 Dec 2019 17:28:04.000,352.722,5.856,1761.602847
16 Dec 2019 17:28:05.000,352.957,5.875,1760.078588
16 Dec 2019 17:28:06.000,353.192,5.894,1758.580232
16 Dec 2019 17:28:07.000,353.428,5.912,1757.107846
16 Dec 2019 17:28:08.000,353.664,5.930,1755.661497
16 Dec 2019 17:28:09.000,353.900,5.948,1754.241252
16 Dec 2019 17:28:10.000,354.137,5.965,1752.847176
16 Dec 2019 17:28:11.000,354.375,5.982,1751.479333
16 Dec 2019 17:28:12.000,354.612,5.999,1750.137786
16 Dec 2019 17:28:13.000,354.850,6.016,1748.822598
16 Dec 2019 17:28:14.000,355.089,6.032,1747.533829
16 Dec 2019 17:28:15.000,355.328,6.047,1746.271539
16 Dec 2019 17:28:16.000,355.567,6.063,1745.035789
16 Dec 2019 17:28:17.000,355.806,6.078,1743.826634
16 Dec 2019 17:28:18.000,356.046,6.093,1742.644133
16 Dec 2019 17:28:19.000,356.286,6.108,1741.488341
16 Dec 2019 17:28:20.000,356.527,6.122,1740.359313
16 Dec 2019 17:28:21.000,356.767,6.136,1739.257102
16 Dec 2019 17:28:22.000,357.009,6.149,1738.181761
16 Dec 2019 17:28:23.000,357.250,6.162,1737.133341
16 Dec 2019 17:28:24.000,357.492,6.175,1736.111892
16 Dec 2019 17:28:25.000,357.734,6.188,1735.117462
16 Dec 2019 17:28:26.000,357.976,6.200,1734.150101
16 Dec 2019 17:28:27.000,358.218,6.212,1733.209853
16 Dec 2019 17:28:28.000,358.461,6.224,1732.296765
16 Dec 2019 17:28:29.000,358.704,6.235,1731.410881
16 Dec 2019 17:28:30.000,358.948,6.246,1730.552243
16 Dec 2019 17:28:31.000,359.191,6.256,1729.720893
16 Dec 2019 17:28:32.000,359.435,6.266,1728.916873
16 Dec 2019 17:28:33.000,359.679,6.276,1728.140219
16 Dec 2019 17:28:34.000,359.923,6.286,1727.390972
16 Dec 2019 17:28:35.000,0.168,6.295,1726.669167
16 Dec 2019 17:28:36.000,0.412,6.304,1725.974840
16 Dec 2019 17:28:37.000,0.657,6.312,1725.308024
16 Dec 2019 17:28:38.000,0.902,6.321,1724.668753
16 Dec 2019 17:28:39.000,1.147,6.328,1724.057058
16 Dec 2019 17:28:40.000,1.393,6.336,1723.472970
16 Dec 2019 17:28:41.000,1.638,6.343,1722.916516
16 Dec 2019 17:28:42.000,1.884,6.350,1722.387725
16 Dec 2019 17:28:43.000,2.130,6.356,1721.886624
16 Dec 2019 17:28:44.000,2.376,6.362,1721.413235
16 Dec 2019 17:28:45.000,2.622,6.368,1720.967584
16 Dec 2019 17:28:46.000,2.869,6.373,1720.549693
16 Dec 2019 17:28:47.000,3.115,6.378,1720.159582
16 Dec 2019 17:28:48.000,3.361,6.383,1719.797270
16 Dec 2019 17:28:49.000,3.608,6.387,1719.462776
16 Dec 2019 17:28:50.000,3.855,6.391,1719.156117
16 Dec 2019 17:28:51.000,4.102,6.395,1718.877308
16 Dec 2019 17:28:52.000,4.348,6.398,1718.626362
16 Dec 2019 17:28:53.000,4.595,6.401,1718.403293
16 Dec 2019 17:28:54.000,4.842,6.403,1718.208112
16 Dec 2019 17:28:55.000,5.090,6.406,1718.040829
16 Dec 2019 17:28:56.000,5.337,6.407,1717.901451
16 Dec 2019 17:28:57.000,5.584,6.409,1717.789986
16 Dec 2019 17:28:58.000,5.831,6.410,1717.706441
16 Dec 2019 17:28:59.000,6.078,6.411,1717.650818
16 Dec 2019 17:29:00.000,6.325,6.411,1717.623121
16 Dec 2019 17:29:01.000,6.573,6.411,1717.623352
16 Dec 2019 17:29:02.000,6.820,6.411,1717.651510
16 Dec 2019 17:29:03.000,7.067,6.410,1717.707595
16 Dec 2019 17:29:04.000,7.314,6.409,1717.791603
16 Dec 2019 17:29:05.000,7.561,6.408,1717.903531
16 Dec 2019 17:29:06.000,7.808,6.406,1718.043372
16 Dec 2019 17:29:07.000,8.056,6.404,1718.211121
16 Dec 2019 17:29:08.000,8.303,6.401,1718.406769
16 Dec 2019 17:29:09.000,8.549,6.398,1718.630306
16 Dec 2019 17:29:10.000,8.796,6.395,1718.881721
16 Dec 2019 17:29:11.000,9.043,6.392,1719.161002
16 Dec 2019 17:29:12.000,9.290,6.388,1719.468135
16 Dec 2019 17:29:13.000,9.537,6.383,1719.803105
16 Dec 2019 17:29:14.000,9.783,6.379,1720.165896
16 Dec 2019 17:29:15.000,10.029,6.374,1720.556489
16 Dec 2019 17:29:16.000,10.276,6.369,1720.974866
16 Dec 2019 17:29:17.000,10.522,6.363,1721.421005
16 Dec 2019 17:29:18.000,10.768,6.357,1721.894883
16 Dec 2019 17:29:19.000,11.014,6.350,1722.396480
16 Dec 2019 17:29:20.000,11.260,6.344,1722.925770
16 Dec 2019 17:29:21.000,11.505,6.337,1723.482726
16 Dec 2019 17:29:22.000,11.751,6.329,1724.067322
16 Dec 2019 17:29:23.000,11.996,6.321,1724.679529
16 Dec 2019 17:29:24.000,12.241,6.313,1725.319315
16 Dec 2019 17:29:25.000,12.486,6.305,1725.986651
16 Dec 2019 17:29:26.000,12.730,6.296,1726.681505
16 Dec 2019 17:29:27.000,12.975,6.287,1727.403841
16 Dec 2019 17:29:28.000,13.219,6.277,1728.153624
16 Dec 2019 17:29:29.000,13.463,6.268,1728.930820
16 Dec 2019 17:29:30.000,13.707,6.257,1729.735389
16 Dec 2019 17:29:31.000,13.950,6.247,1730.567292
16 Dec 2019 17:29:32.000,14.194,6.236,1731.426489
16 Dec 2019 17:29:33.000,14.437,6.225,1732.312940
16 Dec 2019 17:29:34.000,14.680,6.213,1733.226602
16 Dec 2019 17:29:35.000,14.922,6.201,1734.167428
16 Dec 2019 17:29:36.000,15.164,6.189,1735.135377
16 Dec 2019 17:29:37.000,15.406,6.177,1736.130400
16 Dec 2019 17:29:38.000,15.648,6.164,1737.152450
16 Dec 2019 17:29:39.000,15.889,6.151,1738.201479
16 Dec 2019 17:29:40.000,16.131,6.137,1739.277437
16 Dec 2019 17:29:41.000,16.371,6.123,1740.380271
16 Dec 2019 17:29:42.000,16.612,6.109,1741.509932
16 Dec 2019 17:29:43.000,16.852,6.095,1742.666364
16 Dec 2019 17:29:44.000,17.092,6.080,1743.849513
16 Dec 2019 17:29:45.000,17.331,6.065,1745.059326
16 Dec 2019 17:29:46.000,17.570,6.049,1746.295742
16 Dec 2019 17:29:47.000,17.809,6.033,1747.558707
16 Dec 2019 17:29:48.000,18.048,6.017,1748.848161
16 Dec 2019 17:29:49.000,18.286,6.001,1750.164042
16 Dec 2019 17:29:50.000,18.523,5.984,1751.506292
16 Dec 2019 17:29:51.000,18.761,5.967,1752.874847
16 Dec 2019 17:29:52.000,18.998,5.950,1754.269647
16 Dec 2019 17:29:53.000,19.234,5.932,1755.690623
16 Dec 2019 17:29:54.000,19.470,5.914,1757.137715
16 Dec 2019 17:29:55.000,19.706,5.896,1758.610853
16 Dec 2019 17:29:56.000,19.941,5.877,1760.109973
16 Dec 2019 17:29:57.000,20.176,5.859,1761.635005
16 Dec 2019 17:29:58.000,20.411,5.839,1763.185883
16 Dec 2019 17:29:59.000,20.645,5.820,1764.762533
16 Dec 2019 17:30:00.000,20.878,5.800,1766.364888
16 Dec 2019 17:30:01.000,21.112,5.780,1767.992874
16 Dec 2019 17:30:02.000,21.344,5.760,1769.646420
16 Dec 2019 17:30:03.000,21.577,5.739,1771.325451
16 Dec 2019 17:30:04.000,21.809,5.718,1773.029896
16 Dec 2019 17:30:05.000,22.040,5.697,1774.759676
16 Dec 2019 17:30:06.000,22.271,5.676,1776.514717
16 Dec 2019 17:30:07.000,22.501,5.654,1778.294944
16 Dec 2019 17:30:08.000,22.731,5.632,1780.100276
16 Dec 2019 17:30:09.000,22.961,5.610,1781.930638
16 Dec 2019 17:30:10.000,23.190,5.587,1783.785948
16 Dec 2019 17:30:11.000,23.418,5.564,1785.666129
16 Dec 2019 17:30:12.000,23.646,5.541,1787.571100
16 Dec 2019 17:30:13.000,23.874,5.518,1789.500777
16 Dec 2019 17:30:14.000,24.101,5.494,1791.455082
16 Dec 2019 17:30:15.000,24.328,5.470,1793.433929
16 Dec 2019 17:30:16.000,24.554,5.446,1795.437237
16 Dec 2019 17:30:17.000,24.779,5.422,1797.464922
16 Dec 2019 17:30:18.000,25.004,5.397,1799.516897
16 Dec 2019 17:30:19.000,25.229,5.372,1801.593079
16 Dec 2019 17:30:20.000,25.453,5.347,1803.693381
16 Dec 2019 17:30:21.000,25.676,5.321,1805.817720
16 Dec 2019 17:30:22.000,25.899,5.296,1807.966003
16 Dec 2019 17:30:23.000,26.121,5.270,1810.138146
16 Dec 2019 17:30:24.000,26.343,5.243,1812.334063
16 Dec 2019 17:30:25.000,26.564,5.217,1814.553660
16 Dec 2019 17:30:26.000,26.785,5.190,1816.796850
16 Dec 2019 17:30:27.000,27.005,5.163,1819.063545
16 Dec 2019 17:30:28.000,27.224,5.136,1821.353654
16 Dec 2019 17:30:29.000,27.443,5.109,1823.667085
16 Dec 2019 17:30:30.000,27.662,5.081,1826.003747
16 Dec 2019 17:30:31.000,27.880,5.053,1828.363550
16 Dec 2019 17:30:32.000,28.097,5.025,1830.746400
16 Dec 2019 17:30:33.000,28.314,4.997,1833.152208
16 Dec 2019 17:30:34.000,28.530,4.969,1835.580876
16 Dec 2019 17:30:35.000,28.745,4.940,1838.032314
16 Dec 2019 17:30:36.000,28.960,4.911,1840.506427
16 Dec 2019 17:30:37.000,29.175,4.882,1843.003122
16 Dec 2019 17:30:38.000,29.388,4.852,1845.522306
16 Dec 2019 17:30:39.000,29.602,4.823,1848.063880
16 Dec 2019 17:30:40.000,29.814,4.793,1850.627752
16 Dec 2019 17:30:41.000,30.026,4.763,1853.213826
16 Dec 2019 17:30:42.000,30.237,4.733,1855.822007
16 Dec 2019 17:30:43.000,30.448,4.702,1858.452198
16 Dec 2019 17:30:44.000,30.658,4.672,1861.104303
16 Dec 2019 17:30:45.000,30.868,4.641,1863.778228
16 Dec 2019 17:30:46.000,31.077,4.610,1866.473873
16 Dec 2019 17:30:47.000,31.285,4.579,1869.191141
16 Dec 2019 17:30:48.000,31.493,4.548,1871.929937
16 Dec 2019 17:30:49.000,31.700,4.516,1874.690162
16 Dec 2019 17:30:50.000,31.906,4.484,1877.471719
16 Dec 2019 17:30:51.000,32.112,4.452,1880.274511
16 Dec 2019 17:30:52.000,32.318,4.420,1883.098439
16 Dec 2019 17:30:53.000,32.522,4.388,1885.943405
16 Dec 2019 17:30:54.000,32.726,4.355,1888.809312
16 Dec 2019 17:30:55.000,32.930,4.323,1891.696061
16 Dec 2019 17:30:56.000,33.132,4.290,1894.603553
16 Dec 2019 17:30:57.000,33.334,4.257,1897.531690
16 Dec 2019 17:30:58.000,33.536,4.224,1900.480373
16 Dec 2019 17:30:59.000,33.737,4.191,1903.449504
16 Dec 2019 17:31:00.000,33.937,4.157,1906.438984
16 Dec 2019 17:31:01.000,34.136,4.123,1909.448713
16 Dec 2019 17:31:02.000,34.335,4.090,1912.478593
16 Dec 2019 17:31:03.000,34.534,4.056,1915.528525
16 Dec 2019 17:31:04.000,34.731,4.022,1918.598410
16 Dec 2019 17:31:05.000,34.928,3.987,1921.688149
16 Dec 2019 17:31:06.000,35.125,3.953,1924.797642
16 Dec 2019 17:31:07.000,35.320,3.918,1927.926792
16 Dec 2019 17:31:08.000,35.515,3.884,1931.075498
16 Dec 2019 17:31:09.000,35.710,3.849,1934.243663
16 Dec 2019 17:31:10.000,35.904,3.814,1937.431186
16 Dec 2019 17:31:11.000,36.097,3.779,1940.637969
16 Dec 2019 17:31:12.000,36.289,3.743,1943.863913
16 Dec 2019 17:31:13.000,36.481,3.708,1947.108920
16 Dec 2019 17:31:14.000,36.673,3.672,1950.372890
16 Dec 2019 17:31:15.000,36.863,3.637,1953.655725
16 Dec 2019 17:31:16.000,37.053,3.601,1956.957326
16 Dec 2019 17:31:17.000,37.242,3.565,1960.277593
16 Dec 2019 17:31:18.000,37.431,3.529,1963.616432
16 Dec 2019 17:31:19.000,37.619,3.492,1966.973742
16 Dec 2019 17:31:20.000,37.806,3.456,1970.349425
16 Dec 2019 17:31:21.000,37.993,3.420,1973.743383
16 Dec 2019 17:31:22.000,38.179,3.383,1977.155518
16 Dec 2019 17:31:23.000,38.365,3.346,1980.585732
16 Dec 2019 17:31:24.000,38.549,3.310,1984.033929
16 Dec 2019 17:31:25.000,38.734,3.273,1987.500007
16 Dec 2019 17:31:26.000,38.917,3.236,1990.983875
16 Dec 2019 17:31:27.000,39.100,3.198,1994.485434
16 Dec 2019 17:31:28.000,39.282,3.161,1998.004585
16 Dec 2019 17:31:29.000,39.464,3.124,2001.541233
16 Dec 2019 17:31:30.000,39.645,3.086,2005.095281
16 Dec 2019 17:31:31.000,39.825,3.049,2008.666630
16 Dec 2019 17:31:32.000,40.004,3.011,2012.255190
16 Dec 2019 17:31:33.000,40.183,2.973,2015.860861
16 Dec 2019 17:31:34.000,40.362,2.935,2019.483548
16 Dec 2019 17:31:35.000,40.540,2.897,2023.123155
16 Dec 2019 17:31:36.000,40.717,2.859,2026.779586
16 Dec 2019 17:31:37.000,40.893,2.821,2030.452750
16 Dec 2019 17:31:38.000,41.069,2.783,2034.142549
16 Dec 2019 17:31:39.000,41.244,2.744,2037.848889
16 Dec 2019 17:31:40.000,41.419,2.706,2041.571675
16 Dec 2019 17:31:41.000,41.592,2.667,2045.310815
16 Dec 2019 17:31:42.000,41.766,2.629,2049.066216
16 Dec 2019 17:31:43.000,41.938,2.590,2052.837782
16 Dec 2019 17:31:44.000,42.110,2.551,2056.625418
16 Dec 2019 17:31:45.000,42.282,2.512,2060.429037
16 Dec 2019 17:31:46.000,42.452,2.473,2064.248544
16 Dec 2019 17:31:47.000,42.622,2.434,2068.083846
16 Dec 2019 17:31:48.000,42.792,2.395,2071.934848
16 Dec 2019 17:31:49.000,42.961,2.356,2075.801465
16 Dec 2019 17:31:50.000,43.129,2.317,2079.683601
16 Dec 2019 17:31:51.000,43.297,2.277,2083.581164
16 Dec 2019 17:31:52.000,43.464,2.238,2087.494068
16 Dec 2019 17:31:53.000,43.630,2.198,2091.422220
16 Dec 2019 17:31:54.000,43.796,2.159,2095.365527
16 Dec 2019 17:31:55.000,43.961,2.119,2099.323904
16 Dec 2019 17:31:56.000,44.125,2.080,2103.297260
16 Dec 2019 17:31:57.000,44.289,2.040,2107.285505
16 Dec 2019 17:31:58.000,44.452,2.000,2111.288548
16 Dec 2019 17:31:59.000,44.615,1.960,2115.306305
16 Dec 2019 17:32:00.000,44.777,1.920,2119.338684
16 Dec 2019 17:32:01.000,44.938,1.880,2123.385601
16 Dec 2019 17:32:02.000,45.099,1.840,2127.446967
16 Dec 2019 17:32:03.000,45.259,1.800,2131.522691
16 Dec 2019 17:32:04.000,45.419,1.760,2135.612693
16 Dec 2019 17:32:05.000,45.578,1.720,2139.716882
16 Dec 2019 17:32:06.000,45.736,1.679,2143.835172
16 Dec 2019 17:32:07.000,45.894,1.639,2147.967480
16 Dec 2019 17:32:08.000,46.051,1.599,2152.113720
16 Dec 2019 17:32:09.000,46.208,1.558,2156.273802
16 Dec 2019 17:32:10.000,46.364,1.518,2160.447649
16 Dec 2019 17:32:11.000,46.519,1.477,2164.635171
16 Dec 2019 17:32:12.000,46.674,1.437,2168.836288
16 Dec 2019 17:32:13.000,46.828,1.396,2173.050915
16 Dec 2019 17:32:14.000,46.982,1.355,2177.278967
16 Dec 2019 17:32:15.000,47.135,1.315,2181.520364
16 Dec 2019 17:32:16.000,47.287,1.274,2185.775020
16 Dec 2019 17:32:17.000,47.439,1.233,2190.042859
16 Dec 2019 17:32:18.000,47.591,1.192,2194.323795
16 Dec 2019 17:32:19.000,47.741,1.151,2198.617744
16 Dec 2019 17:32:20.000,47.891,1.110,2202.924632
16 Dec 2019 17:32:21.000,48.041,1.069,2207.244372
16 Dec 2019 17:32:22.000,48.190,1.028,2211.576890
16 Dec 2019 17:32:23.000,48.338,0.987,2215.922099
16 Dec 2019 17:32:24.000,48.486,0.946,2220.279928
16 Dec 2019 17:32:25.000,48.633,0.905,2224.650290
16 Dec 2019 17:32:26.000,48.780,0.864,2229.033112
16 Dec 2019 17:32:27.000,48.926,0.823,2233.428312
16 Dec 2019 17:32:28.000,49.072,0.782,2237.835816
16 Dec 2019 17:32:29.000,49.217,0.741,2242.255545
16 Dec 2019 17:32:30.000,49.361,0.699,2246.687418
16 Dec 2019 17:32:31.000,49.505,0.658,2251.131365
16 Dec 2019 17:32:32.000,49.648,0.617,2255.587303
16 Dec 2019 17:32:33.000,49.791,0.575,2260.055163
16 Dec 2019 17:32:34.000,49.933,0.534,2264.534862
16 Dec 2019 17:32:35.000,50.075,0.493,2269.026332
16 Dec 2019 17:32:36.000,50.216,0.451,2273.529491
16 Dec 2019 17:32:37.000,50.356,0.410,2278.044273
16 Dec 2019 17:32:38.000,50.496,0.368,2282.570596
16 Dec 2019 17:32:39.000,50.636,0.327,2287.108392
16 Dec 2019 17:32:40.000,50.775,0.286,2291.657584
16 Dec 2019 17:32:41.000,50.913,0.244,2296.218103
16 Dec 2019 17:32:42.000,51.051,0.203,2300.789872
16 Dec 2019 17:32:43.000,51.188,0.161,2305.372823
16 Dec 2019 17:32:44.000,51.325,0.119,2309.966881
16 Dec 2019 17:32:45.000,51.461,0.078,2314.571976
16 Dec 2019 17:32:46.000,51.597,0.036,2319.188040
16 Dec 2019 17:32:47.000,51.732,-0.005,2323.814998
16 Dec 2019 17:32:48.000,51.867,-0.047,2328.452784
16 Dec 2019 17:32:49.000,52.001,-0.089,2333.101323
16 Dec 2019 17:32:49.857,52.116,-0.124,2337.093600
16 Dec 2019 19:01:47.355,321.700,-0.124,2337.598330
16 Dec 2019 19:01:48.000,321.755,-0.089,2333.679058
16 Dec 2019 19:01:49.000,321.842,-0.035,2327.603933
16 Dec 2019 19:01:50.000,321.929,0.020,2321.533150
16 Dec 2019 19:01:51.000,322.017,0.074,2315.466750
16 Dec 2019 19:01:52.000,322.105,0.129,2309.404773
16 Dec 2019 19:01:53.000,322.193,0.184,2303.347264
16 Dec 2019 19:01:54.000,322.282,0.238,2297.294264
16 Dec 2019 19:01:55.000,322.372,0.293,2291.245816
16 Dec 2019 19:01:56.000,322.461,0.349,2285.201963
16 Dec 2019 19:01:57.000,322.552,0.404,2279.162750
16 Dec 2019 19:01:58.000,322.642,0.459,2273.128221
16 Dec 2019 19:01:59.000,322.734,0.514,2267.098421
16 Dec 2019 19:02:00.000,322.825,0.570,2261.073394
16 Dec 2019 19:02:01.000,322.917,0.626,2255.053186
16 Dec 2019 19:02:02.000,323.010,0.681,2249.037843
16 Dec 2019 19:02:03.000,323.103,0.737,2243.027412
16 Dec 2019 19:02:04.000,323.197,0.793,2237.021938
16 Dec 2019 19:02:05.000,323.291,0.849,2231.021470
16 Dec 2019 19:02:06.000,323.385,0.905,2225.026056
16 Dec 2019 19:02:07.000,323.481,0.962,2219.035743
16 Dec 2019 19:02:08.000,323.576,1.018,2213.050580
16 Dec 2019 19:02:09.000,323.672,1.075,2207.070616
16 Dec 2019 19:02:10.000,323.769,1.131,2201.095900
16 Dec 2019 19:02:11.000,323.866,1.188,2195.126484
16 Dec 2019 19:02:12.000,323.963,1.245,2189.162417
16 Dec 2019 19:02:13.000,324.062,1.302,2183.203751
16 Dec 2019 19:02:14.000,324.160,1.359,2177.250536
16 Dec 2019 19:02:15.000,324.259,1.416,2171.302825
16 Dec 2019 19:02:16.000,324.359,1.473,2165.360671
16 Dec 2019 19:02:17.000,324.459,1.531,2159.424127
16 Dec 2019 19:02:18.000,324.560,1.588,2153.493245
16 Dec 2019 19:02:19.000,324.661,1.646,2147.568081
16 Dec 2019 19:02:20.000,324.763,1.704,2141.648688
16 Dec 2019 19:02:21.000,324.866,1.761,2135.735123
16 Dec 2019 19:02:22.000,324.969,1.819,2129.827440
16 Dec 2019 19:02:23.000,325.072,1.878,2123.925696
16 Dec 2019 19:02:24.000,325.176,1.936,2118.029949
16 Dec 2019 19:02:25.000,325.281,1.994,2112.140254
16 Dec 2019 19:02:26.000,325.386,2.053,2106.256669
16 Dec 2019 19:02:27.000,325.492,2.111,2100.379254
16 Dec 2019 19:02:28.000,325.598,2.170,2094.508067
16 Dec 2019 19:02:29.000,325.705,2.229,2088.643168
16 Dec 2019 19:02:30.000,325.813,2.288,2082.784617
16 Dec 2019 19:02:31.000,325.921,2.347,2076.932475
16 Dec 2019 19:02:32.000,326.030,2.406,2071.086804
16 Dec 2019 19:02:33.000,326.139,2.465,2065.247665
16 Dec 2019 19:02:34.000,326.249,2.525,2059.415121
16 Dec 2019 19:02:35.000,326.360,2.584,2053.589235
16 Dec 2019 19:02:36.000,326.471,2.644,2047.770072
16 Dec 2019 19:02:37.000,326.583,2.704,2041.957695
16 Dec 2019 19:02:38.000,326.695,2.764,2036.152171
16 Dec 2019 19:02:39.000,326.809,2.824,2030.353564
16 Dec 2019 19:02:40.000,326.922,2.884,2024.561941
16 Dec 2019 19:02:41.000,327.037,2.944,2018.777369
16 Dec 2019 19:02:42.000,327.152,3.005,2012.999917
16 Dec 2019 19:02:43.000,327.267,3.065,2007.229654
16 Dec 2019 19:02:44.000,327.384,3.126,2001.466646
16 Dec 2019 19:02:45.000,327.501,3.187,1995.710965
16 Dec 2019 19:02:46.000,327.619,3.248,1989.962680
16 Dec 2019 19:02:47.000,327.737,3.309,1984.221865
16 Dec 2019 19:02:48.000,327.856,3.370,1978.488589
16 Dec 2019 19:02:49.000,327.976,3.431,1972.762927
16 Dec 2019 19:02:50.000,328.096,3.493,1967.044951
16 Dec 2019 19:02:51.000,328.217,3.554,1961.334736
16 Dec 2019 19:02:52.000,328.339,3.616,1955.632357
16 Dec 2019 19:02:53.000,328.462,3.678,1949.937889
16 Dec 2019 19:02:54.000,328.585,3.740,1944.251408
16 Dec 2019 19:02:55.000,328.709,3.802,1938.572995
16 Dec 2019 19:02:56.000,328.834,3.864,1932.902723
16 Dec 2019 19:02:57.000,328.959,3.926,1927.240672
16 Dec 2019 19:02:58.000,329.085,3.989,1921.586922
16 Dec 2019 19:02:59.000,329.212,4.052,1915.941555
16 Dec 2019 19:03:00.000,329.340,4.114,1910.304650
16 Dec 2019 19:03:01.000,329.468,4.177,1904.676289
16 Dec 2019 19:03:02.000,329.597,4.240,1899.056557
16 Dec 2019 19:03:03.000,329.727,4.303,1893.445538
16 Dec 2019 19:03:04.000,329.858,4.367,1887.843312
16 Dec 2019 19:03:05.000,329.989,4.430,1882.249968
16 Dec 2019 19:03:06.000,330.122,4.494,1876.665591
16 Dec 2019 19:03:07.000,330.255,4.557,1871.090269
16 Dec 2019 19:03:08.000,330.389,4.621,1865.524089
16 Dec 2019 19:03:09.000,330.523,4.685,1859.967140
16 Dec 2019 19:03:10.000,330.659,4.749,1854.419515
16 Dec 2019 19:03:11.000,330.795,4.813,1848.881299
16 Dec 2019 19:03:12.000,330.932,4.877,1843.352587
16 Dec 2019 19:03:13.000,331.070,4.942,1837.833471
16 Dec 2019 19:03:14.000,331.209,5.006,1832.324044
16 Dec 2019 19:03:15.000,331.349,5.071,1826.824400
16 Dec 2019 19:03:16.000,331.489,5.136,1821.334636
16 Dec 2019 19:03:17.000,331.630,5.201,1815.854849
16 Dec 2019 19:03:18.000,331.773,5.266,1810.385133
16 Dec 2019 19:03:19.000,331.916,5.331,1804.925588
16 Dec 2019 19:03:20.000,332.060,5.397,1799.476313
16 Dec 2019 19:03:21.000,332.204,5.462,1794.037408
16 Dec 2019 19:03:22.000,332.350,5.528,1788.608977
16 Dec 2019 19:03:23.000,332.497,5.593,1783.191118
16 Dec 2019 19:03:24.000,332.644,5.659,1777.783936
16 Dec 2019 19:03:25.000,332.793,5.725,1772.387536
16 Dec 2019 19:03:26.000,332.942,5.791,1767.002023
16 Dec 2019 19:03:27.000,333.092,5.858,1761.627505
16 Dec 2019 19:03:28.000,333.244,5.924,1756.264086
16 Dec 2019 19:03:29.000,333.396,5.991,1750.911877
16 Dec 2019 19:03:30.000,333.549,6.057,1745.570987
16 Dec 2019 19:03:31.000,333.703,6.124,1740.241527
16 Dec 2019 19:03:32.000,333.858,6.191,1734.923610
16 Dec 2019 19:03:33.000,334.014,6.258,1729.617347
16 Dec 2019 19:03:34.000,334.171,6.325,1724.322853
16 Dec 2019 19:03:35.000,334.329,6.392,1719.040242
16 Dec 2019 19:03:36.000,334.488,6.460,1713.769634
16 Dec 2019 19:03:37.000,334.648,6.527,1708.511143
16 Dec 2019 19:03:38.000,334.809,6.595,1703.264888
16 Dec 2019 19:03:39.000,334.971,6.662,1698.030990
16 Dec 2019 19:03:40.000,335.134,6.730,1692.809572
16 Dec 2019 19:03:41.000,335.298,6.798,1687.600751
16 Dec 2019 19:03:42.000,335.463,6.866,1682.404655
16 Dec 2019 19:03:43.000,335.629,6.935,1677.221406
16 Dec 2019 19:03:44.000,335.796,7.003,1672.051133
16 Dec 2019 19:03:45.000,335.964,7.071,1666.893959
16 Dec 2019 19:03:46.000,336.134,7.140,1661.750014
16 Dec 2019 19:03:47.000,336.304,7.209,1656.619429
16 Dec 2019 19:03:48.000,336.475,7.277,1651.502335
16 Dec 2019 19:03:49.000,336.648,7.346,1646.398861
16 Dec 2019 19:03:50.000,336.822,7.415,1641.309142
16 Dec 2019 19:03:51.000,336.996,7.484,1636.233315
16 Dec 2019 19:03:52.000,337.172,7.553,1631.171512
16 Dec 2019 19:03:53.000,337.349,7.623,1626.123872
16 Dec 2019 19:03:54.000,337.528,7.692,1621.090535
16 Dec 2019 19:03:55.000,337.707,7.762,1616.071638
16 Dec 2019 19:03:56.000,337.887,7.831,1611.067324
16 Dec 2019 19:03:57.000,338.069,7.901,1606.077736
16 Dec 2019 19:03:58.000,338.252,7.971,1601.103015
16 Dec 2019 19:03:59.000,338.436,8.041,1596.143309
16 Dec 2019 19:04:00.000,338.621,8.111,1591.198765
16 Dec 2019 19:04:01.000,338.807,8.181,1586.269528
16 Dec 2019 19:04:02.000,338.995,8.251,1581.355749
16 Dec 2019 19:04:03.000,339.184,8.321,1576.457579
16 Dec 2019 19:04:04.000,339.374,8.392,1571.575169
16 Dec 2019 19:04:05.000,339.565,8.462,1566.708672
16 Dec 2019 19:04:06.000,339.758,8.532,1561.858246
16 Dec 2019 19:04:07.000,339.951,8.603,1557.024043
16 Dec 2019 19:04:08.000,340.146,8.674,1552.206224
16 Dec 2019 19:04:09.000,340.342,8.744,1547.404945
16 Dec 2019 19:04:10.000,340.540,8.815,1542.620368
16 Dec 2019 19:04:11.000,340.739,8.886,1537.852656
16 Dec 2019 19:04:12.000,340.939,8.957,1533.101969
16 Dec 2019 19:04:13.000,341.140,9.028,1528.368476
16 Dec 2019 19:04:14.000,341.343,9.099,1523.652339
16 Dec 2019 19:04:15.000,341.547,9.170,1518.953728
16 Dec 2019 19:04:16.000,341.752,9.241,1514.272812
16 Dec 2019 19:04:17.000,341.959,9.312,1509.609759
16 Dec 2019 19:04:18.000,342.167,9.384,1504.964745
16 Dec 2019 19:04:19.000,342.376,9.455,1500.337939
16 Dec 2019 19:04:20.000,342.587,9.526,1495.729520
16 Dec 2019 19:04:21.000,342.799,9.598,1491.139660
16 Dec 2019 19:04:22.000,343.013,9.669,1486.568540
16 Dec 2019 19:04:23.000,343.228,9.741,1482.016337
16 Dec 2019 19:04:24.000,343.444,9.812,1477.483233
16 Dec 2019 19:04:25.000,343.661,9.883,1472.969408
16 Dec 2019 19:04:26.000,343.880,9.955,1468.475048
16 Dec 2019 19:04:27.000,344.101,10.026,1464.000336
16 Dec 2019 19:04:28.000,344.323,10.098,1459.545460
16 Dec 2019 19:04:29.000,344.546,10.169,1455.110605
16 Dec 2019 19:04:30.000,344.771,10.241,1450.695964
16 Dec 2019 19:04:31.000,344.997,10.313,1446.301724
16 Dec 2019 19:04:32.000,345.225,10.384,1441.928080
16 Dec 2019 19:04:33.000,345.454,10.456,1437.575223
16 Dec 2019 19:04:34.000,345.685,10.527,1433.243350
16 Dec 2019 19:04:35.000,345.917,10.598,1428.932656
16 Dec 2019 19:04:36.000,346.150,10.670,1424.643339
16 Dec 2019 19:04:37.000,346.385,10.741,1420.375598
16 Dec 2019 19:04:38.000,346.622,10.813,1416.129633
16 Dec 2019 19:04:39.000,346.860,10.884,1411.905648
16 Dec 2019 19:04:40.000,347.100,10.955,1407.703843
16 Dec 2019 19:04:41.000,347.341,11.026,1403.524425
16 Dec 2019 19:04:42.000,347.584,11.098,1399.367598
16 Dec 2019 19:04:43.000,347.828,11.169,1395.233571
16 Dec 2019 19:04:44.000,348.074,11.240,1391.122551
16 Dec 2019 19:04:45.000,348.321,11.311,1387.034749
16 Dec 2019 19:04:46.000,348.570,11.382,1382.970375
16 Dec 2019 19:04:47.000,348.820,11.452,1378.929643
16 Dec 2019 19:04:48.000,349.072,11.523,1374.912764
16 Dec 2019 19:04:49.000,349.326,11.594,1370.919955
16 Dec 2019 19:04:50.000,349.581,11.664,1366.951431
16 Dec 2019 19:04:51.000,349.838,11.734,1363.007409
16 Dec 2019 19:04:52.000,350.096,11.805,1359.088108
16 Dec 2019 19:04:53.000,350.356,11.875,1355.193748
16 Dec 2019 19:04:54.000,350.618,11.945,1351.324547
16 Dec 2019 19:04:55.000,350.881,12.014,1347.480730
16 Dec 2019 19:04:56.000,351.146,12.084,1343.662518
16 Dec 2019 19:04:57.000,351.412,12.153,1339.870135
16 Dec 2019 19:04:58.000,351.680,12.223,1336.103805
16 Dec 2019 19:04:59.000,351.950,12.292,1332.363756
16 Dec 2019 19:05:00.000,352.221,12.361,1328.650212
16 Dec 2019 19:05:01.000,352.494,12.430,1324.963403
16 Dec 2019 19:05:02.000,352.769,12.498,1321.303556
16 Dec 2019 19:05:03.000,353.045,12.567,1317.670901
16 Dec 2019 19:05:04.000,353.323,12.635,1314.065668
16 Dec 2019 19:05:05.000,353.603,12.703,1310.488088
16 Dec 2019 19:05:06.000,353.884,12.770,1306.938393
16 Dec 2019 19:05:07.000,354.167,12.838,1303.416815
16 Dec 2019 19:05:08.000,354.451,12.905,1299.923587
16 Dec 2019 19:05:09.000,354.738,12.972,1296.458944
16 Dec 2019 19:05:10.000,355.026,13.039,1293.023118
16 Dec 2019 19:05:11.000,355.315,13.105,1289.616346
16 Dec 2019 19:05:12.000,355.606,13.171,1286.238862
16 Dec 2019 19:05:13.000,355.899,13.237,1282.890902
16 Dec 2019 19:05:14.000,356.194,13.302,1279.572702
16 Dec 2019 19:05:15.000,356.490,13.367,1276.284498
16 Dec 2019 19:05:16.000,356.788,13.432,1273.026528
16 Dec 2019 19:05:17.000,357.087,13.497,1269.799028
16 Dec 2019 19:05:18.000,357.389,13.561,1266.602236
16 Dec 2019 19:05:19.000,357.691,13.625,1263.436388
16 Dec 2019 19:05:20.000,357.996,13.688,1260.301723
16 Dec 2019 19:05:21.000,358.302,13.751,1257.198477
16 Dec 2019 19:05:22.000,358.610,13.814,1254.126887
16 Dec 2019 19:05:23.000,358.919,13.876,1251.087192
16 Dec 2019 19:05:24.000,359.231,13.938,1248.079628
16 Dec 2019 19:05:25.000,359.543,13.999,1245.104432
16 Dec 2019 19:05:26.000,359.858,14.060,1242.161840
16 Dec 2019 19:05:27.000,0.174,14.121,1239.252088
16 Dec 2019 19:05:28.000,0.492,14.181,1236.375413
16 Dec 2019 19:05:29.000,0.811,14.241,1233.532050
16 Dec 2019 19:05:30.000,1.132,14.300,1230.722233
16 Dec 2019 19:05:31.000,1.454,14.358,1227.946196
16 Dec 2019 19:05:32.000,1.779,14.416,1225.204172
16 Dec 2019 19:05:33.000,2.104,14.474,1222.496395
16 Dec 2019 19:05:34.000,2.432,14.531,1219.823096
16 Dec 2019 19:05:35.000,2.761,14.588,1217.184505
16 Dec 2019 19:05:36.000,3.091,14.644,1214.580853
16 Dec 2019 19:05:37.000,3.423,14.699,1212.012368
16 Dec 2019 19:05:38.000,3.757,14.754,1209.479278
16 Dec 2019 19:05:39.000,4.092,14.808,1206.981808
16 Dec 2019 19:05:40.000,4.429,14.862,1204.520185
16 Dec 2019 19:05:41.000,4.767,14.915,1202.094631
16 Dec 2019 19:05:42.000,5.107,14.968,1199.705368
16 Dec 2019 19:05:43.000,5.448,15.020,1197.352618
16 Dec 2019 19:05:44.000,5.791,15.071,1195.036598
16 Dec 2019 19:05:45.000,6.135,15.121,1192.757528
16 Dec 2019 19:05:46.000,6.480,15.171,1190.515620
16 Dec 2019 19:05:47.000,6.827,15.220,1188.311089
16 Dec 2019 19:05:48.000,7.176,15.269,1186.144147
16 Dec 2019 19:05:49.000,7.526,15.317,1184.015003
16 Dec 2019 19:05:50.000,7.877,15.364,1181.923864
16 Dec 2019 19:05:51.000,8.230,15.410,1179.870935
16 Dec 2019 19:05:52.000,8.584,15.456,1177.856420
16 Dec 2019 19:05:53.000,8.939,15.501,1175.880517
16 Dec 2019 19:05:54.000,9.296,15.545,1173.943425
16 Dec 2019 19:05:55.000,9.654,15.588,1172.045340
16 Dec 2019 19:05:56.000,10.014,15.631,1170.186452
16 Dec 2019 19:05:57.000,10.374,15.673,1168.366954
16 Dec 2019 19:05:58.000,10.736,15.714,1166.587031
16 Dec 2019 19:05:59.000,11.099,15.754,1164.846867
16 Dec 2019 19:06:00.000,11.463,15.793,1163.146644
16 Dec 2019 19:06:01.000,11.829,15.832,1161.486539
16 Dec 2019 19:06:02.000,12.196,15.869,1159.866727
16 Dec 2019 19:06:03.000,12.563,15.906,1158.287379
16 Dec 2019 19:06:04.000,12.932,15.942,1156.748664
16 Dec 2019 19:06:05.000,13.302,15.977,1155.250746
16 Dec 2019 19:06:06.000,13.673,16.011,1153.793787
16 Dec 2019 19:06:07.000,14.045,16.045,1152.377944
16 Dec 2019 19:06:08.000,14.419,16.077,1151.003371
16 Dec 2019 19:06:09.000,14.793,16.108,1149.670217
16 Dec 2019 19:06:10.000,15.168,16.139,1148.378630
16 Dec 2019 19:06:11.000,15.544,16.168,1147.128751
16 Dec 2019 19:06:12.000,15.921,16.197,1145.920721
16 Dec 2019 19:06:13.000,16.298,16.225,1144.754671
16 Dec 2019 19:06:14.000,16.677,16.252,1143.630733
16 Dec 2019 19:06:15.000,17.057,16.277,1142.549035
16 Dec 2019 19:06:16.000,17.437,16.302,1141.509695
16 Dec 2019 19:06:17.000,17.818,16.326,1140.512833
16 Dec 2019 19:06:18.000,18.200,16.349,1139.558563
16 Dec 2019 19:06:19.000,18.582,16.371,1138.646991
16 Dec 2019 19:06:20.000,18.965,16.391,1137.778222
16 Dec 2019 19:06:21.000,19.349,16.411,1136.952358
16 Dec 2019 19:06:22.000,19.734,16.430,1136.169491
16 Dec 2019 19:06:23.000,20.119,16.448,1135.429713
16 Dec 2019 19:06:24.000,20.504,16.464,1134.733110
16 Dec 2019 19:06:25.000,20.890,16.480,1134.079763
16 Dec 2019 19:06:26.000,21.277,16.495,1133.469746
16 Dec 2019 19:06:27.000,21.664,16.508,1132.903132
16 Dec 2019 19:06:28.000,22.051,16.521,1132.379986
16 Dec 2019 19:06:29.000,22.439,16.533,1131.900372
16 Dec 2019 19:06:30.000,22.827,16.543,1131.464344
16 Dec 2019 19:06:31.000,23.216,16.552,1131.071956
16 Dec 2019 19:06:32.000,23.605,16.561,1130.723251
16 Dec 2019 19:06:33.000,23.994,16.568,1130.418272
16 Dec 2019 19:06:34.000,24.383,16.574,1130.157056
16 Dec 2019 19:06:35.000,24.772,16.579,1129.939633
16 Dec 2019 19:06:36.000,25.162,16.583,1129.766030
16 Dec 2019 19:06:37.000,25.552,16.586,1129.636268
16 Dec 2019 19:06:38.000,25.942,16.588,1129.550362
16 Dec 2019 19:06:39.000,26.331,16.589,1129.508324
16 Dec 2019 19:06:40.000,26.721,16.589,1129.510157
16 Dec 2019 19:06:41.000,27.111,16.588,1129.555864
16 Dec 2019 19:06:42.000,27.501,16.585,1129.645439
16 Dec 2019 19:06:43.000,27.891,16.582,1129.778872
16 Dec 2019 19:06:44.000,28.280,16.577,1129.956148
16 Dec 2019 19:06:45.000,28.670,16.572,1130.177246
16 Dec 2019 19:06:46.000,29.059,16.565,1130.442142
16 Dec 2019 19:06:47.000,29.448,16.557,1130.750804
16 Dec 2019 19:06:48.000,29.837,16.549,1131.103197
16 Dec 2019 19:06:49.000,30.225,16.539,1131.499281
16 Dec 2019 19:06:50.000,30.613,16.528,1131.939007
16 Dec 2019 19:06:51.000,31.001,16.516,1132.422329
16 Dec 2019 19:06:52.000,31.389,16.503,1132.949188
16 Dec 2019 19:06:53.000,31.776,16.489,1133.519525
16 Dec 2019 19:06:54.000,32.162,16.474,1134.133273
16 Dec 2019 19:06:55.000,32.548,16.458,1134.790362
16 Dec 2019 19:06:56.000,32.934,16.440,1135.490714
16 Dec 2019 19:06:57.000,33.319,16.422,1136.234253
16 Dec 2019 19:06:58.000,33.703,16.403,1137.020892
16 Dec 2019 19:06:59.000,34.087,16.383,1137.850541
16 Dec 2019 19:07:00.000,34.470,16.361,1138.723104
16 Dec 2019 19:07:01.000,34.852,16.339,1139.638485
16 Dec 2019 19:07:02.000,35.234,16.316,1140.596580
16 Dec 2019 19:07:03.000,35.615,16.292,1141.597277
16 Dec 2019 19:07:04.000,35.995,16.266,1142.640469
16 Dec 2019 19:07:05.000,36.374,16.240,1143.726037
16 Dec 2019 19:07:06.000,36.753,16.213,1144.853857
16 Dec 2019 19:07:07.000,37.131,16.185,1146.023807
16 Dec 2019 19:07:08.000,37.508,16.156,1147.235756
16 Dec 2019 19:07:09.000,37.883,16.126,1148.489568
16 Dec 2019 19:07:10.000,38.258,16.095,1149.785110
16 Dec 2019 19:07:11.000,38.632,16.063,1151.122235
16 Dec 2019 19:07:12.000,39.005,16.030,1152.500801
16 Dec 2019 19:07:13.000,39.377,15.997,1153.920656
16 Dec 2019 19:07:14.000,39.748,15.962,1155.381649
16 Dec 2019 19:07:15.000,40.118,15.926,1156.883620
16 Dec 2019 19:07:16.000,40.487,15.890,1158.426412
16 Dec 2019 19:07:17.000,40.855,15.853,1160.009856
16 Dec 2019 19:07:18.000,41.221,15.815,1161.633790
16 Dec 2019 19:07:19.000,41.586,15.776,1163.298039
16 Dec 2019 19:07:20.000,41.951,15.736,1165.002432
16 Dec 2019 19:07:21.000,42.314,15.696,1166.746787
16 Dec 2019 19:07:22.000,42.675,15.654,1168.530929
16 Dec 2019 19:07:23.000,43.036,15.612,1170.354670
16 Dec 2019 19:07:24.000,43.395,15.569,1172.217825
16 Dec 2019 19:07:25.000,43.753,15.525,1174.120207
16 Dec 2019 19:07:26.000,44.109,15.481,1176.061621
16 Dec 2019 19:07:27.000,44.465,15.435,1178.041872
16 Dec 2019 19:07:28.000,44.818,15.389,1180.060768
16 Dec 2019 19:07:29.000,45.171,15.343,1182.118102
16 Dec 2019 19:07:30.000,45.522,15.295,1184.213675
16 Dec 2019 19:07:31.000,45.872,15.247,1186.347285
16 Dec 2019 19:07:32.000,46.220,15.198,1188.518720
16 Dec 2019 19:07:33.000,46.567,15.148,1190.727775
16 Dec 2019 19:07:34.000,46.913,15.098,1192.974237
16 Dec 2019 19:07:35.000,47.257,15.047,1195.257896
16 Dec 2019 19:07:36.000,47.599,14.996,1197.578532
16 Dec 2019 19:07:37.000,47.940,14.943,1199.935932
16 Dec 2019 19:07:38.000,48.280,14.890,1202.329876
16 Dec 2019 19:07:39.000,48.618,14.837,1204.760147
16 Dec 2019 19:07:40.000,48.954,14.783,1207.226518
16 Dec 2019 19:07:41.000,49.289,14.728,1209.728769
16 Dec 2019 19:07:42.000,49.623,14.673,1212.266675
16 Dec 2019 19:07:43.000,49.955,14.617,1214.840010
16 Dec 2019 19:07:44.000,50.285,14.561,1217.448547
16 Dec 2019 19:07:45.000,50.614,14.504,1220.092057
16 Dec 2019 19:07:46.000,50.941,14.446,1222.770315
16 Dec 2019 19:07:47.000,51.266,14.388,1225.483084
16 Dec 2019 19:07:48.000,51.590,14.330,1228.230135
16 Dec 2019 19:07:49.000,51.912,14.271,1231.011237
16 Dec 2019 19:07:50.000,52.233,14.211,1233.826156
16 Dec 2019 19:07:51.000,52.552,14.151,1236.674658
16 Dec 2019 19:07:52.000,52.870,14.091,1239.556510
16 Dec 2019 19:07:53.000,53.186,14.030,1242.471476
16 Dec 2019 19:07:54.000,53.500,13.969,1245.419321
16 Dec 2019 19:07:55.000,53.812,13.907,1248.399810
16 Dec 2019 19:07:56.000,54.123,13.845,1251.412705
16 Dec 2019 19:07:57.000,54.432,13.782,1254.457771
16 Dec 2019 19:07:58.000,54.740,13.719,1257.534770
16 Dec 2019 19:07:59.000,55.046,13.656,1260.643466
16 Dec 2019 19:08:00.000,55.350,13.592,1263.783622
16 Dec 2019 19:08:01.000,55.653,13.528,1266.955000
16 Dec 2019 19:08:02.000,55.954,13.464,1270.157364
16 Dec 2019 19:08:03.000,56.253,13.399,1273.390476
16 Dec 2019 19:08:04.000,56.551,13.334,1276.654101
16 Dec 2019 19:08:05.000,56.847,13.268,1279.948000
16 Dec 2019 19:08:06.000,57.141,13.202,1283.271934
16 Dec 2019 19:08:07.000,57.433,13.136,1286.625674
16 Dec 2019 19:08:08.000,57.724,13.070,1290.008980
16 Dec 2019 19:08:09.000,58.014,13.003,1293.421618
16 Dec 2019 19:08:10.000,58.301,12.936,1296.863351
16 Dec 2019 19:08:11.000,58.587,12.869,1300.333946
16 Dec 2019 19:08:12.000,58.871,12.801,1303.833167
16 Dec 2019 19:08:13.000,59.154,12.734,1307.360780
16 Dec 2019 19:08:14.000,59.435,12.666,1310.916557
16 Dec 2019 19:08:15.000,59.714,12.598,1314.500262
16 Dec 2019 19:08:16.000,59.992,12.529,1318.111665
16 Dec 2019 19:08:17.000,60.268,12.460,1321.750535
16 Dec 2019 19:08:18.000,60.542,12.392,1325.416638
16 Dec 2019 19:08:19.000,60.815,12.322,1329.109751
16 Dec 2019 19:08:20.000,61.086,12.253,1332.829644
16 Dec 2019 19:08:21.000,61.355,12.184,1336.576088
16 Dec 2019 19:08:22.000,61.623,12.114,1340.348858
16 Dec 2019 19:08:23.000,61.889,12.044,1344.147723
16 Dec 2019 19:08:24.000,62.154,11.975,1347.972467
16 Dec 2019 19:08:25.000,62.417,11.904,1351.822862
16 Dec 2019 19:08:26.000,62.678,11.834,1355.698682
16 Dec 2019 19:08:27.000,62.938,11.764,1359.599713
16 Dec 2019 19:08:28.000,63.196,11.693,1363.525731
16 Dec 2019 19:08:29.000,63.452,11.623,1367.476516
16 Dec 2019 19:08:30.000,63.707,11.552,1371.451847
16 Dec 2019 19:08:31.000,63.960,11.481,1375.451513
16 Dec 2019 19:08:32.000,64.212,11.410,1379.475296
16 Dec 2019 19:08:33.000,64.462,11.339,1383.522977
16 Dec 2019 19:08:34.000,64.711,11.268,1387.594350
16 Dec 2019 19:08:35.000,64.958,11.197,1391.689196
16 Dec 2019 19:08:36.000,65.203,11.126,1395.807310
16 Dec 2019 19:08:37.000,65.447,11.054,1399.948479
16 Dec 2019 19:08:38.000,65.689,10.983,1404.112493
16 Dec 2019 19:08:39.000,65.930,10.911,1408.299150
16 Dec 2019 19:08:40.000,66.170,10.840,1412.508241
16 Dec 2019 19:08:41.000,66.407,10.768,1416.739559
16 Dec 2019 19:08:42.000,66.644,10.697,1420.992907
16 Dec 2019 19:08:43.000,66.878,10.625,1425.268077
16 Dec 2019 19:08:44.000,67.112,10.553,1429.564875
16 Dec 2019 19:08:45.000,67.343,10.482,1433.883095
16 Dec 2019 19:08:46.000,67.574,10.410,1438.222548
16 Dec 2019 19:08:47.000,67.802,10.338,1442.583032
16 Dec 2019 19:08:48.000,68.030,10.267,1446.964350
16 Dec 2019 19:08:49.000,68.256,10.195,1451.366316
16 Dec 2019 19:08:50.000,68.480,10.123,1455.788730
16 Dec 2019 19:08:51.000,68.703,10.051,1460.231409
16 Dec 2019 19:08:52.000,68.924,9.979,1464.694157
16 Dec 2019 19:08:53.000,69.145,9.908,1469.176793
16 Dec 2019 19:08:54.000,69.363,9.836,1473.679124
16 Dec 2019 19:08:55.000,69.581,9.764,1478.200972
16 Dec 2019 19:08:56.000,69.796,9.693,1482.742147
16 Dec 2019 19:08:57.000,70.011,9.621,1487.302474
16 Dec 2019 19:08:58.000,70.224,9.549,1491.881765
16 Dec 2019 19:08:59.000,70.436,9.478,1496.479849
16 Dec 2019 19:09:00.000,70.646,9.406,1501.096540
16 Dec 2019 19:09:01.000,70.855,9.335,1505.731669
16 Dec 2019 19:09:02.000,71.063,9.263,1510.385056
16 Dec 2019 19:09:03.000,71.269,9.192,1515.056530
16 Dec 2019 19:09:04.000,71.474,9.120,1519.745922
16 Dec 2019 19:09:05.000,71.678,9.049,1524.453056
16 Dec 2019 19:09:06.000,71.880,8.978,1529.177770
16 Dec 2019 19:09:07.000,72.081,8.907,1533.919888
16 Dec 2019 19:09:08.000,72.281,8.836,1538.679253
16 Dec 2019 19:09:09.000,72.479,8.765,1543.455692
16 Dec 2019 19:09:10.000,72.676,8.694,1548.249045
16 Dec 2019 19:09:11.000,72.872,8.623,1553.059155
16 Dec 2019 19:09:12.000,73.067,8.552,1557.885853
16 Dec 2019 19:09:13.000,73.260,8.481,1562.728989
16 Dec 2019 19:09:14.000,73.452,8.410,1567.588397
16 Dec 2019 19:09:15.000,73.643,8.340,1572.463925
16 Dec 2019 19:09:16.000,73.832,8.269,1577.355422
16 Dec 2019 19:09:17.000,74.021,8.199,1582.262726
16 Dec 2019 19:09:18.000,74.208,8.128,1587.185691
16 Dec 2019 19:09:19.000,74.394,8.058,1592.124168
16 Dec 2019 19:09:20.000,74.579,7.988,1597.078001
16 Dec 2019 19:09:21.000,74.762,7.918,1602.047047
16 Dec 2019 19:09:22.000,74.945,7.848,1607.031161
16 Dec 2019 19:09:23.000,75.126,7.778,1612.030193
16 Dec 2019 19:09:24.000,75.306,7.708,1617.044001
16 Dec 2019 19:09:25.000,75.485,7.638,1622.072446
16 Dec 2019 19:09:26.000,75.662,7.569,1627.115381
16 Dec 2019 19:09:27.000,75.839,7.499,1632.172670
16 Dec 2019 19:09:28.000,76.015,7.430,1637.244176
16 Dec 2019 19:09:29.000,76.189,7.361,1642.329757
16 Dec 2019 19:09:30.000,76.362,7.291,1647.429279
16 Dec 2019 19:09:31.000,76.534,7.222,1652.542611
16 Dec 2019 19:09:32.000,76.705,7.153,1657.669614
16 Dec 2019 19:09:33.000,76.875,7.085,1662.810158
16 Dec 2019 19:09:34.000,77.044,7.016,1667.964113
16 Dec 2019 19:09:35.000,77.212,6.947,1673.131353
16 Dec 2019 19:09:36.000,77.379,6.879,1678.311741
16 Dec 2019 19:09:37.000,77.544,6.810,1683.505156
16 Dec 2019 19:09:38.000,77.709,6.742,1688.711474
16 Dec 2019 19:09:39.000,77.873,6.674,1693.930565
16 Dec 2019 19:09:40.000,78.035,6.606,1699.162306
16 Dec 2019 19:09:41.000,78.197,6.538,1704.406578
16 Dec 2019 19:09:42.000,78.357,6.470,1709.663262
16 Dec 2019 19:09:43.000,78.517,6.403,1714.932231
16 Dec 2019 19:09:44.000,78.675,6.335,1720.213370
16 Dec 2019 19:09:45.000,78.833,6.268,1725.506562
16 Dec 2019 19:09:46.000,78.989,6.200,1730.811694
16 Dec 2019 19:09:47.000,79.145,6.133,1736.128643
16 Dec 2019 19:09:48.000,79.299,6.066,1741.457299
16 Dec 2019 19:09:49.000,79.453,5.999,1746.797548
16 Dec 2019 19:09:50.000,79.605,5.932,1752.149280
16 Dec 2019 19:09:51.000,79.757,5.866,1757.512387
16 Dec 2019 19:09:52.000,79.908,5.799,1762.886752
16 Dec 2019 19:09:53.000,80.058,5.733,1768.272270
16 Dec 2019 19:09:54.000,80.206,5.666,1773.668833
16 Dec 2019 19:09:55.000,80.354,5.600,1779.076335
16 Dec 2019 19:09:56.000,80.501,5.534,1784.494675
16 Dec 2019 19:09:57.000,80.648,5.468,1789.923741
16 Dec 2019 19:09:58.000,80.793,5.403,1795.363433
16 Dec 2019 19:09:59.000,80.937,5.337,1800.813648
16 Dec 2019 19:10:00.000,81.081,5.271,1806.274286
16 Dec 2019 19:10:01.000,81.223,5.206,1811.745250
16 Dec 2019 19:10:02.000,81.365,5.141,1817.226434
16 Dec 2019 19:10:03.000,81.506,5.076,1822.717742
16 Dec 2019 19:10:04.000,81.646,5.011,1828.219078
16 Dec 2019 19:10:05.000,81.785,4.946,1833.730344
16 Dec 2019 19:10:06.000,81.923,4.881,1839.251447
16 Dec 2019 19:10:07.000,82.061,4.817,1844.782295
16 Dec 2019 19:10:08.000,82.197,4.752,1850.322788
16 Dec 2019 19:10:09.000,82.333,4.688,1855.872835
16 Dec 2019 19:10:10.000,82.468,4.624,1861.432347
16 Dec 2019 19:10:11.000,82.602,4.559,1867.001232
16 Dec 2019 19:10:12.000,82.735,4.496,1872.579401
16 Dec 2019 19:10:13.000,82.868,4.432,1878.166764
16 Dec 2019 19:10:14.000,83.000,4.368,1883.763237
16 Dec 2019 19:10:15.000,83.131,4.305,1889.368727
16 Dec 2019 19:10:16.000,83.261,4.241,1894.983149
16 Dec 2019 19:10:17.000,83.390,4.178,1900.606419
16 Dec 2019 19:10:18.000,83.519,4.115,1906.238453
16 Dec 2019 19:10:19.000,83.647,4.052,1911.879167
16 Dec 2019 19:10:20.000,83.774,3.989,1917.528477
16 Dec 2019 19:10:21.000,83.900,3.926,1923.186303
16 Dec 2019 19:10:22.000,84.026,3.863,1928.852566
16 Dec 2019 19:10:23.000,84.151,3.801,1934.527178
16 Dec 2019 19:10:24.000,84.275,3.739,1940.210064
16 Dec 2019 19:10:25.000,84.398,3.676,1945.901145
16 Dec 2019 19:10:26.000,84.521,3.614,1951.600344
16 Dec 2019 19:10:27.000,84.643,3.552,1957.307581
16 Dec 2019 19:10:28.000,84.764,3.490,1963.022783
16 Dec 2019 19:10:29.000,84.885,3.429,1968.745872
16 Dec 2019 19:10:30.000,85.005,3.367,1974.476773
16 Dec 2019 19:10:31.000,85.124,3.306,1980.215413
16 Dec 2019 19:10:32.000,85.243,3.244,1985.961722
16 Dec 2019 19:10:33.000,85.360,3.183,1991.715620
16 Dec 2019 19:10:34.000,85.477,3.122,1997.477038
16 Dec 2019 19:10:35.000,85.594,3.061,2003.245905
16 Dec 2019 19:10:36.000,85.710,3.000,2009.022151
16 Dec 2019 19:10:37.000,85.825,2.939,2014.805705
16 Dec 2019 19:10:38.000,85.939,2.879,2020.596499
16 Dec 2019 19:10:39.000,86.053,2.818,2026.394464
16 Dec 2019 19:10:40.000,86.166,2.758,2032.199532
16 Dec 2019 19:10:41.000,86.279,2.698,2038.011636
16 Dec 2019 19:10:42.000,86.391,2.638,2043.830709
16 Dec 2019 19:10:43.000,86.502,2.578,2049.656686
16 Dec 2019 19:10:44.000,86.613,2.518,2055.489502
16 Dec 2019 19:10:45.000,86.723,2.458,2061.329092
16 Dec 2019 19:10:46.000,86.832,2.399,2067.175392
16 Dec 2019 19:10:47.000,86.941,2.339,2073.028339
16 Dec 2019 19:10:48.000,87.049,2.280,2078.887873
16 Dec 2019 19:10:49.000,87.157,2.221,2084.753926
16 Dec 2019 19:10:50.000,87.264,2.162,2090.626440
16 Dec 2019 19:10:51.000,87.370,2.103,2096.505354
16 Dec 2019 19:10:52.000,87.476,2.044,2102.390607
16 Dec 2019 19:10:53.000,87.581,1.985,2108.282141
16 Dec 2019 19:10:54.000,87.686,1.927,2114.179895
16 Dec 2019 19:10:55.000,87.790,1.868,2120.083812
16 Dec 2019 19:10:56.000,87.893,1.810,2125.993833
16 Dec 2019 19:10:57.000,87.996,1.751,2131.909902
16 Dec 2019 19:10:58.000,88.098,1.693,2137.831961
16 Dec 2019 19:10:59.000,88.200,1.635,2143.759954
16 Dec 2019 19:11:00.000,88.301,1.577,2149.693825
16 Dec 2019 19:11:01.000,88.402,1.520,2155.633520
16 Dec 2019 19:11:02.000,88.502,1.462,2161.578984
16 Dec 2019 19:11:03.000,88.602,1.404,2167.530162
16 Dec 2019 19:11:04.000,88.701,1.347,2173.487001
16 Dec 2019 19:11:05.000,88.800,1.290,2179.449448
16 Dec 2019 19:11:06.000,88.898,1.233,2185.417450
16 Dec 2019 19:11:07.000,88.995,1.175,2191.390956
16 Dec 2019 19:11:08.000,89.092,1.118,2197.369913
16 Dec 2019 19:11:09.000,89.188,1.062,2203.354272
16 Dec 2019 19:11:10.000,89.284,1.005,2209.343980
16 Dec 2019 19:11:11.000,89.380,0.948,2215.338988
16 Dec 2019 19:11:12.000,89.475,0.892,2221.339247
16 Dec 2019 19:11:13.000,89.569,0.835,2227.344707
16 Dec 2019 19:11:14.000,89.663,0.779,2233.355320
16 Dec 2019 19:11:15.000,89.757,0.723,2239.371037
16 Dec 2019 19:11:16.000,89.850,0.667,2245.391811
16 Dec 2019 19:11:17.000,89.942,0.611,2251.417594
16 Dec 2019 19:11:18.000,90.034,0.555,2257.448340
16 Dec 2019 19:11:19.000,90.125,0.499,2263.484002
16 Dec 2019 19:11:20.000,90.217,0.444,2269.524534
16 Dec 2019 19:11:21.000,90.307,0.388,2275.569891
16 Dec 2019 19:11:22.000,90.397,0.333,2281.620027
16 Dec 2019 19:11:23.000,90.487,0.277,2287.674898
16 Dec 2019 19:11:24.000,90.576,0.222,2293.734459
16 Dec 2019 19:11:25.000,90.665,0.167,2299.798668
16 Dec 2019 19:11:26.000,90.753,0.112,2305.867479
16 Dec 2019 19:11:27.000,90.841,0.057,2311.940850
16 Dec 2019 19:11:28.000,90.928,0.002,2318.018739
16 Dec 2019 19:11:29.000,91.015,-0.052,2324.101104
16 Dec 2019 19:11:30.000,91.101,-0.107,2330.187902
16 Dec 2019 19:11:30.314,91.129,-0.124,2332.102684
16 Dec 2019 20:38:02.905,307.825,-0.124,2337.025555
16 Dec 2019 20:38:03.000,307.824,-0.118,2336.372617
16 Dec 2019 20:38:04.000,307.812,-0.057,2329.465482
16 Dec 2019 20:38:05.000,307.800,0.005,2322.558468
16 Dec 2019 20:38:06.000,307.787,0.067,2315.651581
16 Dec 2019 20:38:07.000,307.775,0.129,2308.744836
16 Dec 2019 20:38:08.000,307.763,0.192,2301.838241
16 Dec 2019 20:38:09.000,307.750,0.254,2294.931804
16 Dec 2019 20:38:10.000,307.738,0.317,2288.025533
16 Dec 2019 20:38:11.000,307.725,0.380,2281.119443
16 Dec 2019 20:38:12.000,307.712,0.443,2274.213541
16 Dec 2019 20:38:13.000,307.699,0.506,2267.307834
16 Dec 2019 20:38:14.000,307.686,0.570,2260.402339
16 Dec 2019 20:38:15.000,307.673,0.634,2253.497062
16 Dec 2019 20:38:16.000,307.660,0.698,2246.592010
16 Dec 2019 20:38:17.000,307.647,0.762,2239.687201
16 Dec 2019 20:38:18.000,307.633,0.826,2232.782641
16 Dec 2019 20:38:19.000,307.620,0.891,2225.878341
16 Dec 2019 20:38:20.000,307.606,0.955,2218.974309
16 Dec 2019 20:38:21.000,307.593,1.020,2212.070562
16 Dec 2019 20:38:22.000,307.579,1.086,2205.167107
16 Dec 2019 20:38:23.000,307.565,1.151,2198.263953
16 Dec 2019 20:38:24.000,307.551,1.217,2191.361117
16 Dec 2019 20:38:25.000,307.537,1.282,2184.458607
16 Dec 2019 20:38:26.000,307.523,1.348,2177.556430
16 Dec 2019 20:38:27.000,307.508,1.415,2170.654606
16 Dec 2019 20:38:28.000,307.494,1.481,2163.753142
16 Dec 2019 20:38:29.000,307.479,1.548,2156.852048
16 Dec 2019 20:38:30.000,307.465,1.615,2149.951340
16 Dec 2019 20:38:31.000,307.450,1.682,2143.051028
16 Dec 2019 20:38:32.000,307.435,1.749,2136.151124
16 Dec 2019 20:38:33.000,307.420,1.817,2129.251638
16 Dec 2019 20:38:34.000,307.405,1.885,2122.352587
16 Dec 2019 20:38:35.000,307.390,1.953,2115.453982
16 Dec 2019 20:38:36.000,307.374,2.021,2108.555831
16 Dec 2019 20:38:37.000,307.359,2.090,2101.658154
16 Dec 2019 20:38:38.000,307.343,2.159,2094.760960
16 Dec 2019 20:38:39.000,307.327,2.228,2087.864260
16 Dec 2019 20:38:40.000,307.311,2.297,2080.968073
16 Dec 2019 20:38:41.000,307.295,2.367,2074.072409
16 Dec 2019 20:38:42.000,307.279,2.437,2067.177281
16 Dec 2019 20:38:43.000,307.263,2.507,2060.282701
16 Dec 2019 20:38:44.000,307.247,2.577,2053.388688
16 Dec 2019 20:38:45.000,307.230,2.648,2046.495252
16 Dec 2019 20:38:46.000,307.213,2.719,2039.602406
16 Dec 2019 20:38:47.000,307.196,2.790,2032.710169
16 Dec 2019 20:38:48.000,307.179,2.861,2025.818554
16 Dec 2019 20:38:49.000,307.162,2.933,2018.927570
16 Dec 2019 20:38:50.000,307.145,3.005,2012.037240
16 Dec 2019 20:38:51.000,307.128,3.077,2005.147576
16 Dec 2019 20:38:52.000,307.110,3.150,1998.258591
16 Dec 2019 20:38:53.000,307.093,3.222,1991.370300
16 Dec 2019 20:38:54.000,307.075,3.296,1984.482723
16 Dec 2019 20:38:55.000,307.057,3.369,1977.595872
16 Dec 2019 20:38:56.000,307.039,3.443,1970.709762
16 Dec 2019 20:38:57.000,307.020,3.517,1963.824413
16 Dec 2019 20:38:58.000,307.002,3.591,1956.939839
16 Dec 2019 20:38:59.000,306.983,3.666,1950.056054
16 Dec 2019 20:39:00.000,306.965,3.740,1943.173080
16 Dec 2019 20:39:01.000,306.946,3.816,1936.290932
16 Dec 2019 20:39:02.000,306.927,3.891,1929.409626
16 Dec 2019 20:39:03.000,306.907,3.967,1922.529176
16 Dec 2019 20:39:04.000,306.888,4.043,1915.649606
16 Dec 2019 20:39:05.000,306.868,4.120,1908.770931
16 Dec 2019 20:39:06.000,306.849,4.196,1901.893166
16 Dec 2019 20:39:07.000,306.829,4.274,1895.016335
16 Dec 2019 20:39:08.000,306.809,4.351,1888.140453
16 Dec 2019 20:39:09.000,306.788,4.429,1881.265539
16 Dec 2019 20:39:10.000,306.768,4.507,1874.391609
16 Dec 2019 20:39:11.000,306.747,4.586,1867.518688
16 Dec 2019 20:39:12.000,306.727,4.664,1860.646793
16 Dec 2019 20:39:13.000,306.706,4.744,1853.775940
16 Dec 2019 20:39:14.000,306.685,4.823,1846.906154
16 Dec 2019 20:39:15.000,306.663,4.903,1840.037454
16 Dec 2019 20:39:16.000,306.642,4.983,1833.169860
16 Dec 2019 20:39:17.000,306.620,5.064,1826.303389
16 Dec 2019 20:39:18.000,306.598,5.145,1819.438068
16 Dec 2019 20:39:19.000,306.576,5.226,1812.573916
16 Dec 2019 20:39:20.000,306.554,5.308,1805.710951
16 Dec 2019 20:39:21.000,306.531,5.390,1798.849202
16 Dec 2019 20:39:22.000,306.508,5.473,1791.988686
16 Dec 2019 20:39:23.000,306.486,5.556,1785.129424
16 Dec 2019 20:39:24.000,306.462,5.639,1778.271445
16 Dec 2019 20:39:25.000,306.439,5.723,1771.414768
16 Dec 2019 20:39:26.000,306.416,5.807,1764.559417
16 Dec 2019 20:39:27.000,306.392,5.891,1757.705413
16 Dec 2019 20:39:28.000,306.368,5.976,1750.852786
16 Dec 2019 20:39:29.000,306.344,6.062,1744.001557
16 Dec 2019 20:39:30.000,306.319,6.148,1737.151748
16 Dec 2019 20:39:31.000,306.295,6.234,1730.303390
16 Dec 2019 20:39:32.000,306.270,6.321,1723.456506
16 Dec 2019 20:39:33.000,306.245,6.408,1716.611121
16 Dec 2019 20:39:34.000,306.219,6.495,1709.767259
16 Dec 2019 20:39:35.000,306.194,6.583,1702.924952
16 Dec 2019 20:39:36.000,306.168,6.672,1696.084225
16 Dec 2019 20:39:37.000,306.142,6.761,1689.245101
16 Dec 2019 20:39:38.000,306.115,6.850,1682.407615
16 Dec 2019 20:39:39.000,306.089,6.940,1675.571792
16 Dec 2019 20:39:40.000,306.062,7.030,1668.737660
16 Dec 2019 20:39:41.000,306.035,7.121,1661.905246
16 Dec 2019 20:39:42.000,306.008,7.212,1655.074585
16 Dec 2019 20:39:43.000,305.980,7.304,1648.245704
16 Dec 2019 20:39:44.000,305.952,7.396,1641.418633
16 Dec 2019 20:39:45.000,305.924,7.489,1634.593400
16 Dec 2019 20:39:46.000,305.896,7.583,1627.770044
16 Dec 2019 20:39:47.000,305.867,7.676,1620.948592
16 Dec 2019 20:39:48.000,305.838,7.771,1614.129073
16 Dec 2019 20:39:49.000,305.809,7.866,1607.311528
16 Dec 2019 20:39:50.000,305.779,7.961,1600.495985
16 Dec 2019 20:39:51.000,305.749,8.057,1593.682480
16 Dec 2019 20:39:52.000,305.719,8.154,1586.871043
16 Dec 2019 20:39:53.000,305.689,8.251,1580.061716
16 Dec 2019 20:39:54.000,305.658,8.348,1573.254530
16 Dec 2019 20:39:55.000,305.627,8.447,1566.449523
16 Dec 2019 20:39:56.000,305.596,8.545,1559.646727
16 Dec 2019 20:39:57.000,305.564,8.645,1552.846186
16 Dec 2019 20:39:58.000,305.532,8.745,1546.047936
16 Dec 2019 20:39:59.000,305.500,8.845,1539.252011
16 Dec 2019 20:40:00.000,305.467,8.947,1532.458456
16 Dec 2019 20:40:01.000,305.434,9.049,1525.667309
16 Dec 2019 20:40:02.000,305.401,9.151,1518.878610
16 Dec 2019 20:40:03.000,305.367,9.254,1512.092397
16 Dec 2019 20:40:04.000,305.333,9.358,1505.308718
16 Dec 2019 20:40:05.000,305.298,9.462,1498.527612
16 Dec 2019 20:40:06.000,305.264,9.567,1491.749123
16 Dec 2019 20:40:07.000,305.228,9.673,1484.973291
16 Dec 2019 20:40:08.000,305.193,9.779,1478.200168
16 Dec 2019 20:40:09.000,305.157,9.886,1471.429796
16 Dec 2019 20:40:10.000,305.121,9.994,1464.662221
16 Dec 2019 20:40:11.000,305.084,10.103,1457.897488
16 Dec 2019 20:40:12.000,305.047,10.212,1451.135650
16 Dec 2019 20:40:13.000,305.010,10.322,1444.376752
16 Dec 2019 20:40:14.000,304.972,10.432,1437.620846
16 Dec 2019 20:40:15.000,304.933,10.544,1430.867977
16 Dec 2019 20:40:16.000,304.895,10.656,1424.118204
16 Dec 2019 20:40:17.000,304.856,10.769,1417.371576
16 Dec 2019 20:40:18.000,304.816,10.883,1410.628146
16 Dec 2019 20:40:19.000,304.776,10.997,1403.887965
