vcc_sched/input/odugs_wj2xoh_vcc-c_44430_aer.csv

"Time (UTCG)","Azimuth (deg)","Elevation (deg)","Range (km)"
1 Dec 2019 17:07:19.094,127.520,-0.124,2317.734161
1 Dec 2019 17:07:20.000,127.356,-0.118,2317.047989
1 Dec 2019 17:07:21.000,127.175,-0.111,2316.310708
1 Dec 2019 17:07:22.000,126.993,-0.104,2315.594346
1 Dec 2019 17:07:23.000,126.812,-0.098,2314.898918
1 Dec 2019 17:07:24.000,126.630,-0.091,2314.224448
1 Dec 2019 17:07:25.000,126.448,-0.085,2313.570954
1 Dec 2019 17:07:26.000,126.266,-0.079,2312.938457
1 Dec 2019 17:07:27.000,126.084,-0.073,2312.326978
1 Dec 2019 17:07:28.000,125.902,-0.068,2311.736529
1 Dec 2019 17:07:29.000,125.720,-0.062,2311.167131
1 Dec 2019 17:07:30.000,125.538,-0.057,2310.618800
1 Dec 2019 17:07:31.000,125.356,-0.052,2310.091554
1 Dec 2019 17:07:32.000,125.173,-0.047,2309.585411
1 Dec 2019 17:07:33.000,124.991,-0.042,2309.100379
1 Dec 2019 17:07:34.000,124.808,-0.038,2308.636478
1 Dec 2019 17:07:35.000,124.626,-0.034,2308.193720
1 Dec 2019 17:07:36.000,124.443,-0.029,2307.772119
1 Dec 2019 17:07:37.000,124.260,-0.025,2307.371688
1 Dec 2019 17:07:38.000,124.077,-0.022,2306.992443
1 Dec 2019 17:07:39.000,123.895,-0.018,2306.634388
1 Dec 2019 17:07:40.000,123.712,-0.015,2306.297538
1 Dec 2019 17:07:41.000,123.529,-0.012,2305.981903
1 Dec 2019 17:07:42.000,123.346,-0.009,2305.687493
1 Dec 2019 17:07:43.000,123.162,-0.006,2305.414317
1 Dec 2019 17:07:44.000,122.979,-0.003,2305.162383
1 Dec 2019 17:07:45.000,122.796,-0.001,2304.931701
1 Dec 2019 17:07:46.000,122.613,0.001,2304.722277
1 Dec 2019 17:07:47.000,122.430,0.003,2304.534117
1 Dec 2019 17:07:48.000,122.247,0.005,2304.367229
1 Dec 2019 17:07:49.000,122.063,0.007,2304.221617
1 Dec 2019 17:07:50.000,121.880,0.008,2304.097289
1 Dec 2019 17:07:51.000,121.697,0.010,2303.994244
1 Dec 2019 17:07:52.000,121.513,0.011,2303.912489
1 Dec 2019 17:07:53.000,121.330,0.012,2303.852026
1 Dec 2019 17:07:54.000,121.147,0.012,2303.812858
1 Dec 2019 17:07:55.000,120.963,0.013,2303.794986
1 Dec 2019 17:07:56.000,120.780,0.013,2303.798413
1 Dec 2019 17:07:57.000,120.596,0.013,2303.823138
1 Dec 2019 17:07:58.000,120.413,0.013,2303.869162
1 Dec 2019 17:07:59.000,120.230,0.013,2303.936483
1 Dec 2019 17:08:00.000,120.046,0.012,2304.025102
1 Dec 2019 17:08:01.000,119.863,0.012,2304.135015
1 Dec 2019 17:08:02.000,119.680,0.011,2304.266220
1 Dec 2019 17:08:03.000,119.497,0.010,2304.418712
1 Dec 2019 17:08:04.000,119.313,0.009,2304.592492
1 Dec 2019 17:08:05.000,119.130,0.007,2304.787553
1 Dec 2019 17:08:06.000,118.947,0.006,2305.003891
1 Dec 2019 17:08:07.000,118.764,0.004,2305.241500
1 Dec 2019 17:08:08.000,118.581,0.002,2305.500373
1 Dec 2019 17:08:09.000,118.398,-0.000,2305.780503
1 Dec 2019 17:08:10.000,118.214,-0.003,2306.081884
1 Dec 2019 17:08:11.000,118.032,-0.005,2306.404508
1 Dec 2019 17:08:12.000,117.849,-0.008,2306.748365
1 Dec 2019 17:08:13.000,117.666,-0.011,2307.113447
1 Dec 2019 17:08:14.000,117.483,-0.014,2307.499740
1 Dec 2019 17:08:15.000,117.300,-0.017,2307.907241
1 Dec 2019 17:08:16.000,117.118,-0.021,2308.335935
1 Dec 2019 17:08:17.000,116.935,-0.025,2308.785810
1 Dec 2019 17:08:18.000,116.752,-0.029,2309.256855
1 Dec 2019 17:08:19.000,116.570,-0.033,2309.749057
1 Dec 2019 17:08:20.000,116.388,-0.037,2310.262402
1 Dec 2019 17:08:21.000,116.205,-0.041,2310.796872
1 Dec 2019 17:08:22.000,116.023,-0.046,2311.352461
1 Dec 2019 17:08:23.000,115.841,-0.051,2311.929148
1 Dec 2019 17:08:24.000,115.659,-0.056,2312.526920
1 Dec 2019 17:08:25.000,115.477,-0.061,2313.145758
1 Dec 2019 17:08:26.000,115.295,-0.066,2313.785643
1 Dec 2019 17:08:27.000,115.113,-0.072,2314.446565
1 Dec 2019 17:08:28.000,114.932,-0.078,2315.128500
1 Dec 2019 17:08:29.000,114.750,-0.084,2315.831432
1 Dec 2019 17:08:30.000,114.569,-0.090,2316.555340
1 Dec 2019 17:08:31.000,114.388,-0.096,2317.300201
1 Dec 2019 17:08:32.000,114.207,-0.103,2318.066002
1 Dec 2019 17:08:33.000,114.026,-0.109,2318.852719
1 Dec 2019 17:08:34.000,113.845,-0.116,2319.660325
1 Dec 2019 17:08:35.000,113.664,-0.123,2320.488807
1 Dec 2019 17:08:35.108,113.644,-0.124,2320.579316
1 Dec 2019 18:38:23.230,209.329,-0.124,2314.077640
1 Dec 2019 18:38:24.000,209.295,-0.078,2308.890704
1 Dec 2019 18:38:25.000,209.251,-0.017,2302.157864
1 Dec 2019 18:38:26.000,209.208,0.044,2295.426307
1 Dec 2019 18:38:27.000,209.163,0.105,2288.696050
1 Dec 2019 18:38:28.000,209.119,0.166,2281.967117
1 Dec 2019 18:38:29.000,209.074,0.227,2275.239526
1 Dec 2019 18:38:30.000,209.029,0.289,2268.513297
1 Dec 2019 18:38:31.000,208.984,0.350,2261.788448
1 Dec 2019 18:38:32.000,208.938,0.412,2255.065004
1 Dec 2019 18:38:33.000,208.892,0.474,2248.342983
1 Dec 2019 18:38:34.000,208.846,0.536,2241.622407
1 Dec 2019 18:38:35.000,208.800,0.599,2234.903296
1 Dec 2019 18:38:36.000,208.753,0.661,2228.185671
1 Dec 2019 18:38:37.000,208.706,0.724,2221.469557
1 Dec 2019 18:38:38.000,208.659,0.787,2214.754973
1 Dec 2019 18:38:39.000,208.611,0.850,2208.041942
1 Dec 2019 18:38:40.000,208.563,0.913,2201.330484
1 Dec 2019 18:38:41.000,208.515,0.977,2194.620627
1 Dec 2019 18:38:42.000,208.467,1.040,2187.912390
1 Dec 2019 18:38:43.000,208.418,1.104,2181.205796
1 Dec 2019 18:38:44.000,208.369,1.168,2174.500868
1 Dec 2019 18:38:45.000,208.319,1.233,2167.797633
1 Dec 2019 18:38:46.000,208.269,1.297,2161.096113
1 Dec 2019 18:38:47.000,208.219,1.362,2154.396331
1 Dec 2019 18:38:48.000,208.169,1.427,2147.698311
1 Dec 2019 18:38:49.000,208.118,1.492,2141.002080
1 Dec 2019 18:38:50.000,208.067,1.557,2134.307663
1 Dec 2019 18:38:51.000,208.016,1.622,2127.615084
1 Dec 2019 18:38:52.000,207.964,1.688,2120.924367
1 Dec 2019 18:38:53.000,207.912,1.754,2114.235541
1 Dec 2019 18:38:54.000,207.859,1.820,2107.548631
1 Dec 2019 18:38:55.000,207.807,1.886,2100.863663
1 Dec 2019 18:38:56.000,207.754,1.953,2094.180664
1 Dec 2019 18:38:57.000,207.700,2.019,2087.499660
1 Dec 2019 18:38:58.000,207.646,2.086,2080.820680
1 Dec 2019 18:38:59.000,207.592,2.154,2074.143751
1 Dec 2019 18:39:00.000,207.537,2.221,2067.468902
1 Dec 2019 18:39:01.000,207.483,2.289,2060.796158
1 Dec 2019 18:39:02.000,207.427,2.356,2054.125551
1 Dec 2019 18:39:03.000,207.372,2.425,2047.457110
1 Dec 2019 18:39:04.000,207.316,2.493,2040.790863
1 Dec 2019 18:39:05.000,207.259,2.561,2034.126840
1 Dec 2019 18:39:06.000,207.202,2.630,2027.465069
1 Dec 2019 18:39:07.000,207.145,2.699,2020.805584
1 Dec 2019 18:39:08.000,207.087,2.768,2014.148415
1 Dec 2019 18:39:09.000,207.029,2.838,2007.493592
1 Dec 2019 18:39:10.000,206.971,2.908,2000.841145
1 Dec 2019 18:39:11.000,206.912,2.978,1994.191110
1 Dec 2019 18:39:12.000,206.853,3.048,1987.543517
1 Dec 2019 18:39:13.000,206.793,3.118,1980.898398
1 Dec 2019 18:39:14.000,206.733,3.189,1974.255788
1 Dec 2019 18:39:15.000,206.673,3.260,1967.615716
1 Dec 2019 18:39:16.000,206.612,3.331,1960.978222
1 Dec 2019 18:39:17.000,206.550,3.403,1954.343338
1 Dec 2019 18:39:18.000,206.489,3.474,1947.711097
1 Dec 2019 18:39:19.000,206.426,3.546,1941.081535
1 Dec 2019 18:39:20.000,206.364,3.619,1934.454689
1 Dec 2019 18:39:21.000,206.301,3.691,1927.830594
1 Dec 2019 18:39:22.000,206.237,3.764,1921.209287
1 Dec 2019 18:39:23.000,206.173,3.837,1914.590805
1 Dec 2019 18:39:24.000,206.108,3.910,1907.975183
1 Dec 2019 18:39:25.000,206.043,3.984,1901.362463
1 Dec 2019 18:39:26.000,205.978,4.058,1894.752682
1 Dec 2019 18:39:27.000,205.912,4.132,1888.145877
1 Dec 2019 18:39:28.000,205.845,4.207,1881.542090
1 Dec 2019 18:39:29.000,205.778,4.281,1874.941358
1 Dec 2019 18:39:30.000,205.711,4.356,1868.343724
1 Dec 2019 18:39:31.000,205.643,4.432,1861.749229
1 Dec 2019 18:39:32.000,205.575,4.507,1855.157913
1 Dec 2019 18:39:33.000,205.506,4.583,1848.569819
1 Dec 2019 18:39:34.000,205.436,4.660,1841.984988
1 Dec 2019 18:39:35.000,205.366,4.736,1835.403466
1 Dec 2019 18:39:36.000,205.296,4.813,1828.825295
1 Dec 2019 18:39:37.000,205.225,4.890,1822.250519
1 Dec 2019 18:39:38.000,205.153,4.968,1815.679184
1 Dec 2019 18:39:39.000,205.081,5.045,1809.111333
1 Dec 2019 18:39:40.000,205.008,5.124,1802.547016
1 Dec 2019 18:39:41.000,204.935,5.202,1795.986278
1 Dec 2019 18:39:42.000,204.861,5.281,1789.429165
1 Dec 2019 18:39:43.000,204.786,5.360,1782.875727
1 Dec 2019 18:39:44.000,204.711,5.439,1776.326011
1 Dec 2019 18:39:45.000,204.636,5.519,1769.780066
1 Dec 2019 18:39:46.000,204.560,5.599,1763.237945
1 Dec 2019 18:39:47.000,204.483,5.679,1756.699696
1 Dec 2019 18:39:48.000,204.405,5.760,1750.165371
1 Dec 2019 18:39:49.000,204.327,5.841,1743.635023
1 Dec 2019 18:39:50.000,204.249,5.923,1737.108702
1 Dec 2019 18:39:51.000,204.169,6.005,1730.586465
1 Dec 2019 18:39:52.000,204.090,6.087,1724.068365
1 Dec 2019 18:39:53.000,204.009,6.169,1717.554457
1 Dec 2019 18:39:54.000,203.928,6.252,1711.044797
1 Dec 2019 18:39:55.000,203.846,6.336,1704.539441
1 Dec 2019 18:39:56.000,203.763,6.419,1698.038445
1 Dec 2019 18:39:57.000,203.680,6.503,1691.541870
1 Dec 2019 18:39:58.000,203.596,6.588,1685.049775
1 Dec 2019 18:39:59.000,203.512,6.672,1678.562218
1 Dec 2019 18:40:00.000,203.426,6.757,1672.079261
1 Dec 2019 18:40:01.000,203.340,6.843,1665.600966
1 Dec 2019 18:40:02.000,203.254,6.929,1659.127392
1 Dec 2019 18:40:03.000,203.166,7.015,1652.658608
1 Dec 2019 18:40:04.000,203.078,7.102,1646.194674
1 Dec 2019 18:40:05.000,202.989,7.189,1639.735658
1 Dec 2019 18:40:06.000,202.900,7.277,1633.281624
1 Dec 2019 18:40:07.000,202.809,7.365,1626.832641
1 Dec 2019 18:40:08.000,202.718,7.453,1620.388774
1 Dec 2019 18:40:09.000,202.626,7.542,1613.950097
1 Dec 2019 18:40:10.000,202.533,7.631,1607.516677
1 Dec 2019 18:40:11.000,202.440,7.721,1601.088586
1 Dec 2019 18:40:12.000,202.345,7.811,1594.665896
1 Dec 2019 18:40:13.000,202.250,7.901,1588.248681
1 Dec 2019 18:40:14.000,202.154,7.992,1581.837015
1 Dec 2019 18:40:15.000,202.057,8.084,1575.430972
1 Dec 2019 18:40:16.000,201.960,8.175,1569.030632
1 Dec 2019 18:40:17.000,201.861,8.268,1562.636071
1 Dec 2019 18:40:18.000,201.761,8.360,1556.247368
1 Dec 2019 18:40:19.000,201.661,8.454,1549.864604
1 Dec 2019 18:40:20.000,201.560,8.547,1543.487860
1 Dec 2019 18:40:21.000,201.458,8.641,1537.117218
1 Dec 2019 18:40:22.000,201.355,8.736,1530.752763
1 Dec 2019 18:40:23.000,201.251,8.831,1524.394579
1 Dec 2019 18:40:24.000,201.146,8.927,1518.042754
1 Dec 2019 18:40:25.000,201.040,9.023,1511.697376
1 Dec 2019 18:40:26.000,200.933,9.119,1505.358534
1 Dec 2019 18:40:27.000,200.825,9.216,1499.026318
1 Dec 2019 18:40:28.000,200.717,9.314,1492.700820
1 Dec 2019 18:40:29.000,200.607,9.412,1486.382134
1 Dec 2019 18:40:30.000,200.496,9.511,1480.070356
1 Dec 2019 18:40:31.000,200.384,9.610,1473.765580
1 Dec 2019 18:40:32.000,200.271,9.709,1467.467905
1 Dec 2019 18:40:33.000,200.157,9.809,1461.177431
1 Dec 2019 18:40:34.000,200.042,9.910,1454.894260
1 Dec 2019 18:40:35.000,199.926,10.011,1448.618493
1 Dec 2019 18:40:36.000,199.809,10.113,1442.350235
1 Dec 2019 18:40:37.000,199.691,10.215,1436.089592
1 Dec 2019 18:40:38.000,199.571,10.318,1429.836672
1 Dec 2019 18:40:39.000,199.451,10.422,1423.591584
1 Dec 2019 18:40:40.000,199.329,10.526,1417.354438
1 Dec 2019 18:40:41.000,199.206,10.630,1411.125349
1 Dec 2019 18:40:42.000,199.082,10.735,1404.904431
1 Dec 2019 18:40:43.000,198.957,10.841,1398.691800
1 Dec 2019 18:40:44.000,198.830,10.947,1392.487575
1 Dec 2019 18:40:45.000,198.702,11.054,1386.291877
1 Dec 2019 18:40:46.000,198.573,11.161,1380.104829
1 Dec 2019 18:40:47.000,198.443,11.270,1373.926553
1 Dec 2019 18:40:48.000,198.311,11.378,1367.757177
1 Dec 2019 18:40:49.000,198.178,11.487,1361.596830
1 Dec 2019 18:40:50.000,198.044,11.597,1355.445641
1 Dec 2019 18:40:51.000,197.908,11.708,1349.303745
1 Dec 2019 18:40:52.000,197.771,11.819,1343.171275
1 Dec 2019 18:40:53.000,197.633,11.931,1337.048369
1 Dec 2019 18:40:54.000,197.493,12.043,1330.935167
1 Dec 2019 18:40:55.000,197.352,12.156,1324.831809
1 Dec 2019 18:40:56.000,197.209,12.270,1318.738442
1 Dec 2019 18:40:57.000,197.065,12.384,1312.655210
1 Dec 2019 18:40:58.000,196.920,12.499,1306.582263
1 Dec 2019 18:40:59.000,196.773,12.615,1300.519753
1 Dec 2019 18:41:00.000,196.624,12.731,1294.467834
1 Dec 2019 18:41:01.000,196.474,12.848,1288.426662
1 Dec 2019 18:41:02.000,196.322,12.966,1282.396396
1 Dec 2019 18:41:03.000,196.169,13.084,1276.377199
1 Dec 2019 18:41:04.000,196.014,13.204,1270.369235
1 Dec 2019 18:41:05.000,195.857,13.323,1264.372672
1 Dec 2019 18:41:06.000,195.699,13.444,1258.387681
1 Dec 2019 18:41:07.000,195.539,13.565,1252.414433
1 Dec 2019 18:41:08.000,195.377,13.687,1246.453106
1 Dec 2019 18:41:09.000,195.214,13.810,1240.503878
1 Dec 2019 18:41:10.000,195.048,13.933,1234.566933
1 Dec 2019 18:41:11.000,194.881,14.057,1228.642454
1 Dec 2019 18:41:12.000,194.712,14.182,1222.730631
1 Dec 2019 18:41:13.000,194.542,14.307,1216.831656
1 Dec 2019 18:41:14.000,194.369,14.434,1210.945723
1 Dec 2019 18:41:15.000,194.195,14.561,1205.073030
1 Dec 2019 18:41:16.000,194.018,14.689,1199.213781
1 Dec 2019 18:41:17.000,193.840,14.817,1193.368178
1 Dec 2019 18:41:18.000,193.660,14.947,1187.536432
1 Dec 2019 18:41:19.000,193.477,15.077,1181.718755
1 Dec 2019 18:41:20.000,193.293,15.208,1175.915362
1 Dec 2019 18:41:21.000,193.106,15.340,1170.126473
1 Dec 2019 18:41:22.000,192.918,15.472,1164.352313
1 Dec 2019 18:41:23.000,192.727,15.605,1158.593107
1 Dec 2019 18:41:24.000,192.534,15.739,1152.849087
1 Dec 2019 18:41:25.000,192.339,15.874,1147.120489
1 Dec 2019 18:41:26.000,192.142,16.010,1141.407551
1 Dec 2019 18:41:27.000,191.942,16.146,1135.710518
1 Dec 2019 18:41:28.000,191.740,16.284,1130.029635
1 Dec 2019 18:41:29.000,191.536,16.422,1124.365156
1 Dec 2019 18:41:30.000,191.329,16.561,1118.717336
1 Dec 2019 18:41:31.000,191.120,16.701,1113.086437
1 Dec 2019 18:41:32.000,190.908,16.841,1107.472722
1 Dec 2019 18:41:33.000,190.694,16.983,1101.876461
1 Dec 2019 18:41:34.000,190.477,17.125,1096.297930
1 Dec 2019 18:41:35.000,190.258,17.268,1090.737406
1 Dec 2019 18:41:36.000,190.037,17.412,1085.195173
1 Dec 2019 18:41:37.000,189.812,17.557,1079.671520
1 Dec 2019 18:41:38.000,189.585,17.702,1074.166740
1 Dec 2019 18:41:39.000,189.355,17.849,1068.681132
1 Dec 2019 18:41:40.000,189.122,17.996,1063.214998
1 Dec 2019 18:41:41.000,188.887,18.144,1057.768649
1 Dec 2019 18:41:42.000,188.649,18.293,1052.342397
1 Dec 2019 18:41:43.000,188.407,18.443,1046.936562
1 Dec 2019 18:41:44.000,188.163,18.594,1041.551467
1 Dec 2019 18:41:45.000,187.916,18.745,1036.187445
1 Dec 2019 18:41:46.000,187.666,18.898,1030.844829
1 Dec 2019 18:41:47.000,187.413,19.051,1025.523961
1 Dec 2019 18:41:48.000,187.156,19.205,1020.225188
1 Dec 2019 18:41:49.000,186.896,19.360,1014.948863
1 Dec 2019 18:41:50.000,186.634,19.515,1009.695344
1 Dec 2019 18:41:51.000,186.367,19.672,1004.464994
1 Dec 2019 18:41:52.000,186.098,19.829,999.258185
1 Dec 2019 18:41:53.000,185.825,19.987,994.075292
1 Dec 2019 18:41:54.000,185.549,20.146,988.916700
1 Dec 2019 18:41:55.000,185.269,20.306,983.782794
1 Dec 2019 18:41:56.000,184.986,20.466,978.673972
1 Dec 2019 18:41:57.000,184.699,20.628,973.590633
1 Dec 2019 18:41:58.000,184.408,20.790,968.533186
1 Dec 2019 18:41:59.000,184.114,20.953,963.502044
1 Dec 2019 18:42:00.000,183.816,21.116,958.497628
1 Dec 2019 18:42:01.000,183.514,21.281,953.520365
1 Dec 2019 18:42:02.000,183.209,21.446,948.570687
1 Dec 2019 18:42:03.000,182.899,21.612,943.649037
1 Dec 2019 18:42:04.000,182.585,21.778,938.755860
1 Dec 2019 18:42:05.000,182.268,21.946,933.891610
1 Dec 2019 18:42:06.000,181.946,22.114,929.056748
1 Dec 2019 18:42:07.000,181.620,22.282,924.251740
1 Dec 2019 18:42:08.000,181.290,22.451,919.477060
1 Dec 2019 18:42:09.000,180.956,22.621,914.733191
1 Dec 2019 18:42:10.000,180.617,22.792,910.020618
1 Dec 2019 18:42:11.000,180.274,22.963,905.339837
1 Dec 2019 18:42:12.000,179.926,23.135,900.691349
1 Dec 2019 18:42:13.000,179.574,23.307,896.075663
1 Dec 2019 18:42:14.000,179.217,23.480,891.493294
1 Dec 2019 18:42:15.000,178.856,23.653,886.944763
1 Dec 2019 18:42:16.000,178.490,23.827,882.430600
1 Dec 2019 18:42:17.000,178.119,24.001,877.951340
1 Dec 2019 18:42:18.000,177.743,24.175,873.507527
1 Dec 2019 18:42:19.000,177.363,24.350,869.099708
1 Dec 2019 18:42:20.000,176.977,24.525,864.728441
1 Dec 2019 18:42:21.000,176.587,24.701,860.394287
1 Dec 2019 18:42:22.000,176.191,24.877,856.097816
1 Dec 2019 18:42:23.000,175.790,25.053,851.839603
1 Dec 2019 18:42:24.000,175.384,25.229,847.620231
1 Dec 2019 18:42:25.000,174.973,25.405,843.440286
1 Dec 2019 18:42:26.000,174.557,25.582,839.300365
1 Dec 2019 18:42:27.000,174.135,25.759,835.201066
1 Dec 2019 18:42:28.000,173.707,25.935,831.142996
1 Dec 2019 18:42:29.000,173.274,26.112,827.126768
1 Dec 2019 18:42:30.000,172.836,26.288,823.152997
1 Dec 2019 18:42:31.000,172.392,26.464,819.222308
1 Dec 2019 18:42:32.000,171.942,26.640,815.335328
1 Dec 2019 18:42:33.000,171.487,26.816,811.492691
1 Dec 2019 18:42:34.000,171.026,26.992,807.695033
1 Dec 2019 18:42:35.000,170.559,27.167,803.942997
1 Dec 2019 18:42:36.000,170.086,27.342,800.237231
1 Dec 2019 18:42:37.000,169.607,27.516,796.578382
1 Dec 2019 18:42:38.000,169.123,27.690,792.967107
1 Dec 2019 18:42:39.000,168.632,27.863,789.404062
1 Dec 2019 18:42:40.000,168.136,28.035,785.889908
1 Dec 2019 18:42:41.000,167.633,28.207,782.425308
1 Dec 2019 18:42:42.000,167.124,28.377,779.010927
1 Dec 2019 18:42:43.000,166.609,28.547,775.647433
1 Dec 2019 18:42:44.000,166.088,28.716,772.335496
1 Dec 2019 18:42:45.000,165.561,28.883,769.075784
1 Dec 2019 18:42:46.000,165.027,29.050,765.868970
1 Dec 2019 18:42:47.000,164.488,29.215,762.715725
1 Dec 2019 18:42:48.000,163.942,29.379,759.616719
1 Dec 2019 18:42:49.000,163.390,29.541,756.572624
1 Dec 2019 18:42:50.000,162.831,29.702,753.584107
1 Dec 2019 18:42:51.000,162.267,29.861,750.651838
1 Dec 2019 18:42:52.000,161.696,30.018,747.776481
1 Dec 2019 18:42:53.000,161.119,30.174,744.958699
1 Dec 2019 18:42:54.000,160.536,30.328,742.199152
1 Dec 2019 18:42:55.000,159.947,30.480,739.498495
1 Dec 2019 18:42:56.000,159.351,30.629,736.857378
1 Dec 2019 18:42:57.000,158.750,30.777,734.276448
1 Dec 2019 18:42:58.000,158.142,30.922,731.756345
1 Dec 2019 18:42:59.000,157.528,31.064,729.297701
1 Dec 2019 18:43:00.000,156.909,31.204,726.901146
1 Dec 2019 18:43:01.000,156.283,31.342,724.567298
1 Dec 2019 18:43:02.000,155.652,31.477,722.296767
1 Dec 2019 18:43:03.000,155.015,31.609,720.090156
1 Dec 2019 18:43:04.000,154.372,31.738,717.948055
1 Dec 2019 18:43:05.000,153.724,31.863,715.871048
1 Dec 2019 18:43:06.000,153.070,31.986,713.859706
1 Dec 2019 18:43:07.000,152.411,32.106,711.914586
1 Dec 2019 18:43:08.000,151.746,32.222,710.036238
1 Dec 2019 18:43:09.000,151.077,32.335,708.225194
1 Dec 2019 18:43:10.000,150.402,32.444,706.481972
1 Dec 2019 18:43:11.000,149.722,32.550,704.807082
1 Dec 2019 18:43:12.000,149.038,32.651,703.201010
1 Dec 2019 18:43:13.000,148.349,32.749,701.664235
1 Dec 2019 18:43:14.000,147.655,32.843,700.197211
1 Dec 2019 18:43:15.000,146.958,32.933,698.800383
1 Dec 2019 18:43:16.000,146.256,33.019,697.474172
1 Dec 2019 18:43:17.000,145.550,33.101,696.218985
1 Dec 2019 18:43:18.000,144.840,33.179,695.035207
1 Dec 2019 18:43:19.000,144.127,33.252,693.923206
1 Dec 2019 18:43:20.000,143.410,33.320,692.883331
1 Dec 2019 18:43:21.000,142.691,33.385,691.915905
1 Dec 2019 18:43:22.000,141.968,33.444,691.021235
1 Dec 2019 18:43:23.000,141.242,33.499,690.199608
1 Dec 2019 18:43:24.000,140.514,33.550,689.451282
1 Dec 2019 18:43:25.000,139.784,33.595,688.776499
1 Dec 2019 18:43:26.000,139.051,33.636,688.175477
1 Dec 2019 18:43:27.000,138.317,33.672,687.648411
1 Dec 2019 18:43:28.000,137.581,33.704,687.195469
1 Dec 2019 18:43:29.000,136.844,33.730,686.816801
1 Dec 2019 18:43:30.000,136.105,33.751,686.512529
1 Dec 2019 18:43:31.000,135.366,33.768,686.282753
1 Dec 2019 18:43:32.000,134.625,33.779,686.127550
1 Dec 2019 18:43:33.000,133.885,33.786,686.046968
1 Dec 2019 18:43:34.000,133.144,33.787,686.041037
1 Dec 2019 18:43:35.000,132.404,33.784,686.109756
1 Dec 2019 18:43:36.000,131.663,33.775,686.253105
1 Dec 2019 18:43:37.000,130.924,33.762,686.471037
1 Dec 2019 18:43:38.000,130.185,33.744,686.763480
1 Dec 2019 18:43:39.000,129.447,33.720,687.130339
1 Dec 2019 18:43:40.000,128.711,33.692,687.571495
1 Dec 2019 18:43:41.000,127.976,33.659,688.086804
1 Dec 2019 18:43:42.000,127.243,33.621,688.676098
1 Dec 2019 18:43:43.000,126.512,33.579,689.339191
1 Dec 2019 18:43:44.000,125.783,33.531,690.075867
1 Dec 2019 18:43:45.000,125.056,33.479,690.885891
1 Dec 2019 18:43:46.000,124.333,33.422,691.769000
1 Dec 2019 18:43:47.000,123.612,33.361,692.724921
1 Dec 2019 18:43:48.000,122.894,33.295,693.753348
1 Dec 2019 18:43:49.000,122.180,33.225,694.853958
1 Dec 2019 18:43:50.000,121.469,33.150,696.026406
1 Dec 2019 18:43:51.000,120.762,33.071,697.270334
1 Dec 2019 18:43:52.000,120.059,32.988,698.585351
1 Dec 2019 18:43:53.000,119.360,32.901,699.971063
1 Dec 2019 18:43:54.000,118.665,32.809,701.427043
1 Dec 2019 18:43:55.000,117.975,32.714,702.952858
1 Dec 2019 18:43:56.000,117.289,32.615,704.548048
1 Dec 2019 18:43:57.000,116.608,32.512,706.212147
1 Dec 2019 18:43:58.000,115.931,32.405,707.944660
1 Dec 2019 18:43:59.000,115.260,32.295,709.745091
1 Dec 2019 18:44:00.000,114.594,32.181,711.612917
1 Dec 2019 18:44:01.000,113.933,32.064,713.547609
1 Dec 2019 18:44:02.000,113.277,31.944,715.548626
1 Dec 2019 18:44:03.000,112.627,31.820,717.615404
1 Dec 2019 18:44:04.000,111.983,31.693,719.747379
1 Dec 2019 18:44:05.000,111.344,31.564,721.943972
1 Dec 2019 18:44:06.000,110.711,31.431,724.204588
1 Dec 2019 18:44:07.000,110.084,31.296,726.528630
1 Dec 2019 18:44:08.000,109.462,31.158,728.915488
1 Dec 2019 18:44:09.000,108.847,31.017,731.364547
1 Dec 2019 18:44:10.000,108.237,30.874,733.875177
1 Dec 2019 18:44:11.000,107.634,30.729,736.446747
1 Dec 2019 18:44:12.000,107.036,30.581,739.078618
1 Dec 2019 18:44:13.000,106.445,30.432,741.770147
1 Dec 2019 18:44:14.000,105.860,30.280,744.520682
1 Dec 2019 18:44:15.000,105.281,30.126,747.329569
1 Dec 2019 18:44:16.000,104.708,29.970,750.196149
1 Dec 2019 18:44:17.000,104.142,29.813,753.119762
1 Dec 2019 18:44:18.000,103.582,29.654,756.099740
1 Dec 2019 18:44:19.000,103.028,29.493,759.135418
1 Dec 2019 18:44:20.000,102.480,29.331,762.226127
1 Dec 2019 18:44:21.000,101.938,29.168,765.371196
1 Dec 2019 18:44:22.000,101.403,29.003,768.569954
1 Dec 2019 18:44:23.000,100.874,28.837,771.821731
1 Dec 2019 18:44:24.000,100.351,28.669,775.125854
1 Dec 2019 18:44:25.000,99.834,28.501,778.481655
1 Dec 2019 18:44:26.000,99.324,28.332,781.888464
1 Dec 2019 18:44:27.000,98.819,28.162,785.345612
1 Dec 2019 18:44:28.000,98.321,27.991,788.852435
1 Dec 2019 18:44:29.000,97.828,27.819,792.408265
1 Dec 2019 18:44:30.000,97.342,27.647,796.012448
1 Dec 2019 18:44:31.000,96.861,27.474,799.664323
1 Dec 2019 18:44:32.000,96.387,27.300,803.363236
1 Dec 2019 18:44:33.000,95.918,27.126,807.108535
1 Dec 2019 18:44:34.000,95.455,26.952,810.899570
1 Dec 2019 18:44:35.000,94.998,26.777,814.735705
1 Dec 2019 18:44:36.000,94.547,26.602,818.616298
1 Dec 2019 18:44:37.000,94.101,26.427,822.540713
1 Dec 2019 18:44:38.000,93.661,26.252,826.508326
1 Dec 2019 18:44:39.000,93.227,26.076,830.518511
1 Dec 2019 18:44:40.000,92.798,25.900,834.570647
1 Dec 2019 18:44:41.000,92.374,25.725,838.664127
1 Dec 2019 18:44:42.000,91.956,25.549,842.798340
1 Dec 2019 18:44:43.000,91.543,25.374,846.972683
1 Dec 2019 18:44:44.000,91.136,25.198,851.186567
1 Dec 2019 18:44:45.000,90.734,25.023,855.439395
1 Dec 2019 18:44:46.000,90.337,24.848,859.730592
1 Dec 2019 18:44:47.000,89.945,24.673,864.059578
1 Dec 2019 18:44:48.000,89.558,24.499,868.425779
1 Dec 2019 18:44:49.000,89.176,24.325,872.828638
1 Dec 2019 18:44:50.000,88.799,24.151,877.267591
1 Dec 2019 18:44:51.000,88.427,23.978,881.742096
1 Dec 2019 18:44:52.000,88.059,23.805,886.251601
1 Dec 2019 18:44:53.000,87.697,23.632,890.795577
1 Dec 2019 18:44:54.000,87.339,23.460,895.373487
1 Dec 2019 18:44:55.000,86.985,23.288,899.984813
1 Dec 2019 18:44:56.000,86.637,23.117,904.629035
1 Dec 2019 18:44:57.000,86.292,22.947,909.305647
1 Dec 2019 18:44:58.000,85.952,22.777,914.014142
1 Dec 2019 18:44:59.000,85.617,22.608,918.754027
1 Dec 2019 18:45:00.000,85.286,22.439,923.524816
1 Dec 2019 18:45:01.000,84.959,22.271,928.326021
1 Dec 2019 18:45:02.000,84.636,22.103,933.157173
1 Dec 2019 18:45:03.000,84.317,21.937,938.017797
1 Dec 2019 18:45:04.000,84.003,21.771,942.907436
1 Dec 2019 18:45:05.000,83.692,21.605,947.825638
1 Dec 2019 18:45:06.000,83.385,21.441,952.771947
1 Dec 2019 18:45:07.000,83.083,21.277,957.745927
1 Dec 2019 18:45:08.000,82.784,21.113,962.747146
1 Dec 2019 18:45:09.000,82.488,20.951,967.775168
1 Dec 2019 18:45:10.000,82.197,20.789,972.829577
1 Dec 2019 18:45:11.000,81.909,20.628,977.909960
1 Dec 2019 18:45:12.000,81.625,20.468,983.015902
1 Dec 2019 18:45:13.000,81.345,20.309,988.147003
1 Dec 2019 18:45:14.000,81.067,20.150,993.302873
1 Dec 2019 18:45:15.000,80.794,19.993,998.483113
1 Dec 2019 18:45:16.000,80.524,19.836,1003.687345
1 Dec 2019 18:45:17.000,80.257,19.679,1008.915190
1 Dec 2019 18:45:18.000,79.993,19.524,1014.166282
1 Dec 2019 18:45:19.000,79.733,19.370,1019.440247
1 Dec 2019 18:45:20.000,79.476,19.216,1024.736730
1 Dec 2019 18:45:21.000,79.222,19.063,1030.055377
1 Dec 2019 18:45:22.000,78.971,18.911,1035.395844
1 Dec 2019 18:45:23.000,78.723,18.760,1040.757782
1 Dec 2019 18:45:24.000,78.478,18.609,1046.140858
1 Dec 2019 18:45:25.000,78.237,18.460,1051.544741
1 Dec 2019 18:45:26.000,77.998,18.311,1056.969105
1 Dec 2019 18:45:27.000,77.762,18.163,1062.413635
1 Dec 2019 18:45:28.000,77.529,18.016,1067.878008
1 Dec 2019 18:45:29.000,77.298,17.870,1073.361918
1 Dec 2019 18:45:30.000,77.071,17.725,1078.865060
1 Dec 2019 18:45:31.000,76.846,17.580,1084.387137
1 Dec 2019 18:45:32.000,76.623,17.436,1089.927853
1 Dec 2019 18:45:33.000,76.404,17.294,1095.486922
1 Dec 2019 18:45:34.000,76.187,17.152,1101.064054
1 Dec 2019 18:45:35.000,75.972,17.010,1106.658972
1 Dec 2019 18:45:36.000,75.760,16.870,1112.271400
1 Dec 2019 18:45:37.000,75.551,16.730,1117.901070
1 Dec 2019 18:45:38.000,75.344,16.592,1123.547714
1 Dec 2019 18:45:39.000,75.139,16.454,1129.211072
1 Dec 2019 18:45:40.000,74.937,16.316,1134.890887
1 Dec 2019 18:45:41.000,74.737,16.180,1140.586910
1 Dec 2019 18:45:42.000,74.539,16.045,1146.298885
1 Dec 2019 18:45:43.000,74.344,15.910,1152.026572
1 Dec 2019 18:45:44.000,74.151,15.776,1157.769732
1 Dec 2019 18:45:45.000,73.960,15.643,1163.528128
1 Dec 2019 18:45:46.000,73.771,15.511,1169.301528
1 Dec 2019 18:45:47.000,73.584,15.379,1175.089705
1 Dec 2019 18:45:48.000,73.400,15.248,1180.892434
1 Dec 2019 18:45:49.000,73.217,15.118,1186.709495
1 Dec 2019 18:45:50.000,73.036,14.989,1192.540672
1 Dec 2019 18:45:51.000,72.858,14.860,1198.385752
1 Dec 2019 18:45:52.000,72.681,14.733,1204.244525
1 Dec 2019 18:45:53.000,72.507,14.606,1210.116786
1 Dec 2019 18:45:54.000,72.334,14.480,1216.002332
1 Dec 2019 18:45:55.000,72.163,14.354,1221.900968
1 Dec 2019 18:45:56.000,71.994,14.229,1227.812491
1 Dec 2019 18:45:57.000,71.827,14.105,1233.736713
1 Dec 2019 18:45:58.000,71.662,13.982,1239.673445
1 Dec 2019 18:45:59.000,71.499,13.860,1245.622501
1 Dec 2019 18:46:00.000,71.337,13.738,1251.583697
1 Dec 2019 18:46:01.000,71.177,13.617,1257.556856
1 Dec 2019 18:46:02.000,71.018,13.496,1263.541799
1 Dec 2019 18:46:03.000,70.862,13.377,1269.538353
1 Dec 2019 18:46:04.000,70.707,13.258,1275.546347
1 Dec 2019 18:46:05.000,70.553,13.139,1281.565614
1 Dec 2019 18:46:06.000,70.402,13.022,1287.595988
1 Dec 2019 18:46:07.000,70.252,12.905,1293.637306
1 Dec 2019 18:46:08.000,70.103,12.789,1299.689410
1 Dec 2019 18:46:09.000,69.956,12.673,1305.752142
1 Dec 2019 18:46:10.000,69.810,12.558,1311.825347
1 Dec 2019 18:46:11.000,69.666,12.444,1317.908873
1 Dec 2019 18:46:12.000,69.524,12.330,1324.002568
1 Dec 2019 18:46:13.000,69.383,12.217,1330.106292
1 Dec 2019 18:46:14.000,69.243,12.105,1336.219897
1 Dec 2019 18:46:15.000,69.105,11.993,1342.343239
1 Dec 2019 18:46:16.000,68.968,11.882,1348.476181
1 Dec 2019 18:46:17.000,68.832,11.772,1354.618583
1 Dec 2019 18:46:18.000,68.698,11.662,1360.770311
1 Dec 2019 18:46:19.000,68.566,11.553,1366.931231
1 Dec 2019 18:46:20.000,68.434,11.444,1373.101212
1 Dec 2019 18:46:21.000,68.304,11.336,1379.280127
1 Dec 2019 18:46:22.000,68.175,11.229,1385.467847
1 Dec 2019 18:46:23.000,68.048,11.122,1391.664248
1 Dec 2019 18:46:24.000,67.921,11.016,1397.869207
1 Dec 2019 18:46:25.000,67.796,10.910,1404.082604
1 Dec 2019 18:46:26.000,67.672,10.805,1410.304320
1 Dec 2019 18:46:27.000,67.550,10.700,1416.534237
1 Dec 2019 18:46:28.000,67.428,10.597,1422.772241
1 Dec 2019 18:46:29.000,67.308,10.493,1429.018215
1 Dec 2019 18:46:30.000,67.189,10.390,1435.272055
1 Dec 2019 18:46:31.000,67.070,10.288,1441.533647
1 Dec 2019 18:46:32.000,66.954,10.186,1447.802883
1 Dec 2019 18:46:33.000,66.838,10.085,1454.079657
1 Dec 2019 18:46:34.000,66.723,9.985,1460.363865
1 Dec 2019 18:46:35.000,66.609,9.885,1466.655403
1 Dec 2019 18:46:36.000,66.497,9.785,1472.954171
1 Dec 2019 18:46:37.000,66.385,9.686,1479.260068
1 Dec 2019 18:46:38.000,66.275,9.587,1485.572996
1 Dec 2019 18:46:39.000,66.165,9.489,1491.892859
1 Dec 2019 18:46:40.000,66.057,9.392,1498.219558
1 Dec 2019 18:46:41.000,65.949,9.295,1504.553005
1 Dec 2019 18:46:42.000,65.843,9.198,1510.893106
1 Dec 2019 18:46:43.000,65.738,9.102,1517.239770
1 Dec 2019 18:46:44.000,65.633,9.007,1523.592906
1 Dec 2019 18:46:45.000,65.529,8.912,1529.952427
1 Dec 2019 18:46:46.000,65.427,8.817,1536.318246
1 Dec 2019 18:46:47.000,65.325,8.723,1542.690278
1 Dec 2019 18:46:48.000,65.224,8.629,1549.068434
1 Dec 2019 18:46:49.000,65.124,8.536,1555.452640
1 Dec 2019 18:46:50.000,65.025,8.443,1561.842809
1 Dec 2019 18:46:51.000,64.927,8.351,1568.238861
1 Dec 2019 18:46:52.000,64.830,8.259,1574.640718
1 Dec 2019 18:46:53.000,64.734,8.168,1581.048301
1 Dec 2019 18:46:54.000,64.638,8.077,1587.461533
1 Dec 2019 18:46:55.000,64.543,7.987,1593.880338
1 Dec 2019 18:46:56.000,64.449,7.897,1600.304639
1 Dec 2019 18:46:57.000,64.356,7.807,1606.734368
1 Dec 2019 18:46:58.000,64.264,7.718,1613.169450
1 Dec 2019 18:46:59.000,64.173,7.629,1619.609814
1 Dec 2019 18:47:00.000,64.082,7.541,1626.055388
1 Dec 2019 18:47:01.000,63.992,7.453,1632.506104
1 Dec 2019 18:47:02.000,63.903,7.365,1638.961891
1 Dec 2019 18:47:03.000,63.814,7.278,1645.422686
1 Dec 2019 18:47:04.000,63.727,7.191,1651.888422
1 Dec 2019 18:47:05.000,63.640,7.105,1658.359031
1 Dec 2019 18:47:06.000,63.554,7.019,1664.834451
1 Dec 2019 18:47:07.000,63.468,6.934,1671.314617
1 Dec 2019 18:47:08.000,63.383,6.849,1677.799466
1 Dec 2019 18:47:09.000,63.299,6.764,1684.288934
1 Dec 2019 18:47:10.000,63.216,6.680,1690.782966
1 Dec 2019 18:47:11.000,63.133,6.596,1697.281499
1 Dec 2019 18:47:12.000,63.051,6.512,1703.784474
1 Dec 2019 18:47:13.000,62.970,6.429,1710.291833
1 Dec 2019 18:47:14.000,62.890,6.346,1716.803517
1 Dec 2019 18:47:15.000,62.810,6.263,1723.319467
1 Dec 2019 18:47:16.000,62.730,6.181,1729.839634
1 Dec 2019 18:47:17.000,62.652,6.099,1736.363959
1 Dec 2019 18:47:18.000,62.574,6.018,1742.892388
1 Dec 2019 18:47:19.000,62.496,5.937,1749.424867
1 Dec 2019 18:47:20.000,62.419,5.856,1755.961339
1 Dec 2019 18:47:21.000,62.343,5.776,1762.501760
1 Dec 2019 18:47:22.000,62.268,5.695,1769.046074
1 Dec 2019 18:47:23.000,62.193,5.616,1775.594231
1 Dec 2019 18:47:24.000,62.118,5.536,1782.146181
1 Dec 2019 18:47:25.000,62.045,5.457,1788.701874
1 Dec 2019 18:47:26.000,61.971,5.379,1795.261257
1 Dec 2019 18:47:27.000,61.899,5.300,1801.824291
1 Dec 2019 18:47:28.000,61.827,5.222,1808.390923
1 Dec 2019 18:47:29.000,61.755,5.144,1814.961108
1 Dec 2019 18:47:30.000,61.684,5.067,1821.534798
1 Dec 2019 18:47:31.000,61.614,4.990,1828.111946
1 Dec 2019 18:47:32.000,61.544,4.913,1834.692512
1 Dec 2019 18:47:33.000,61.475,4.836,1841.276448
1 Dec 2019 18:47:34.000,61.406,4.760,1847.863712
1 Dec 2019 18:47:35.000,61.338,4.684,1854.454260
1 Dec 2019 18:47:36.000,61.270,4.608,1861.048046
1 Dec 2019 18:47:37.000,61.203,4.533,1867.645034
1 Dec 2019 18:47:38.000,61.136,4.458,1874.245179
1 Dec 2019 18:47:39.000,61.070,4.383,1880.848441
1 Dec 2019 18:47:40.000,61.004,4.309,1887.454779
1 Dec 2019 18:47:41.000,60.939,4.235,1894.064150
1 Dec 2019 18:47:42.000,60.874,4.161,1900.676520
1 Dec 2019 18:47:43.000,60.810,4.087,1907.291848
1 Dec 2019 18:47:44.000,60.746,4.014,1913.910095
1 Dec 2019 18:47:45.000,60.683,3.941,1920.531223
1 Dec 2019 18:47:46.000,60.620,3.868,1927.155191
1 Dec 2019 18:47:47.000,60.558,3.795,1933.781968
1 Dec 2019 18:47:48.000,60.496,3.723,1940.411516
1 Dec 2019 18:47:49.000,60.434,3.651,1947.043797
1 Dec 2019 18:47:50.000,60.373,3.579,1953.678776
1 Dec 2019 18:47:51.000,60.313,3.508,1960.316415
1 Dec 2019 18:47:52.000,60.253,3.437,1966.956685
1 Dec 2019 18:47:53.000,60.193,3.366,1973.599549
1 Dec 2019 18:47:54.000,60.134,3.295,1980.244972
1 Dec 2019 18:47:55.000,60.075,3.225,1986.892918
1 Dec 2019 18:47:56.000,60.016,3.154,1993.543361
1 Dec 2019 18:47:57.000,59.958,3.084,2000.196263
1 Dec 2019 18:47:58.000,59.901,3.015,2006.851594
1 Dec 2019 18:47:59.000,59.844,2.945,2013.509320
1 Dec 2019 18:48:00.000,59.787,2.876,2020.169408
1 Dec 2019 18:48:01.000,59.731,2.807,2026.831832
1 Dec 2019 18:48:02.000,59.675,2.738,2033.496559
1 Dec 2019 18:48:03.000,59.619,2.670,2040.163557
1 Dec 2019 18:48:04.000,59.564,2.601,2046.832794
1 Dec 2019 18:48:05.000,59.509,2.533,2053.504247
1 Dec 2019 18:48:06.000,59.455,2.466,2060.177882
1 Dec 2019 18:48:07.000,59.401,2.398,2066.853671
1 Dec 2019 18:48:08.000,59.347,2.331,2073.531585
1 Dec 2019 18:48:09.000,59.294,2.263,2080.211593
1 Dec 2019 18:48:10.000,59.241,2.196,2086.893672
1 Dec 2019 18:48:11.000,59.188,2.130,2093.577793
1 Dec 2019 18:48:12.000,59.136,2.063,2100.263926
1 Dec 2019 18:48:13.000,59.084,1.997,2106.952043
1 Dec 2019 18:48:14.000,59.032,1.931,2113.642123
1 Dec 2019 18:48:15.000,58.981,1.865,2120.334137
1 Dec 2019 18:48:16.000,58.930,1.799,2127.028057
1 Dec 2019 18:48:17.000,58.880,1.734,2133.723855
1 Dec 2019 18:48:18.000,58.830,1.669,2140.421512
1 Dec 2019 18:48:19.000,58.780,1.604,2147.121000
1 Dec 2019 18:48:20.000,58.731,1.539,2153.822292
1 Dec 2019 18:48:21.000,58.681,1.474,2160.525366
1 Dec 2019 18:48:22.000,58.633,1.410,2167.230192
1 Dec 2019 18:48:23.000,58.584,1.345,2173.936753
1 Dec 2019 18:48:24.000,58.536,1.281,2180.645023
1 Dec 2019 18:48:25.000,58.488,1.217,2187.354977
1 Dec 2019 18:48:26.000,58.441,1.154,2194.066588
1 Dec 2019 18:48:27.000,58.393,1.090,2200.779841
1 Dec 2019 18:48:28.000,58.346,1.027,2207.494709
1 Dec 2019 18:48:29.000,58.300,0.964,2214.211169
1 Dec 2019 18:48:30.000,58.254,0.901,2220.929195
1 Dec 2019 18:48:31.000,58.208,0.838,2227.648773
1 Dec 2019 18:48:32.000,58.162,0.776,2234.369877
1 Dec 2019 18:48:33.000,58.116,0.713,2241.092485
1 Dec 2019 18:48:34.000,58.071,0.651,2247.816572
1 Dec 2019 18:48:35.000,58.026,0.589,2254.542124
1 Dec 2019 18:48:36.000,57.982,0.527,2261.269116
1 Dec 2019 18:48:37.000,57.938,0.466,2267.997529
1 Dec 2019 18:48:38.000,57.894,0.404,2274.727337
1 Dec 2019 18:48:39.000,57.850,0.343,2281.458527
1 Dec 2019 18:48:40.000,57.807,0.282,2288.191076
1 Dec 2019 18:48:41.000,57.763,0.221,2294.924964
1 Dec 2019 18:48:42.000,57.720,0.160,2301.660167
1 Dec 2019 18:48:43.000,57.678,0.099,2308.396674
1 Dec 2019 18:48:44.000,57.636,0.039,2315.134460
1 Dec 2019 18:48:45.000,57.593,-0.022,2321.873508
1 Dec 2019 18:48:46.000,57.552,-0.082,2328.613794
1 Dec 2019 18:48:46.708,57.522,-0.124,2333.385064
1 Dec 2019 20:15:00.242,258.046,-0.124,2323.160635
1 Dec 2019 20:15:01.000,258.097,-0.080,2318.281304
1 Dec 2019 20:15:02.000,258.165,-0.022,2311.842871
1 Dec 2019 20:15:03.000,258.232,0.036,2305.407103
1 Dec 2019 20:15:04.000,258.300,0.094,2298.974031
1 Dec 2019 20:15:05.000,258.369,0.152,2292.543684
1 Dec 2019 20:15:06.000,258.438,0.211,2286.116094
1 Dec 2019 20:15:07.000,258.507,0.269,2279.691285
1 Dec 2019 20:15:08.000,258.576,0.328,2273.269298
1 Dec 2019 20:15:09.000,258.646,0.387,2266.850160
1 Dec 2019 20:15:10.000,258.717,0.446,2260.433902
1 Dec 2019 20:15:11.000,258.787,0.505,2254.020555
1 Dec 2019 20:15:12.000,258.859,0.565,2247.610153
1 Dec 2019 20:15:13.000,258.930,0.624,2241.202728
1 Dec 2019 20:15:14.000,259.002,0.684,2234.798309
1 Dec 2019 20:15:15.000,259.074,0.744,2228.396936
1 Dec 2019 20:15:16.000,259.147,0.803,2221.998640
1 Dec 2019 20:15:17.000,259.220,0.864,2215.603455
1 Dec 2019 20:15:18.000,259.294,0.924,2209.211413
1 Dec 2019 20:15:19.000,259.368,0.984,2202.822552
1 Dec 2019 20:15:20.000,259.442,1.045,2196.436904
1 Dec 2019 20:15:21.000,259.517,1.106,2190.054506
1 Dec 2019 20:15:22.000,259.592,1.166,2183.675390
1 Dec 2019 20:15:23.000,259.668,1.227,2177.299599
1 Dec 2019 20:15:24.000,259.744,1.289,2170.927167
1 Dec 2019 20:15:25.000,259.820,1.350,2164.558128
1 Dec 2019 20:15:26.000,259.897,1.411,2158.192523
1 Dec 2019 20:15:27.000,259.975,1.473,2151.830387
1 Dec 2019 20:15:28.000,260.053,1.535,2145.471758
1 Dec 2019 20:15:29.000,260.131,1.597,2139.116677
1 Dec 2019 20:15:30.000,260.210,1.659,2132.765177
1 Dec 2019 20:15:31.000,260.289,1.722,2126.417305
1 Dec 2019 20:15:32.000,260.369,1.784,2120.073098
1 Dec 2019 20:15:33.000,260.449,1.847,2113.732595
1 Dec 2019 20:15:34.000,260.530,1.910,2107.395837
1 Dec 2019 20:15:35.000,260.611,1.973,2101.062866
1 Dec 2019 20:15:36.000,260.692,2.036,2094.733722
1 Dec 2019 20:15:37.000,260.775,2.099,2088.408448
1 Dec 2019 20:15:38.000,260.857,2.163,2082.087087
1 Dec 2019 20:15:39.000,260.940,2.226,2075.769676
1 Dec 2019 20:15:40.000,261.024,2.290,2069.456268
1 Dec 2019 20:15:41.000,261.108,2.354,2063.146902
1 Dec 2019 20:15:42.000,261.193,2.419,2056.841623
1 Dec 2019 20:15:43.000,261.278,2.483,2050.540475
1 Dec 2019 20:15:44.000,261.363,2.548,2044.243503
1 Dec 2019 20:15:45.000,261.449,2.612,2037.950755
1 Dec 2019 20:15:46.000,261.536,2.677,2031.662275
1 Dec 2019 20:15:47.000,261.623,2.743,2025.378111
1 Dec 2019 20:15:48.000,261.711,2.808,2019.098310
1 Dec 2019 20:15:49.000,261.799,2.874,2012.822917
1 Dec 2019 20:15:50.000,261.888,2.939,2006.551987
1 Dec 2019 20:15:51.000,261.978,3.005,2000.285566
1 Dec 2019 20:15:52.000,262.068,3.071,1994.023703
1 Dec 2019 20:15:53.000,262.158,3.138,1987.766448
1 Dec 2019 20:15:54.000,262.249,3.204,1981.513852
1 Dec 2019 20:15:55.000,262.341,3.271,1975.265967
1 Dec 2019 20:15:56.000,262.433,3.338,1969.022844
1 Dec 2019 20:15:57.000,262.526,3.405,1962.784535
1 Dec 2019 20:15:58.000,262.619,3.472,1956.551095
1 Dec 2019 20:15:59.000,262.713,3.540,1950.322576
1 Dec 2019 20:16:00.000,262.808,3.607,1944.099029
1 Dec 2019 20:16:01.000,262.903,3.675,1937.880517
1 Dec 2019 20:16:02.000,262.999,3.744,1931.667091
1 Dec 2019 20:16:03.000,263.095,3.812,1925.458808
1 Dec 2019 20:16:04.000,263.192,3.880,1919.255725
1 Dec 2019 20:16:05.000,263.290,3.949,1913.057898
1 Dec 2019 20:16:06.000,263.389,4.018,1906.865387
1 Dec 2019 20:16:07.000,263.487,4.087,1900.678250
1 Dec 2019 20:16:08.000,263.587,4.157,1894.496547
1 Dec 2019 20:16:09.000,263.687,4.226,1888.320338
1 Dec 2019 20:16:10.000,263.788,4.296,1882.149685
1 Dec 2019 20:16:11.000,263.890,4.366,1875.984649
1 Dec 2019 20:16:12.000,263.992,4.437,1869.825292
1 Dec 2019 20:16:13.000,264.095,4.507,1863.671678
1 Dec 2019 20:16:14.000,264.199,4.578,1857.523870
1 Dec 2019 20:16:15.000,264.303,4.649,1851.381934
1 Dec 2019 20:16:16.000,264.408,4.720,1845.245932
1 Dec 2019 20:16:17.000,264.514,4.791,1839.115936
1 Dec 2019 20:16:18.000,264.620,4.863,1832.992011
1 Dec 2019 20:16:19.000,264.727,4.935,1826.874224
1 Dec 2019 20:16:20.000,264.835,5.007,1820.762645
1 Dec 2019 20:16:21.000,264.944,5.079,1814.657342
1 Dec 2019 20:16:22.000,265.053,5.152,1808.558386
1 Dec 2019 20:16:23.000,265.163,5.225,1802.465849
1 Dec 2019 20:16:24.000,265.274,5.298,1796.379802
1 Dec 2019 20:16:25.000,265.386,5.371,1790.300318
1 Dec 2019 20:16:26.000,265.498,5.444,1784.227473
1 Dec 2019 20:16:27.000,265.611,5.518,1778.161339
1 Dec 2019 20:16:28.000,265.725,5.592,1772.101993
1 Dec 2019 20:16:29.000,265.840,5.666,1766.049512
1 Dec 2019 20:16:30.000,265.956,5.741,1760.003974
1 Dec 2019 20:16:31.000,266.072,5.816,1753.965456
1 Dec 2019 20:16:32.000,266.189,5.891,1747.934038
1 Dec 2019 20:16:33.000,266.307,5.966,1741.909801
1 Dec 2019 20:16:34.000,266.426,6.041,1735.892827
1 Dec 2019 20:16:35.000,266.546,6.117,1729.883197
1 Dec 2019 20:16:36.000,266.666,6.193,1723.880996
1 Dec 2019 20:16:37.000,266.788,6.269,1717.886307
1 Dec 2019 20:16:38.000,266.910,6.346,1711.899218
1 Dec 2019 20:16:39.000,267.033,6.423,1705.919813
1 Dec 2019 20:16:40.000,267.157,6.500,1699.948182
1 Dec 2019 20:16:41.000,267.282,6.577,1693.984412
1 Dec 2019 20:16:42.000,267.408,6.655,1688.028594
1 Dec 2019 20:16:43.000,267.535,6.733,1682.080820
1 Dec 2019 20:16:44.000,267.662,6.811,1676.141180
1 Dec 2019 20:16:45.000,267.791,6.889,1670.209770
1 Dec 2019 20:16:46.000,267.920,6.968,1664.286682
1 Dec 2019 20:16:47.000,268.051,7.047,1658.372014
1 Dec 2019 20:16:48.000,268.182,7.126,1652.465861
1 Dec 2019 20:16:49.000,268.315,7.205,1646.568323
1 Dec 2019 20:16:50.000,268.448,7.285,1640.679499
1 Dec 2019 20:16:51.000,268.582,7.365,1634.799489
1 Dec 2019 20:16:52.000,268.718,7.445,1628.928395
1 Dec 2019 20:16:53.000,268.854,7.526,1623.066322
1 Dec 2019 20:16:54.000,268.992,7.607,1617.213372
1 Dec 2019 20:16:55.000,269.130,7.688,1611.369653
1 Dec 2019 20:16:56.000,269.270,7.769,1605.535272
1 Dec 2019 20:16:57.000,269.410,7.851,1599.710340
1 Dec 2019 20:16:58.000,269.552,7.933,1593.894961
1 Dec 2019 20:16:59.000,269.694,8.015,1588.089249
1 Dec 2019 20:17:00.000,269.838,8.098,1582.293319
1 Dec 2019 20:17:01.000,269.983,8.181,1576.507283
1 Dec 2019 20:17:02.000,270.129,8.264,1570.731257
1 Dec 2019 20:17:03.000,270.276,8.347,1564.965360
1 Dec 2019 20:17:04.000,270.424,8.431,1559.209709
1 Dec 2019 20:17:05.000,270.573,8.515,1553.464425
1 Dec 2019 20:17:06.000,270.724,8.599,1547.729629
1 Dec 2019 20:17:07.000,270.876,8.684,1542.005446
1 Dec 2019 20:17:08.000,271.028,8.769,1536.292000
1 Dec 2019 20:17:09.000,271.182,8.854,1530.589417
1 Dec 2019 20:17:10.000,271.338,8.939,1524.897830
1 Dec 2019 20:17:11.000,271.494,9.025,1519.217361
1 Dec 2019 20:17:12.000,271.652,9.111,1513.548145
1 Dec 2019 20:17:13.000,271.811,9.198,1507.890315
1 Dec 2019 20:17:14.000,271.971,9.284,1502.244006
1 Dec 2019 20:17:15.000,272.132,9.371,1496.609355
1 Dec 2019 20:17:16.000,272.295,9.459,1490.986501
1 Dec 2019 20:17:17.000,272.459,9.546,1485.375582
1 Dec 2019 20:17:18.000,272.624,9.634,1479.776743
1 Dec 2019 20:17:19.000,272.791,9.723,1474.190128
1 Dec 2019 20:17:20.000,272.959,9.811,1468.615878
1 Dec 2019 20:17:21.000,273.128,9.900,1463.054144
1 Dec 2019 20:17:22.000,273.299,9.989,1457.505074
1 Dec 2019 20:17:23.000,273.471,10.078,1451.968819
1 Dec 2019 20:17:24.000,273.644,10.168,1446.445535
1 Dec 2019 20:17:25.000,273.819,10.258,1440.935378
1 Dec 2019 20:17:26.000,273.996,10.349,1435.438499
1 Dec 2019 20:17:27.000,274.173,10.439,1429.955061
1 Dec 2019 20:17:28.000,274.352,10.530,1424.485225
1 Dec 2019 20:17:29.000,274.533,10.621,1419.029154
1 Dec 2019 20:17:30.000,274.715,10.713,1413.587014
1 Dec 2019 20:17:31.000,274.899,10.805,1408.158976
1 Dec 2019 20:17:32.000,275.084,10.897,1402.745202
1 Dec 2019 20:17:33.000,275.270,10.990,1397.345868
1 Dec 2019 20:17:34.000,275.459,11.082,1391.961147
1 Dec 2019 20:17:35.000,275.648,11.176,1386.591216
1 Dec 2019 20:17:36.000,275.840,11.269,1381.236257
1 Dec 2019 20:17:37.000,276.033,11.363,1375.896442
1 Dec 2019 20:17:38.000,276.227,11.457,1370.571959
1 Dec 2019 20:17:39.000,276.423,11.551,1365.262993
1 Dec 2019 20:17:40.000,276.621,11.646,1359.969731
1 Dec 2019 20:17:41.000,276.820,11.740,1354.692367
1 Dec 2019 20:17:42.000,277.022,11.836,1349.431085
1 Dec 2019 20:17:43.000,277.224,11.931,1344.186085
1 Dec 2019 20:17:44.000,277.429,12.027,1338.957562
1 Dec 2019 20:17:45.000,277.635,12.123,1333.745720
1 Dec 2019 20:17:46.000,277.843,12.219,1328.550754
1 Dec 2019 20:17:47.000,278.053,12.316,1323.372872
1 Dec 2019 20:17:48.000,278.264,12.413,1318.212285
1 Dec 2019 20:17:49.000,278.478,12.510,1313.069194
1 Dec 2019 20:17:50.000,278.693,12.608,1307.943815
1 Dec 2019 20:17:51.000,278.910,12.705,1302.836363
1 Dec 2019 20:17:52.000,279.128,12.803,1297.747059
1 Dec 2019 20:17:53.000,279.349,12.902,1292.676115
1 Dec 2019 20:17:54.000,279.572,13.000,1287.623757
1 Dec 2019 20:17:55.000,279.796,13.099,1282.590214
1 Dec 2019 20:17:56.000,280.023,13.198,1277.575707
1 Dec 2019 20:17:57.000,280.251,13.297,1272.580469
1 Dec 2019 20:17:58.000,280.481,13.397,1267.604738
1 Dec 2019 20:17:59.000,280.713,13.497,1262.648742
1 Dec 2019 20:18:00.000,280.948,13.597,1257.712723
1 Dec 2019 20:18:01.000,281.184,13.697,1252.796927
1 Dec 2019 20:18:02.000,281.422,13.798,1247.901590
1 Dec 2019 20:18:03.000,281.663,13.899,1243.026964
1 Dec 2019 20:18:04.000,281.905,14.000,1238.173301
1 Dec 2019 20:18:05.000,282.150,14.101,1233.340847
1 Dec 2019 20:18:06.000,282.396,14.202,1228.529865
1 Dec 2019 20:18:07.000,282.645,14.304,1223.740606
1 Dec 2019 20:18:08.000,282.896,14.406,1218.973334
1 Dec 2019 20:18:09.000,283.149,14.508,1214.228318
1 Dec 2019 20:18:10.000,283.405,14.610,1209.505817
1 Dec 2019 20:18:11.000,283.662,14.713,1204.806108
1 Dec 2019 20:18:12.000,283.922,14.815,1200.129457
1 Dec 2019 20:18:13.000,284.184,14.918,1195.476143
1 Dec 2019 20:18:14.000,284.448,15.021,1190.846447
1 Dec 2019 20:18:15.000,284.715,15.124,1186.240646
1 Dec 2019 20:18:16.000,284.984,15.227,1181.659028
1 Dec 2019 20:18:17.000,285.255,15.330,1177.101876
1 Dec 2019 20:18:18.000,285.529,15.434,1172.569486
1 Dec 2019 20:18:19.000,285.805,15.538,1168.062143
1 Dec 2019 20:18:20.000,286.083,15.641,1163.580152
1 Dec 2019 20:18:21.000,286.364,15.745,1159.123804
1 Dec 2019 20:18:22.000,286.647,15.849,1154.693406
1 Dec 2019 20:18:23.000,286.933,15.953,1150.289258
1 Dec 2019 20:18:24.000,287.221,16.057,1145.911672
1 Dec 2019 20:18:25.000,287.511,16.161,1141.560953
1 Dec 2019 20:18:26.000,287.804,16.265,1137.237420
1 Dec 2019 20:18:27.000,288.100,16.369,1132.941386
1 Dec 2019 20:18:28.000,288.398,16.473,1128.673165
1 Dec 2019 20:18:29.000,288.699,16.578,1124.433086
1 Dec 2019 20:18:30.000,289.002,16.682,1120.221466
1 Dec 2019 20:18:31.000,289.308,16.786,1116.038637
1 Dec 2019 20:18:32.000,289.616,16.890,1111.884927
1 Dec 2019 20:18:33.000,289.927,16.994,1107.760663
1 Dec 2019 20:18:34.000,290.241,17.098,1103.666187
1 Dec 2019 20:18:35.000,290.558,17.202,1099.601829
1 Dec 2019 20:18:36.000,290.877,17.306,1095.567936
1 Dec 2019 20:18:37.000,291.198,17.409,1091.564844
1 Dec 2019 20:18:38.000,291.523,17.513,1087.592897
1 Dec 2019 20:18:39.000,291.850,17.616,1083.652446
1 Dec 2019 20:18:40.000,292.180,17.720,1079.743837
1 Dec 2019 20:18:41.000,292.513,17.823,1075.867419
1 Dec 2019 20:18:42.000,292.848,17.926,1072.023550
1 Dec 2019 20:18:43.000,293.186,18.028,1068.212584
1 Dec 2019 20:18:44.000,293.527,18.131,1064.434876
1 Dec 2019 20:18:45.000,293.871,18.233,1060.690784
1 Dec 2019 20:18:46.000,294.218,18.335,1056.980674
1 Dec 2019 20:18:47.000,294.567,18.437,1053.304907
1 Dec 2019 20:18:48.000,294.919,18.538,1049.663846
1 Dec 2019 20:18:49.000,295.274,18.639,1046.057856
1 Dec 2019 20:18:50.000,295.632,18.739,1042.487309
1 Dec 2019 20:18:51.000,295.993,18.840,1038.952571
1 Dec 2019 20:18:52.000,296.356,18.940,1035.454013
1 Dec 2019 20:18:53.000,296.723,19.039,1031.992007
1 Dec 2019 20:18:54.000,297.092,19.138,1028.566924
1 Dec 2019 20:18:55.000,297.465,19.236,1025.179135
1 Dec 2019 20:18:56.000,297.840,19.334,1021.829022
1 Dec 2019 20:18:57.000,298.218,19.432,1018.516955
1 Dec 2019 20:18:58.000,298.599,19.529,1015.243310
1 Dec 2019 20:18:59.000,298.982,19.625,1012.008464
1 Dec 2019 20:19:00.000,299.369,19.721,1008.812792
1 Dec 2019 20:19:01.000,299.759,19.816,1005.656672
1 Dec 2019 20:19:02.000,300.151,19.911,1002.540480
1 Dec 2019 20:19:03.000,300.546,20.005,999.464593
1 Dec 2019 20:19:04.000,300.945,20.098,996.429386
1 Dec 2019 20:19:05.000,301.346,20.190,993.435236
1 Dec 2019 20:19:06.000,301.750,20.282,990.482518
1 Dec 2019 20:19:07.000,302.156,20.373,987.571607
1 Dec 2019 20:19:08.000,302.566,20.463,984.702875
1 Dec 2019 20:19:09.000,302.979,20.552,981.876695
1 Dec 2019 20:19:10.000,303.394,20.640,979.093439
1 Dec 2019 20:19:11.000,303.812,20.728,976.353476
1 Dec 2019 20:19:12.000,304.233,20.814,973.657175
1 Dec 2019 20:19:13.000,304.657,20.900,971.004901
1 Dec 2019 20:19:14.000,305.083,20.984,968.397019
1 Dec 2019 20:19:15.000,305.512,21.068,965.833893
1 Dec 2019 20:19:16.000,305.944,21.150,963.315878
1 Dec 2019 20:19:17.000,306.379,21.232,960.843333
1 Dec 2019 20:19:18.000,306.816,21.312,958.416613
1 Dec 2019 20:19:19.000,307.256,21.391,956.036069
1 Dec 2019 20:19:20.000,307.699,21.469,953.702048
1 Dec 2019 20:19:21.000,308.144,21.546,951.414898
1 Dec 2019 20:19:22.000,308.592,21.622,949.174954
1 Dec 2019 20:19:23.000,309.042,21.696,946.982556
1 Dec 2019 20:19:24.000,309.495,21.769,944.838037
1 Dec 2019 20:19:25.000,309.950,21.841,942.741728
1 Dec 2019 20:19:26.000,310.408,21.911,940.693948
1 Dec 2019 20:19:27.000,310.868,21.980,938.695019
1 Dec 2019 20:19:28.000,311.331,22.048,936.745257
1 Dec 2019 20:19:29.000,311.796,22.114,934.844968
1 Dec 2019 20:19:30.000,312.263,22.179,932.994457
1 Dec 2019 20:19:31.000,312.733,22.242,931.194025
1 Dec 2019 20:19:32.000,313.204,22.304,929.443960
1 Dec 2019 20:19:33.000,313.678,22.364,927.744552
1 Dec 2019 20:19:34.000,314.154,22.423,926.096079
1 Dec 2019 20:19:35.000,314.632,22.480,924.498817
1 Dec 2019 20:19:36.000,315.112,22.535,922.953029
1 Dec 2019 20:19:37.000,315.594,22.588,921.458980
1 Dec 2019 20:19:38.000,316.078,22.640,920.016919
1 Dec 2019 20:19:39.000,316.563,22.691,918.627096
1 Dec 2019 20:19:40.000,317.051,22.739,917.289745
1 Dec 2019 20:19:41.000,317.540,22.786,916.005101
1 Dec 2019 20:19:42.000,318.031,22.831,914.773383
1 Dec 2019 20:19:43.000,318.523,22.874,913.594809
1 Dec 2019 20:19:44.000,319.017,22.916,912.469585
1 Dec 2019 20:19:45.000,319.513,22.955,911.397906
1 Dec 2019 20:19:46.000,320.009,22.993,910.379966
1 Dec 2019 20:19:47.000,320.508,23.028,909.415943
1 Dec 2019 20:19:48.000,321.007,23.062,908.506012
1 Dec 2019 20:19:49.000,321.508,23.094,907.650334
1 Dec 2019 20:19:50.000,322.010,23.124,906.849063
1 Dec 2019 20:19:51.000,322.513,23.152,906.102342
1 Dec 2019 20:19:52.000,323.016,23.178,905.410310
1 Dec 2019 20:19:53.000,323.521,23.202,904.773091
1 Dec 2019 20:19:54.000,324.027,23.224,904.190801
1 Dec 2019 20:19:55.000,324.533,23.244,903.663543
1 Dec 2019 20:19:56.000,325.041,23.263,903.191418
1 Dec 2019 20:19:57.000,325.548,23.279,902.774510
1 Dec 2019 20:19:58.000,326.057,23.293,902.412897
1 Dec 2019 20:19:59.000,326.565,23.304,902.106643
1 Dec 2019 20:20:00.000,327.075,23.314,901.855806
1 Dec 2019 20:20:01.000,327.584,23.322,901.660430
1 Dec 2019 20:20:02.000,328.094,23.328,901.520552
1 Dec 2019 20:20:03.000,328.604,23.332,901.436197
1 Dec 2019 20:20:04.000,329.114,23.333,901.407380
1 Dec 2019 20:20:05.000,329.624,23.333,901.434105
1 Dec 2019 20:20:06.000,330.134,23.330,901.516367
1 Dec 2019 20:20:07.000,330.644,23.326,901.654151
1 Dec 2019 20:20:08.000,331.153,23.319,901.847429
1 Dec 2019 20:20:09.000,331.662,23.310,902.096165
1 Dec 2019 20:20:10.000,332.171,23.300,902.400312
1 Dec 2019 20:20:11.000,332.680,23.287,902.759814
1 Dec 2019 20:20:12.000,333.187,23.272,903.174602
1 Dec 2019 20:20:13.000,333.695,23.255,903.644601
1 Dec 2019 20:20:14.000,334.201,23.236,904.169722
1 Dec 2019 20:20:15.000,334.707,23.216,904.749869
1 Dec 2019 20:20:16.000,335.212,23.193,905.384933
1 Dec 2019 20:20:17.000,335.716,23.168,906.074798
1 Dec 2019 20:20:18.000,336.219,23.141,906.819338
1 Dec 2019 20:20:19.000,336.721,23.112,907.618417
1 Dec 2019 20:20:20.000,337.222,23.081,908.471889
1 Dec 2019 20:20:21.000,337.722,23.049,909.379598
1 Dec 2019 20:20:22.000,338.220,23.014,910.341381
1 Dec 2019 20:20:23.000,338.717,22.978,911.357067
1 Dec 2019 20:20:24.000,339.213,22.939,912.426472
1 Dec 2019 20:20:25.000,339.707,22.899,913.549404
1 Dec 2019 20:20:26.000,340.200,22.857,914.725668
1 Dec 2019 20:20:27.000,340.691,22.813,915.955053
1 Dec 2019 20:20:28.000,341.180,22.768,917.237345
1 Dec 2019 20:20:29.000,341.668,22.720,918.572318
1 Dec 2019 20:20:30.000,342.154,22.671,919.959744
1 Dec 2019 20:20:31.000,342.638,22.620,921.399381
1 Dec 2019 20:20:32.000,343.120,22.568,922.890984
1 Dec 2019 20:20:33.000,343.600,22.514,924.434298
1 Dec 2019 20:20:34.000,344.079,22.458,926.029062
1 Dec 2019 20:20:35.000,344.555,22.400,927.675008
1 Dec 2019 20:20:36.000,345.029,22.341,929.371863
1 Dec 2019 20:20:37.000,345.501,22.281,931.119344
1 Dec 2019 20:20:38.000,345.971,22.218,932.917165
1 Dec 2019 20:20:39.000,346.438,22.155,934.765033
1 Dec 2019 20:20:40.000,346.903,22.090,936.662648
1 Dec 2019 20:20:41.000,347.366,22.023,938.609707
1 Dec 2019 20:20:42.000,347.827,21.955,940.605897
1 Dec 2019 20:20:43.000,348.285,21.886,942.650907
1 Dec 2019 20:20:44.000,348.741,21.815,944.744414
1 Dec 2019 20:20:45.000,349.194,21.743,946.886093
1 Dec 2019 20:20:46.000,349.645,21.670,949.075617
1 Dec 2019 20:20:47.000,350.093,21.595,951.312651
1 Dec 2019 20:20:48.000,350.539,21.519,953.596858
1 Dec 2019 20:20:49.000,350.982,21.442,955.927895
1 Dec 2019 20:20:50.000,351.422,21.364,958.305419
1 Dec 2019 20:20:51.000,351.860,21.285,960.729080
1 Dec 2019 20:20:52.000,352.295,21.204,963.198527
1 Dec 2019 20:20:53.000,352.727,21.123,965.713405
1 Dec 2019 20:20:54.000,353.157,21.040,968.273357
1 Dec 2019 20:20:55.000,353.584,20.956,970.878021
1 Dec 2019 20:20:56.000,354.008,20.872,973.527037
1 Dec 2019 20:20:57.000,354.429,20.786,976.220039
1 Dec 2019 20:20:58.000,354.848,20.700,978.956659
1 Dec 2019 20:20:59.000,355.264,20.612,981.736531
1 Dec 2019 20:21:00.000,355.677,20.524,984.559283
1 Dec 2019 20:21:01.000,356.087,20.435,987.424543
1 Dec 2019 20:21:02.000,356.494,20.345,990.331940
1 Dec 2019 20:21:03.000,356.898,20.254,993.281098
1 Dec 2019 20:21:04.000,357.300,20.162,996.271643
1 Dec 2019 20:21:05.000,357.698,20.070,999.303200
1 Dec 2019 20:21:06.000,358.094,19.977,1002.375391
1 Dec 2019 20:21:07.000,358.487,19.884,1005.487841
1 Dec 2019 20:21:08.000,358.877,19.789,1008.640172
1 Dec 2019 20:21:09.000,359.264,19.694,1011.832007
1 Dec 2019 20:21:10.000,359.649,19.599,1015.062970
1 Dec 2019 20:21:11.000,0.030,19.503,1018.332684
1 Dec 2019 20:21:12.000,0.409,19.406,1021.640772
1 Dec 2019 20:21:13.000,0.784,19.309,1024.986857
1 Dec 2019 20:21:14.000,1.157,19.211,1028.370566
1 Dec 2019 20:21:15.000,1.527,19.113,1031.791522
1 Dec 2019 20:21:16.000,1.894,19.014,1035.249353
1 Dec 2019 20:21:17.000,2.258,18.915,1038.743685
1 Dec 2019 20:21:18.000,2.619,18.816,1042.274147
1 Dec 2019 20:21:19.000,2.978,18.716,1045.840367
1 Dec 2019 20:21:20.000,3.333,18.615,1049.441978
1 Dec 2019 20:21:21.000,3.686,18.515,1053.078610
1 Dec 2019 20:21:22.000,4.036,18.414,1056.749897
1 Dec 2019 20:21:23.000,4.383,18.313,1060.455475
1 Dec 2019 20:21:24.000,4.727,18.211,1064.194981
1 Dec 2019 20:21:25.000,5.069,18.109,1067.968052
1 Dec 2019 20:21:26.000,5.407,18.008,1071.774331
1 Dec 2019 20:21:27.000,5.743,17.905,1075.613459
1 Dec 2019 20:21:28.000,6.076,17.803,1079.485080
1 Dec 2019 20:21:29.000,6.407,17.700,1083.388842
1 Dec 2019 20:21:30.000,6.735,17.598,1087.324392
1 Dec 2019 20:21:31.000,7.059,17.495,1091.291383
1 Dec 2019 20:21:32.000,7.382,17.392,1095.289466
1 Dec 2019 20:21:33.000,7.701,17.288,1099.318299
1 Dec 2019 20:21:34.000,8.018,17.185,1103.377538
1 Dec 2019 20:21:35.000,8.332,17.082,1107.466843
1 Dec 2019 20:21:36.000,8.644,16.978,1111.585879
1 Dec 2019 20:21:37.000,8.953,16.875,1115.734310
1 Dec 2019 20:21:38.000,9.259,16.771,1119.911803
1 Dec 2019 20:21:39.000,9.563,16.668,1124.118031
1 Dec 2019 20:21:40.000,9.864,16.564,1128.352665
1 Dec 2019 20:21:41.000,10.163,16.461,1132.615383
1 Dec 2019 20:21:42.000,10.459,16.357,1136.905862
1 Dec 2019 20:21:43.000,10.753,16.253,1141.223783
1 Dec 2019 20:21:44.000,11.044,16.150,1145.568832
1 Dec 2019 20:21:45.000,11.333,16.046,1149.940694
1 Dec 2019 20:21:46.000,11.619,15.943,1154.339061
1 Dec 2019 20:21:47.000,11.902,15.840,1158.763622
1 Dec 2019 20:21:48.000,12.184,15.737,1163.214076
1 Dec 2019 20:21:49.000,12.463,15.633,1167.690119
1 Dec 2019 20:21:50.000,12.739,15.530,1172.191454
1 Dec 2019 20:21:51.000,13.013,15.427,1176.717783
1 Dec 2019 20:21:52.000,13.285,15.324,1181.268814
1 Dec 2019 20:21:53.000,13.554,15.222,1185.844256
1 Dec 2019 20:21:54.000,13.822,15.119,1190.443823
1 Dec 2019 20:21:55.000,14.086,15.017,1195.067230
1 Dec 2019 20:21:56.000,14.349,14.915,1199.714195
1 Dec 2019 20:21:57.000,14.609,14.812,1204.384439
1 Dec 2019 20:21:58.000,14.867,14.710,1209.077688
1 Dec 2019 20:21:59.000,15.123,14.609,1213.793668
1 Dec 2019 20:22:00.000,15.377,14.507,1218.532109
1 Dec 2019 20:22:01.000,15.628,14.406,1223.292745
1 Dec 2019 20:22:02.000,15.878,14.305,1228.075310
1 Dec 2019 20:22:03.000,16.125,14.204,1232.879545
1 Dec 2019 20:22:04.000,16.370,14.103,1237.705189
1 Dec 2019 20:22:05.000,16.613,14.002,1242.551989
1 Dec 2019 20:22:06.000,16.854,13.902,1247.419691
1 Dec 2019 20:22:07.000,17.093,13.802,1252.308045
1 Dec 2019 20:22:08.000,17.330,13.702,1257.216805
1 Dec 2019 20:22:09.000,17.565,13.602,1262.145725
1 Dec 2019 20:22:10.000,17.797,13.503,1267.094564
1 Dec 2019 20:22:11.000,18.028,13.404,1272.063085
1 Dec 2019 20:22:12.000,18.257,13.305,1277.051049
1 Dec 2019 20:22:13.000,18.484,13.206,1282.058226
1 Dec 2019 20:22:14.000,18.709,13.108,1287.084384
1 Dec 2019 20:22:15.000,18.932,13.009,1292.129294
1 Dec 2019 20:22:16.000,19.153,12.911,1297.192733
1 Dec 2019 20:22:17.000,19.373,12.814,1302.274478
1 Dec 2019 20:22:18.000,19.590,12.716,1307.374307
1 Dec 2019 20:22:19.000,19.806,12.619,1312.492005
1 Dec 2019 20:22:20.000,20.020,12.523,1317.627357
1 Dec 2019 20:22:21.000,20.232,12.426,1322.780152
1 Dec 2019 20:22:22.000,20.442,12.330,1327.950178
1 Dec 2019 20:22:23.000,20.651,12.234,1333.137230
1 Dec 2019 20:22:24.000,20.857,12.138,1338.341102
1 Dec 2019 20:22:25.000,21.062,12.043,1343.561595
1 Dec 2019 20:22:26.000,21.266,11.948,1348.798505
1 Dec 2019 20:22:27.000,21.467,11.853,1354.051639
1 Dec 2019 20:22:28.000,21.667,11.758,1359.320801
1 Dec 2019 20:22:29.000,21.866,11.664,1364.605798
1 Dec 2019 20:22:30.000,22.062,11.570,1369.906440
1 Dec 2019 20:22:31.000,22.257,11.476,1375.222540
1 Dec 2019 20:22:32.000,22.451,11.383,1380.553913
1 Dec 2019 20:22:33.000,22.643,11.290,1385.900378
1 Dec 2019 20:22:34.000,22.833,11.197,1391.261751
1 Dec 2019 20:22:35.000,23.022,11.105,1396.637855
1 Dec 2019 20:22:36.000,23.209,11.012,1402.028514
1 Dec 2019 20:22:37.000,23.395,10.921,1407.433554
1 Dec 2019 20:22:38.000,23.579,10.829,1412.852804
1 Dec 2019 20:22:39.000,23.762,10.738,1418.286093
1 Dec 2019 20:22:40.000,23.943,10.647,1423.733253
1 Dec 2019 20:22:41.000,24.122,10.556,1429.194121
1 Dec 2019 20:22:42.000,24.301,10.466,1434.668532
1 Dec 2019 20:22:43.000,24.478,10.376,1440.156326
1 Dec 2019 20:22:44.000,24.653,10.286,1445.657342
1 Dec 2019 20:22:45.000,24.827,10.197,1451.171424
1 Dec 2019 20:22:46.000,25.000,10.107,1456.698417
1 Dec 2019 20:22:47.000,25.171,10.019,1462.238167
1 Dec 2019 20:22:48.000,25.341,9.930,1467.790523
1 Dec 2019 20:22:49.000,25.509,9.842,1473.355337
1 Dec 2019 20:22:50.000,25.676,9.754,1478.932459
1 Dec 2019 20:22:51.000,25.842,9.666,1484.521744
1 Dec 2019 20:22:52.000,26.007,9.579,1490.123049
1 Dec 2019 20:22:53.000,26.170,9.492,1495.736232
1 Dec 2019 20:22:54.000,26.332,9.405,1501.361153
1 Dec 2019 20:22:55.000,26.493,9.319,1506.997673
1 Dec 2019 20:22:56.000,26.652,9.233,1512.645656
1 Dec 2019 20:22:57.000,26.811,9.147,1518.304968
1 Dec 2019 20:22:58.000,26.968,9.061,1523.975473
1 Dec 2019 20:22:59.000,27.124,8.976,1529.657041
1 Dec 2019 20:23:00.000,27.278,8.891,1535.349543
1 Dec 2019 20:23:01.000,27.432,8.806,1541.052849
1 Dec 2019 20:23:02.000,27.584,8.722,1546.766835
1 Dec 2019 20:23:03.000,27.735,8.638,1552.491374
1 Dec 2019 20:23:04.000,27.885,8.554,1558.226343
1 Dec 2019 20:23:05.000,28.034,8.471,1563.971620
1 Dec 2019 20:23:06.000,28.181,8.388,1569.727086
1 Dec 2019 20:23:07.000,28.328,8.305,1575.492622
1 Dec 2019 20:23:08.000,28.473,8.222,1581.268111
1 Dec 2019 20:23:09.000,28.618,8.140,1587.053435
1 Dec 2019 20:23:10.000,28.761,8.058,1592.848482
1 Dec 2019 20:23:11.000,28.903,7.976,1598.653138
1 Dec 2019 20:23:12.000,29.044,7.894,1604.467292
1 Dec 2019 20:23:13.000,29.184,7.813,1610.290834
1 Dec 2019 20:23:14.000,29.323,7.732,1616.123655
