vcc_sched/input/uvags_wj2xmr_vcc-a_44428_aer.csv

"Time (UTCG)","Azimuth (deg)","Elevation (deg)","Range (km)"
1 Dec 2019 17:33:00.533,152.563,-0.124,2318.760477
1 Dec 2019 17:33:01.000,152.488,-0.110,2317.205098
1 Dec 2019 17:33:02.000,152.328,-0.080,2313.884826
1 Dec 2019 17:33:03.000,152.168,-0.050,2310.580875
1 Dec 2019 17:33:04.000,152.007,-0.020,2307.293320
1 Dec 2019 17:33:05.000,151.845,0.009,2304.022236
1 Dec 2019 17:33:06.000,151.683,0.039,2300.767700
1 Dec 2019 17:33:07.000,151.521,0.068,2297.529782
1 Dec 2019 17:33:08.000,151.358,0.098,2294.308559
1 Dec 2019 17:33:09.000,151.195,0.127,2291.104107
1 Dec 2019 17:33:10.000,151.031,0.156,2287.916500
1 Dec 2019 17:33:11.000,150.867,0.185,2284.745813
1 Dec 2019 17:33:12.000,150.702,0.214,2281.592122
1 Dec 2019 17:33:13.000,150.537,0.243,2278.455501
1 Dec 2019 17:33:14.000,150.371,0.272,2275.336025
1 Dec 2019 17:33:15.000,150.205,0.301,2272.233769
1 Dec 2019 17:33:16.000,150.039,0.329,2269.148809
1 Dec 2019 17:33:17.000,149.872,0.357,2266.081219
1 Dec 2019 17:33:18.000,149.704,0.386,2263.031074
1 Dec 2019 17:33:19.000,149.536,0.414,2259.998449
1 Dec 2019 17:33:20.000,149.368,0.442,2256.983419
1 Dec 2019 17:33:21.000,149.199,0.470,2253.986060
1 Dec 2019 17:33:22.000,149.030,0.498,2251.006445
1 Dec 2019 17:33:23.000,148.860,0.525,2248.044649
1 Dec 2019 17:33:24.000,148.690,0.553,2245.100748
1 Dec 2019 17:33:25.000,148.519,0.580,2242.174817
1 Dec 2019 17:33:26.000,148.348,0.607,2239.266928
1 Dec 2019 17:33:27.000,148.177,0.634,2236.377158
1 Dec 2019 17:33:28.000,148.005,0.661,2233.505580
1 Dec 2019 17:33:29.000,147.832,0.688,2230.652270
1 Dec 2019 17:33:30.000,147.659,0.715,2227.817300
1 Dec 2019 17:33:31.000,147.486,0.742,2225.000746
1 Dec 2019 17:33:32.000,147.312,0.768,2222.202681
1 Dec 2019 17:33:33.000,147.138,0.794,2219.423180
1 Dec 2019 17:33:34.000,146.963,0.820,2216.662316
1 Dec 2019 17:33:35.000,146.788,0.847,2213.920162
1 Dec 2019 17:33:36.000,146.613,0.872,2211.196794
1 Dec 2019 17:33:37.000,146.437,0.898,2208.492281
1 Dec 2019 17:33:38.000,146.260,0.924,2205.806701
1 Dec 2019 17:33:39.000,146.083,0.949,2203.140125
1 Dec 2019 17:33:40.000,145.906,0.975,2200.492627
1 Dec 2019 17:33:41.000,145.728,1.000,2197.864279
1 Dec 2019 17:33:42.000,145.550,1.025,2195.255153
1 Dec 2019 17:33:43.000,145.372,1.050,2192.665322
1 Dec 2019 17:33:44.000,145.193,1.074,2190.094858
1 Dec 2019 17:33:45.000,145.013,1.099,2187.543832
1 Dec 2019 17:33:46.000,144.834,1.123,2185.012319
1 Dec 2019 17:33:47.000,144.653,1.147,2182.500388
1 Dec 2019 17:33:48.000,144.473,1.172,2180.008111
1 Dec 2019 17:33:49.000,144.291,1.195,2177.535559
1 Dec 2019 17:33:50.000,144.110,1.219,2175.082804
1 Dec 2019 17:33:51.000,143.928,1.243,2172.649913
1 Dec 2019 17:33:52.000,143.746,1.266,2170.236961
1 Dec 2019 17:33:53.000,143.563,1.290,2167.844016
1 Dec 2019 17:33:54.000,143.380,1.313,2165.471149
1 Dec 2019 17:33:55.000,143.196,1.336,2163.118428
1 Dec 2019 17:33:56.000,143.012,1.358,2160.785921
1 Dec 2019 17:33:57.000,142.828,1.381,2158.473701
1 Dec 2019 17:33:58.000,142.643,1.403,2156.181834
1 Dec 2019 17:33:59.000,142.458,1.426,2153.910390
1 Dec 2019 17:34:00.000,142.272,1.448,2151.659433
1 Dec 2019 17:34:01.000,142.086,1.470,2149.429037
1 Dec 2019 17:34:02.000,141.900,1.492,2147.219266
1 Dec 2019 17:34:03.000,141.713,1.513,2145.030187
1 Dec 2019 17:34:04.000,141.526,1.535,2142.861865
1 Dec 2019 17:34:05.000,141.338,1.556,2140.714370
1 Dec 2019 17:34:06.000,141.150,1.577,2138.587767
1 Dec 2019 17:34:07.000,140.962,1.598,2136.482121
1 Dec 2019 17:34:08.000,140.773,1.618,2134.397494
1 Dec 2019 17:34:09.000,140.584,1.639,2132.333957
1 Dec 2019 17:34:10.000,140.395,1.659,2130.291571
1 Dec 2019 17:34:11.000,140.205,1.679,2128.270399
1 Dec 2019 17:34:12.000,140.015,1.699,2126.270507
1 Dec 2019 17:34:13.000,139.825,1.719,2124.291958
1 Dec 2019 17:34:14.000,139.634,1.738,2122.334811
1 Dec 2019 17:34:15.000,139.442,1.758,2120.399134
1 Dec 2019 17:34:16.000,139.251,1.777,2118.484986
1 Dec 2019 17:34:17.000,139.059,1.796,2116.592426
1 Dec 2019 17:34:18.000,138.867,1.815,2114.721520
1 Dec 2019 17:34:19.000,138.674,1.833,2112.872322
1 Dec 2019 17:34:20.000,138.481,1.852,2111.044899
1 Dec 2019 17:34:21.000,138.288,1.870,2109.239307
1 Dec 2019 17:34:22.000,138.094,1.888,2107.455603
1 Dec 2019 17:34:23.000,137.900,1.906,2105.693849
1 Dec 2019 17:34:24.000,137.706,1.923,2103.954100
1 Dec 2019 17:34:25.000,137.511,1.941,2102.236417
1 Dec 2019 17:34:26.000,137.316,1.958,2100.540854
1 Dec 2019 17:34:27.000,137.121,1.975,2098.867466
1 Dec 2019 17:34:28.000,136.925,1.992,2097.216313
1 Dec 2019 17:34:29.000,136.729,2.008,2095.587445
1 Dec 2019 17:34:30.000,136.533,2.025,2093.980923
1 Dec 2019 17:34:31.000,136.336,2.041,2092.396795
1 Dec 2019 17:34:32.000,136.140,2.057,2090.835119
1 Dec 2019 17:34:33.000,135.942,2.073,2089.295943
1 Dec 2019 17:34:34.000,135.745,2.088,2087.779326
1 Dec 2019 17:34:35.000,135.547,2.103,2086.285313
1 Dec 2019 17:34:36.000,135.349,2.119,2084.813960
1 Dec 2019 17:34:37.000,135.151,2.133,2083.365313
1 Dec 2019 17:34:38.000,134.952,2.148,2081.939427
1 Dec 2019 17:34:39.000,134.754,2.163,2080.536346
1 Dec 2019 17:34:40.000,134.554,2.177,2079.156124
1 Dec 2019 17:34:41.000,134.355,2.191,2077.798802
1 Dec 2019 17:34:42.000,134.155,2.205,2076.464434
1 Dec 2019 17:34:43.000,133.955,2.218,2075.153061
1 Dec 2019 17:34:44.000,133.755,2.231,2073.864735
1 Dec 2019 17:34:45.000,133.555,2.245,2072.599494
1 Dec 2019 17:34:46.000,133.354,2.258,2071.357386
1 Dec 2019 17:34:47.000,133.153,2.270,2070.138458
1 Dec 2019 17:34:48.000,132.952,2.283,2068.942747
1 Dec 2019 17:34:49.000,132.751,2.295,2067.770301
1 Dec 2019 17:34:50.000,132.549,2.307,2066.621156
1 Dec 2019 17:34:51.000,132.347,2.319,2065.495357
1 Dec 2019 17:34:52.000,132.145,2.330,2064.392945
1 Dec 2019 17:34:53.000,131.943,2.341,2063.313955
1 Dec 2019 17:34:54.000,131.740,2.353,2062.258429
1 Dec 2019 17:34:55.000,131.538,2.363,2061.226406
1 Dec 2019 17:34:56.000,131.335,2.374,2060.217920
1 Dec 2019 17:34:57.000,131.132,2.384,2059.233009
1 Dec 2019 17:34:58.000,130.928,2.395,2058.271711
1 Dec 2019 17:34:59.000,130.725,2.404,2057.334055
1 Dec 2019 17:35:00.000,130.521,2.414,2056.420080
1 Dec 2019 17:35:01.000,130.317,2.424,2055.529821
1 Dec 2019 17:35:02.000,130.113,2.433,2054.663304
1 Dec 2019 17:35:03.000,129.909,2.442,2053.820565
1 Dec 2019 17:35:04.000,129.704,2.450,2053.001637
1 Dec 2019 17:35:05.000,129.500,2.459,2052.206545
1 Dec 2019 17:35:06.000,129.295,2.467,2051.435320
1 Dec 2019 17:35:07.000,129.090,2.475,2050.687992
1 Dec 2019 17:35:08.000,128.885,2.483,2049.964591
1 Dec 2019 17:35:09.000,128.680,2.490,2049.265138
1 Dec 2019 17:35:10.000,128.475,2.498,2048.589662
1 Dec 2019 17:35:11.000,128.269,2.505,2047.938188
1 Dec 2019 17:35:12.000,128.063,2.512,2047.310744
1 Dec 2019 17:35:13.000,127.858,2.518,2046.707346
1 Dec 2019 17:35:14.000,127.652,2.524,2046.128022
1 Dec 2019 17:35:15.000,127.446,2.531,2045.572792
1 Dec 2019 17:35:16.000,127.240,2.536,2045.041677
1 Dec 2019 17:35:17.000,127.034,2.542,2044.534698
1 Dec 2019 17:35:18.000,126.827,2.547,2044.051876
1 Dec 2019 17:35:19.000,126.621,2.552,2043.593225
1 Dec 2019 17:35:20.000,126.414,2.557,2043.158764
1 Dec 2019 17:35:21.000,126.208,2.562,2042.748511
1 Dec 2019 17:35:22.000,126.001,2.566,2042.362480
1 Dec 2019 17:35:23.000,125.795,2.570,2042.000688
1 Dec 2019 17:35:24.000,125.588,2.574,2041.663147
1 Dec 2019 17:35:25.000,125.381,2.578,2041.349874
1 Dec 2019 17:35:26.000,125.174,2.581,2041.060875
1 Dec 2019 17:35:27.000,124.967,2.584,2040.796164
1 Dec 2019 17:35:28.000,124.760,2.587,2040.555753
1 Dec 2019 17:35:29.000,124.553,2.590,2040.339649
1 Dec 2019 17:35:30.000,124.346,2.592,2040.147863
1 Dec 2019 17:35:31.000,124.138,2.594,2039.980401
1 Dec 2019 17:35:32.000,123.931,2.596,2039.837271
1 Dec 2019 17:35:33.000,123.724,2.598,2039.718479
1 Dec 2019 17:35:34.000,123.517,2.599,2039.624029
1 Dec 2019 17:35:35.000,123.309,2.600,2039.553926
1 Dec 2019 17:35:36.000,123.102,2.601,2039.508172
1 Dec 2019 17:35:37.000,122.895,2.601,2039.486772
1 Dec 2019 17:35:38.000,122.688,2.602,2039.489724
1 Dec 2019 17:35:39.000,122.480,2.602,2039.517031
1 Dec 2019 17:35:40.000,122.273,2.602,2039.568692
1 Dec 2019 17:35:41.000,122.066,2.601,2039.644706
1 Dec 2019 17:35:42.000,121.858,2.601,2039.745070
1 Dec 2019 17:35:43.000,121.651,2.600,2039.869782
1 Dec 2019 17:35:44.000,121.444,2.599,2040.018837
1 Dec 2019 17:35:45.000,121.237,2.597,2040.192231
1 Dec 2019 17:35:46.000,121.030,2.596,2040.389957
1 Dec 2019 17:35:47.000,120.823,2.594,2040.612010
1 Dec 2019 17:35:48.000,120.616,2.592,2040.858381
1 Dec 2019 17:35:49.000,120.409,2.589,2041.129062
1 Dec 2019 17:35:50.000,120.202,2.587,2041.424044
1 Dec 2019 17:35:51.000,119.995,2.584,2041.743317
1 Dec 2019 17:35:52.000,119.788,2.581,2042.086866
1 Dec 2019 17:35:53.000,119.581,2.577,2042.454685
1 Dec 2019 17:35:54.000,119.375,2.574,2042.846759
1 Dec 2019 17:35:55.000,119.168,2.570,2043.263074
1 Dec 2019 17:35:56.000,118.962,2.566,2043.703614
1 Dec 2019 17:35:57.000,118.755,2.561,2044.168366
1 Dec 2019 17:35:58.000,118.549,2.557,2044.657311
1 Dec 2019 17:35:59.000,118.343,2.552,2045.170429
1 Dec 2019 17:36:00.000,118.137,2.547,2045.707710
1 Dec 2019 17:36:01.000,117.931,2.541,2046.269129
1 Dec 2019 17:36:02.000,117.725,2.536,2046.854669
1 Dec 2019 17:36:03.000,117.519,2.530,2047.464307
1 Dec 2019 17:36:04.000,117.314,2.524,2048.098020
1 Dec 2019 17:36:05.000,117.108,2.517,2048.755790
1 Dec 2019 17:36:06.000,116.903,2.511,2049.437592
1 Dec 2019 17:36:07.000,116.698,2.504,2050.143401
1 Dec 2019 17:36:08.000,116.493,2.497,2050.873192
1 Dec 2019 17:36:09.000,116.288,2.490,2051.626936
1 Dec 2019 17:36:10.000,116.083,2.482,2052.404614
1 Dec 2019 17:36:11.000,115.879,2.474,2053.206194
1 Dec 2019 17:36:12.000,115.674,2.466,2054.031648
1 Dec 2019 17:36:13.000,115.470,2.458,2054.880943
1 Dec 2019 17:36:14.000,115.266,2.449,2055.754056
1 Dec 2019 17:36:15.000,115.062,2.441,2056.650954
1 Dec 2019 17:36:16.000,114.858,2.432,2057.571601
1 Dec 2019 17:36:17.000,114.655,2.422,2058.515971
1 Dec 2019 17:36:18.000,114.452,2.413,2059.484028
1 Dec 2019 17:36:19.000,114.249,2.403,2060.475736
1 Dec 2019 17:36:20.000,114.046,2.393,2061.491065
1 Dec 2019 17:36:21.000,113.843,2.383,2062.529977
1 Dec 2019 17:36:22.000,113.640,2.373,2063.592432
1 Dec 2019 17:36:23.000,113.438,2.362,2064.678401
1 Dec 2019 17:36:24.000,113.236,2.351,2065.787841
1 Dec 2019 17:36:25.000,113.034,2.340,2066.920712
1 Dec 2019 17:36:26.000,112.833,2.329,2068.076980
1 Dec 2019 17:36:27.000,112.631,2.317,2069.256599
1 Dec 2019 17:36:28.000,112.430,2.305,2070.459535
1 Dec 2019 17:36:29.000,112.229,2.293,2071.685742
1 Dec 2019 17:36:30.000,112.029,2.281,2072.935177
1 Dec 2019 17:36:31.000,111.828,2.269,2074.207802
1 Dec 2019 17:36:32.000,111.628,2.256,2075.503567
1 Dec 2019 17:36:33.000,111.428,2.243,2076.822434
1 Dec 2019 17:36:34.000,111.229,2.230,2078.164356
1 Dec 2019 17:36:35.000,111.030,2.217,2079.529283
1 Dec 2019 17:36:36.000,110.830,2.203,2080.917175
1 Dec 2019 17:36:37.000,110.632,2.189,2082.327980
1 Dec 2019 17:36:38.000,110.433,2.175,2083.761656
1 Dec 2019 17:36:39.000,110.235,2.161,2085.218147
1 Dec 2019 17:36:40.000,110.037,2.147,2086.697413
1 Dec 2019 17:36:41.000,109.839,2.132,2088.199396
1 Dec 2019 17:36:42.000,109.642,2.117,2089.724054
1 Dec 2019 17:36:43.000,109.445,2.102,2091.271327
1 Dec 2019 17:36:44.000,109.248,2.087,2092.841173
1 Dec 2019 17:36:45.000,109.052,2.071,2094.433532
1 Dec 2019 17:36:46.000,108.856,2.055,2096.048358
1 Dec 2019 17:36:47.000,108.660,2.039,2097.685592
1 Dec 2019 17:36:48.000,108.464,2.023,2099.345185
1 Dec 2019 17:36:49.000,108.269,2.007,2101.027078
1 Dec 2019 17:36:50.000,108.074,1.990,2102.731218
1 Dec 2019 17:36:51.000,107.880,1.974,2104.457554
1 Dec 2019 17:36:52.000,107.685,1.957,2106.206022
1 Dec 2019 17:36:53.000,107.491,1.939,2107.976573
1 Dec 2019 17:36:54.000,107.298,1.922,2109.769143
1 Dec 2019 17:36:55.000,107.105,1.904,2111.583677
1 Dec 2019 17:36:56.000,106.912,1.887,2113.420122
1 Dec 2019 17:36:57.000,106.719,1.869,2115.278410
1 Dec 2019 17:36:58.000,106.527,1.851,2117.158491
1 Dec 2019 17:36:59.000,106.335,1.832,2119.060297
1 Dec 2019 17:37:00.000,106.144,1.814,2120.983773
1 Dec 2019 17:37:01.000,105.953,1.795,2122.928859
1 Dec 2019 17:37:02.000,105.762,1.776,2124.895490
1 Dec 2019 17:37:03.000,105.571,1.757,2126.883606
1 Dec 2019 17:37:04.000,105.381,1.737,2128.893149
1 Dec 2019 17:37:05.000,105.192,1.718,2130.924049
1 Dec 2019 17:37:06.000,105.002,1.698,2132.976248
1 Dec 2019 17:37:07.000,104.813,1.678,2135.049686
1 Dec 2019 17:37:08.000,104.625,1.658,2137.144291
1 Dec 2019 17:37:09.000,104.437,1.638,2139.260003
1 Dec 2019 17:37:10.000,104.249,1.617,2141.396761
1 Dec 2019 17:37:11.000,104.061,1.597,2143.554493
1 Dec 2019 17:37:12.000,103.874,1.576,2145.733138
1 Dec 2019 17:37:13.000,103.688,1.555,2147.932630
1 Dec 2019 17:37:14.000,103.502,1.534,2150.152905
1 Dec 2019 17:37:15.000,103.316,1.512,2152.393891
1 Dec 2019 17:37:16.000,103.130,1.491,2154.655525
1 Dec 2019 17:37:17.000,102.945,1.469,2156.937739
1 Dec 2019 17:37:18.000,102.761,1.447,2159.240470
1 Dec 2019 17:37:19.000,102.576,1.425,2161.563643
1 Dec 2019 17:37:20.000,102.393,1.403,2163.907192
1 Dec 2019 17:37:21.000,102.209,1.380,2166.271050
1 Dec 2019 17:37:22.000,102.026,1.358,2168.655152
1 Dec 2019 17:37:23.000,101.844,1.335,2171.059422
1 Dec 2019 17:37:24.000,101.661,1.312,2173.483793
1 Dec 2019 17:37:25.000,101.480,1.289,2175.928197
1 Dec 2019 17:37:26.000,101.298,1.266,2178.392563
1 Dec 2019 17:37:27.000,101.117,1.243,2180.876821
1 Dec 2019 17:37:28.000,100.937,1.219,2183.380906
1 Dec 2019 17:37:29.000,100.757,1.195,2185.904738
1 Dec 2019 17:37:30.000,100.577,1.171,2188.448251
1 Dec 2019 17:37:31.000,100.398,1.147,2191.011373
1 Dec 2019 17:37:32.000,100.219,1.123,2193.594034
1 Dec 2019 17:37:33.000,100.041,1.099,2196.196162
1 Dec 2019 17:37:34.000,99.863,1.074,2198.817689
1 Dec 2019 17:37:35.000,99.685,1.050,2201.458535
1 Dec 2019 17:37:36.000,99.508,1.025,2204.118633
1 Dec 2019 17:37:37.000,99.331,1.000,2206.797910
1 Dec 2019 17:37:38.000,99.155,0.975,2209.496293
1 Dec 2019 17:37:39.000,98.979,0.950,2212.213711
1 Dec 2019 17:37:40.000,98.804,0.924,2214.950090
1 Dec 2019 17:37:41.000,98.629,0.899,2217.705356
1 Dec 2019 17:37:42.000,98.455,0.873,2220.479439
1 Dec 2019 17:37:43.000,98.281,0.847,2223.272263
1 Dec 2019 17:37:44.000,98.107,0.821,2226.083755
1 Dec 2019 17:37:45.000,97.934,0.795,2228.913847
1 Dec 2019 17:37:46.000,97.762,0.769,2231.762456
1 Dec 2019 17:37:47.000,97.589,0.742,2234.629514
1 Dec 2019 17:37:48.000,97.418,0.716,2237.514945
1 Dec 2019 17:37:49.000,97.246,0.689,2240.418677
1 Dec 2019 17:37:50.000,97.076,0.662,2243.340634
1 Dec 2019 17:37:51.000,96.905,0.635,2246.280744
1 Dec 2019 17:37:52.000,96.735,0.608,2249.238931
1 Dec 2019 17:37:53.000,96.566,0.581,2252.215122
1 Dec 2019 17:37:54.000,96.397,0.554,2255.209242
1 Dec 2019 17:37:55.000,96.228,0.527,2258.221217
1 Dec 2019 17:37:56.000,96.060,0.499,2261.250973
1 Dec 2019 17:37:57.000,95.892,0.471,2264.298434
1 Dec 2019 17:37:58.000,95.725,0.443,2267.363527
1 Dec 2019 17:37:59.000,95.559,0.415,2270.446176
1 Dec 2019 17:38:00.000,95.392,0.387,2273.546308
1 Dec 2019 17:38:01.000,95.226,0.359,2276.663848
1 Dec 2019 17:38:02.000,95.061,0.331,2279.798721
1 Dec 2019 17:38:03.000,94.896,0.303,2282.950851
1 Dec 2019 17:38:04.000,94.732,0.274,2286.120162
1 Dec 2019 17:38:05.000,94.568,0.245,2289.306586
1 Dec 2019 17:38:06.000,94.404,0.217,2292.510044
1 Dec 2019 17:38:07.000,94.241,0.188,2295.730462
1 Dec 2019 17:38:08.000,94.079,0.159,2298.967765
1 Dec 2019 17:38:09.000,93.917,0.130,2302.221879
1 Dec 2019 17:38:10.000,93.755,0.100,2305.492729
1 Dec 2019 17:38:11.000,93.594,0.071,2308.780240
1 Dec 2019 17:38:12.000,93.433,0.042,2312.084338
1 Dec 2019 17:38:13.000,93.273,0.012,2315.404948
1 Dec 2019 17:38:14.000,93.113,-0.018,2318.741996
1 Dec 2019 17:38:15.000,92.954,-0.047,2322.095409
1 Dec 2019 17:38:16.000,92.795,-0.077,2325.465106
1 Dec 2019 17:38:17.000,92.637,-0.107,2328.851023
1 Dec 2019 17:38:17.569,92.547,-0.124,2330.783204
1 Dec 2019 19:06:06.597,216.787,-0.124,2319.975494
1 Dec 2019 19:06:07.000,216.776,-0.099,2317.212203
1 Dec 2019 19:06:08.000,216.748,-0.038,2310.361154
1 Dec 2019 19:06:09.000,216.721,0.024,2303.510639
1 Dec 2019 19:06:10.000,216.693,0.086,2296.660675
1 Dec 2019 19:06:11.000,216.665,0.148,2289.811274
1 Dec 2019 19:06:12.000,216.637,0.211,2282.962449
1 Dec 2019 19:06:13.000,216.609,0.273,2276.114212
1 Dec 2019 19:06:14.000,216.581,0.336,2269.266580
1 Dec 2019 19:06:15.000,216.552,0.399,2262.419564
1 Dec 2019 19:06:16.000,216.523,0.462,2255.573177
1 Dec 2019 19:06:17.000,216.494,0.525,2248.727436
1 Dec 2019 19:06:18.000,216.465,0.589,2241.882354
1 Dec 2019 19:06:19.000,216.436,0.653,2235.037945
1 Dec 2019 19:06:20.000,216.406,0.716,2228.194222
1 Dec 2019 19:06:21.000,216.377,0.780,2221.351202
1 Dec 2019 19:06:22.000,216.347,0.845,2214.508899
1 Dec 2019 19:06:23.000,216.317,0.909,2207.667326
1 Dec 2019 19:06:24.000,216.286,0.974,2200.826501
1 Dec 2019 19:06:25.000,216.256,1.039,2193.986438
1 Dec 2019 19:06:26.000,216.225,1.104,2187.147153
1 Dec 2019 19:06:27.000,216.194,1.169,2180.308657
1 Dec 2019 19:06:28.000,216.163,1.235,2173.470973
1 Dec 2019 19:06:29.000,216.132,1.301,2166.634112
1 Dec 2019 19:06:30.000,216.100,1.367,2159.798090
1 Dec 2019 19:06:31.000,216.068,1.433,2152.962927
1 Dec 2019 19:06:32.000,216.037,1.499,2146.128636
1 Dec 2019 19:06:33.000,216.004,1.566,2139.295235
1 Dec 2019 19:06:34.000,215.972,1.633,2132.462738
1 Dec 2019 19:06:35.000,215.939,1.700,2125.631166
1 Dec 2019 19:06:36.000,215.906,1.767,2118.800535
1 Dec 2019 19:06:37.000,215.873,1.834,2111.970862
1 Dec 2019 19:06:38.000,215.840,1.902,2105.142161
1 Dec 2019 19:06:39.000,215.807,1.970,2098.314456
1 Dec 2019 19:06:40.000,215.773,2.038,2091.487761
1 Dec 2019 19:06:41.000,215.739,2.107,2084.662093
1 Dec 2019 19:06:42.000,215.705,2.176,2077.837475
1 Dec 2019 19:06:43.000,215.670,2.245,2071.013923
1 Dec 2019 19:06:44.000,215.635,2.314,2064.191455
1 Dec 2019 19:06:45.000,215.600,2.383,2057.370089
1 Dec 2019 19:06:46.000,215.565,2.453,2050.549848
1 Dec 2019 19:06:47.000,215.530,2.523,2043.730749
1 Dec 2019 19:06:48.000,215.494,2.593,2036.912809
1 Dec 2019 19:06:49.000,215.458,2.663,2030.096054
1 Dec 2019 19:06:50.000,215.422,2.734,2023.280501
1 Dec 2019 19:06:51.000,215.385,2.805,2016.466170
1 Dec 2019 19:06:52.000,215.349,2.876,2009.653080
1 Dec 2019 19:06:53.000,215.312,2.948,2002.841256
1 Dec 2019 19:06:54.000,215.274,3.020,1996.030717
1 Dec 2019 19:06:55.000,215.237,3.092,1989.221484
1 Dec 2019 19:06:56.000,215.199,3.164,1982.413578
1 Dec 2019 19:06:57.000,215.161,3.237,1975.607023
1 Dec 2019 19:06:58.000,215.122,3.310,1968.801840
1 Dec 2019 19:06:59.000,215.084,3.383,1961.998050
1 Dec 2019 19:07:00.000,215.045,3.456,1955.195679
1 Dec 2019 19:07:01.000,215.006,3.530,1948.394748
1 Dec 2019 19:07:02.000,214.966,3.604,1941.595281
1 Dec 2019 19:07:03.000,214.926,3.678,1934.797299
1 Dec 2019 19:07:04.000,214.886,3.753,1928.000830
1 Dec 2019 19:07:05.000,214.846,3.828,1921.205896
1 Dec 2019 19:07:06.000,214.805,3.903,1914.412522
1 Dec 2019 19:07:07.000,214.764,3.979,1907.620731
1 Dec 2019 19:07:08.000,214.722,4.055,1900.830552
1 Dec 2019 19:07:09.000,214.681,4.131,1894.042007
1 Dec 2019 19:07:10.000,214.639,4.207,1887.255124
1 Dec 2019 19:07:11.000,214.596,4.284,1880.469926
1 Dec 2019 19:07:12.000,214.554,4.361,1873.686443
1 Dec 2019 19:07:13.000,214.511,4.439,1866.904701
1 Dec 2019 19:07:14.000,214.467,4.516,1860.124725
1 Dec 2019 19:07:15.000,214.424,4.594,1853.346546
1 Dec 2019 19:07:16.000,214.380,4.673,1846.570190
1 Dec 2019 19:07:17.000,214.335,4.752,1839.795685
1 Dec 2019 19:07:18.000,214.290,4.831,1833.023059
1 Dec 2019 19:07:19.000,214.245,4.910,1826.252343
1 Dec 2019 19:07:20.000,214.200,4.990,1819.483566
1 Dec 2019 19:07:21.000,214.154,5.070,1812.716758
1 Dec 2019 19:07:22.000,214.108,5.151,1805.951946
1 Dec 2019 19:07:23.000,214.061,5.232,1799.189165
1 Dec 2019 19:07:24.000,214.014,5.313,1792.428445
1 Dec 2019 19:07:25.000,213.967,5.395,1785.669817
1 Dec 2019 19:07:26.000,213.919,5.477,1778.913311
1 Dec 2019 19:07:27.000,213.871,5.559,1772.158963
1 Dec 2019 19:07:28.000,213.823,5.642,1765.406804
1 Dec 2019 19:07:29.000,213.774,5.725,1758.656867
1 Dec 2019 19:07:30.000,213.725,5.809,1751.909185
1 Dec 2019 19:07:31.000,213.675,5.893,1745.163796
1 Dec 2019 19:07:32.000,213.625,5.977,1738.420732
1 Dec 2019 19:07:33.000,213.574,6.062,1731.680028
1 Dec 2019 19:07:34.000,213.523,6.147,1724.941719
1 Dec 2019 19:07:35.000,213.472,6.232,1718.205845
1 Dec 2019 19:07:36.000,213.420,6.318,1711.472440
1 Dec 2019 19:07:37.000,213.368,6.405,1704.741541
1 Dec 2019 19:07:38.000,213.315,6.492,1698.013186
1 Dec 2019 19:07:39.000,213.262,6.579,1691.287416
1 Dec 2019 19:07:40.000,213.208,6.667,1684.564267
1 Dec 2019 19:07:41.000,213.154,6.755,1677.843781
1 Dec 2019 19:07:42.000,213.100,6.843,1671.125995
1 Dec 2019 19:07:43.000,213.045,6.932,1664.410953
1 Dec 2019 19:07:44.000,212.989,7.022,1657.698696
1 Dec 2019 19:07:45.000,212.933,7.112,1650.989264
1 Dec 2019 19:07:46.000,212.877,7.202,1644.282700
1 Dec 2019 19:07:47.000,212.820,7.293,1637.579050
1 Dec 2019 19:07:48.000,212.762,7.385,1630.878355
1 Dec 2019 19:07:49.000,212.704,7.476,1624.180662
1 Dec 2019 19:07:50.000,212.646,7.569,1617.486014
1 Dec 2019 19:07:51.000,212.586,7.662,1610.794457
1 Dec 2019 19:07:52.000,212.527,7.755,1604.106041
1 Dec 2019 19:07:53.000,212.467,7.849,1597.420810
1 Dec 2019 19:07:54.000,212.406,7.943,1590.738814
1 Dec 2019 19:07:55.000,212.345,8.038,1584.060100
1 Dec 2019 19:07:56.000,212.283,8.133,1577.384721
1 Dec 2019 19:07:57.000,212.220,8.229,1570.712725
1 Dec 2019 19:07:58.000,212.158,8.326,1564.044164
1 Dec 2019 19:07:59.000,212.094,8.423,1557.379089
1 Dec 2019 19:08:00.000,212.030,8.520,1550.717555
1 Dec 2019 19:08:01.000,211.965,8.618,1544.059616
1 Dec 2019 19:08:02.000,211.900,8.717,1537.405325
1 Dec 2019 19:08:03.000,211.834,8.816,1530.754738
1 Dec 2019 19:08:04.000,211.767,8.916,1524.107910
1 Dec 2019 19:08:05.000,211.700,9.016,1517.464901
1 Dec 2019 19:08:06.000,211.632,9.117,1510.825769
1 Dec 2019 19:08:07.000,211.563,9.219,1504.190573
1 Dec 2019 19:08:08.000,211.494,9.321,1497.559373
1 Dec 2019 19:08:09.000,211.424,9.424,1490.932228
1 Dec 2019 19:08:10.000,211.353,9.527,1484.309205
1 Dec 2019 19:08:11.000,211.282,9.631,1477.690364
1 Dec 2019 19:08:12.000,211.210,9.736,1471.075771
1 Dec 2019 19:08:13.000,211.137,9.841,1464.465489
1 Dec 2019 19:08:14.000,211.064,9.947,1457.859588
1 Dec 2019 19:08:15.000,210.990,10.053,1451.258134
1 Dec 2019 19:08:16.000,210.915,10.160,1444.661196
1 Dec 2019 19:08:17.000,210.839,10.268,1438.068844
1 Dec 2019 19:08:18.000,210.763,10.377,1431.481148
1 Dec 2019 19:08:19.000,210.686,10.486,1424.898183
1 Dec 2019 19:08:20.000,210.608,10.596,1418.320022
1 Dec 2019 19:08:21.000,210.529,10.707,1411.746740
1 Dec 2019 19:08:22.000,210.449,10.818,1405.178413
1 Dec 2019 19:08:23.000,210.369,10.930,1398.615119
1 Dec 2019 19:08:24.000,210.287,11.043,1392.056934
1 Dec 2019 19:08:25.000,210.205,11.156,1385.503944
1 Dec 2019 19:08:26.000,210.122,11.271,1378.956228
1 Dec 2019 19:08:27.000,210.038,11.386,1372.413869
1 Dec 2019 19:08:28.000,209.953,11.501,1365.876953
1 Dec 2019 19:08:29.000,209.868,11.618,1359.345564
1 Dec 2019 19:08:30.000,209.781,11.735,1352.819793
1 Dec 2019 19:08:31.000,209.694,11.853,1346.299728
1 Dec 2019 19:08:32.000,209.605,11.972,1339.785461
1 Dec 2019 19:08:33.000,209.516,12.092,1333.277084
1 Dec 2019 19:08:34.000,209.425,12.213,1326.774691
1 Dec 2019 19:08:35.000,209.334,12.334,1320.278378
1 Dec 2019 19:08:36.000,209.241,12.456,1313.788245
1 Dec 2019 19:08:37.000,209.148,12.580,1307.304390
1 Dec 2019 19:08:38.000,209.053,12.704,1300.826916
1 Dec 2019 19:08:39.000,208.958,12.828,1294.355926
1 Dec 2019 19:08:40.000,208.861,12.954,1287.891525
1 Dec 2019 19:08:41.000,208.763,13.081,1281.433820
1 Dec 2019 19:08:42.000,208.664,13.208,1274.982922
1 Dec 2019 19:08:43.000,208.564,13.337,1268.538943
1 Dec 2019 19:08:44.000,208.463,13.466,1262.101995
1 Dec 2019 19:08:45.000,208.361,13.597,1255.672195
1 Dec 2019 19:08:46.000,208.257,13.728,1249.249660
1 Dec 2019 19:08:47.000,208.152,13.860,1242.834511
1 Dec 2019 19:08:48.000,208.046,13.994,1236.426870
1 Dec 2019 19:08:49.000,207.939,14.128,1230.026863
1 Dec 2019 19:08:50.000,207.831,14.263,1223.634618
1 Dec 2019 19:08:51.000,207.721,14.400,1217.250264
1 Dec 2019 19:08:52.000,207.610,14.537,1210.873933
1 Dec 2019 19:08:53.000,207.497,14.676,1204.505761
1 Dec 2019 19:08:54.000,207.384,14.815,1198.145886
1 Dec 2019 19:08:55.000,207.268,14.956,1191.794445
1 Dec 2019 19:08:56.000,207.152,15.097,1185.451587
1 Dec 2019 19:08:57.000,207.034,15.240,1179.117454
1 Dec 2019 19:08:58.000,206.914,15.384,1172.792197
1 Dec 2019 19:08:59.000,206.793,15.529,1166.475967
1 Dec 2019 19:09:00.000,206.671,15.675,1160.168919
1 Dec 2019 19:09:01.000,206.547,15.822,1153.871211
1 Dec 2019 19:09:02.000,206.421,15.971,1147.583005
1 Dec 2019 19:09:03.000,206.294,16.121,1141.304465
1 Dec 2019 19:09:04.000,206.165,16.272,1135.035759
1 Dec 2019 19:09:05.000,206.034,16.424,1128.777057
1 Dec 2019 19:09:06.000,205.902,16.577,1122.528537
1 Dec 2019 19:09:07.000,205.768,16.732,1116.290376
1 Dec 2019 19:09:08.000,205.633,16.888,1110.062756
1 Dec 2019 19:09:09.000,205.495,17.045,1103.845863
1 Dec 2019 19:09:10.000,205.356,17.203,1097.639886
1 Dec 2019 19:09:11.000,205.215,17.363,1091.445019
1 Dec 2019 19:09:12.000,205.072,17.524,1085.261461
1 Dec 2019 19:09:13.000,204.927,17.687,1079.089412
1 Dec 2019 19:09:14.000,204.780,17.851,1072.929079
1 Dec 2019 19:09:15.000,204.631,18.016,1066.780673
1 Dec 2019 19:09:16.000,204.480,18.183,1060.644407
1 Dec 2019 19:09:17.000,204.327,18.351,1054.520501
1 Dec 2019 19:09:18.000,204.172,18.520,1048.409180
1 Dec 2019 19:09:19.000,204.015,18.691,1042.310671
1 Dec 2019 19:09:20.000,203.855,18.864,1036.225209
1 Dec 2019 19:09:21.000,203.694,19.038,1030.153032
1 Dec 2019 19:09:22.000,203.529,19.213,1024.094382
1 Dec 2019 19:09:23.000,203.363,19.390,1018.049511
1 Dec 2019 19:09:24.000,203.194,19.569,1012.018671
1 Dec 2019 19:09:25.000,203.023,19.749,1006.002123
1 Dec 2019 19:09:26.000,202.850,19.931,1000.000130
1 Dec 2019 19:09:27.000,202.673,20.114,994.012965
1 Dec 2019 19:09:28.000,202.495,20.299,988.040903
1 Dec 2019 19:09:29.000,202.313,20.486,982.084228
1 Dec 2019 19:09:30.000,202.129,20.674,976.143229
1 Dec 2019 19:09:31.000,201.942,20.864,970.218201
1 Dec 2019 19:09:32.000,201.753,21.055,964.309443
1 Dec 2019 19:09:33.000,201.560,21.249,958.417266
1 Dec 2019 19:09:34.000,201.365,21.444,952.541984
1 Dec 2019 19:09:35.000,201.166,21.641,946.683917
1 Dec 2019 19:09:36.000,200.965,21.839,940.843396
1 Dec 2019 19:09:37.000,200.760,22.040,935.020756
1 Dec 2019 19:09:38.000,200.552,22.242,929.216339
1 Dec 2019 19:09:39.000,200.341,22.446,923.430497
1 Dec 2019 19:09:40.000,200.127,22.652,917.663587
1 Dec 2019 19:09:41.000,199.909,22.860,911.915977
1 Dec 2019 19:09:42.000,199.688,23.070,906.188039
1 Dec 2019 19:09:43.000,199.463,23.281,900.480157
1 Dec 2019 19:09:44.000,199.235,23.495,894.792720
1 Dec 2019 19:09:45.000,199.003,23.710,889.126128
1 Dec 2019 19:09:46.000,198.767,23.927,883.480791
1 Dec 2019 19:09:47.000,198.527,24.147,877.857122
1 Dec 2019 19:09:48.000,198.283,24.368,872.255549
1 Dec 2019 19:09:49.000,198.036,24.591,866.676507
1 Dec 2019 19:09:50.000,197.784,24.817,861.120439
1 Dec 2019 19:09:51.000,197.527,25.044,855.587802
1 Dec 2019 19:09:52.000,197.267,25.273,850.079058
1 Dec 2019 19:09:53.000,197.002,25.505,844.594684
1 Dec 2019 19:09:54.000,196.733,25.738,839.135160
1 Dec 2019 19:09:55.000,196.459,25.974,833.700983
1 Dec 2019 19:09:56.000,196.180,26.211,828.292659
1 Dec 2019 19:09:57.000,195.896,26.451,822.910704
1 Dec 2019 19:09:58.000,195.607,26.693,817.555644
1 Dec 2019 19:09:59.000,195.314,26.937,812.228019
1 Dec 2019 19:10:00.000,195.015,27.183,806.928378
1 Dec 2019 19:10:01.000,194.710,27.431,801.657281
1 Dec 2019 19:10:02.000,194.401,27.681,796.415304
1 Dec 2019 19:10:03.000,194.085,27.933,791.203030
1 Dec 2019 19:10:04.000,193.764,28.187,786.021056
1 Dec 2019 19:10:05.000,193.438,28.444,780.869993
1 Dec 2019 19:10:06.000,193.105,28.703,775.750461
1 Dec 2019 19:10:07.000,192.766,28.963,770.663097
1 Dec 2019 19:10:08.000,192.420,29.226,765.608545
1 Dec 2019 19:10:09.000,192.069,29.491,760.587468
1 Dec 2019 19:10:10.000,191.711,29.758,755.600539
1 Dec 2019 19:10:11.000,191.346,30.027,750.648443
1 Dec 2019 19:10:12.000,190.974,30.297,745.731882
1 Dec 2019 19:10:13.000,190.595,30.570,740.851567
1 Dec 2019 19:10:14.000,190.209,30.845,736.008227
1 Dec 2019 19:10:15.000,189.815,31.122,731.202601
1 Dec 2019 19:10:16.000,189.414,31.401,726.435444
1 Dec 2019 19:10:17.000,189.005,31.681,721.707524
1 Dec 2019 19:10:18.000,188.588,31.963,717.019623
1 Dec 2019 19:10:19.000,188.163,32.248,712.372536
1 Dec 2019 19:10:20.000,187.730,32.533,707.767073
1 Dec 2019 19:10:21.000,187.289,32.821,703.204057
1 Dec 2019 19:10:22.000,186.838,33.110,698.684325
1 Dec 2019 19:10:23.000,186.379,33.401,694.208729
1 Dec 2019 19:10:24.000,185.910,33.693,689.778132
1 Dec 2019 19:10:25.000,185.433,33.986,685.393413
1 Dec 2019 19:10:26.000,184.945,34.281,681.055462
1 Dec 2019 19:10:27.000,184.448,34.577,676.765185
1 Dec 2019 19:10:28.000,183.941,34.875,672.523500
1 Dec 2019 19:10:29.000,183.424,35.173,668.331335
1 Dec 2019 19:10:30.000,182.897,35.472,664.189634
1 Dec 2019 19:10:31.000,182.358,35.772,660.099352
1 Dec 2019 19:10:32.000,181.809,36.073,656.061455
1 Dec 2019 19:10:33.000,181.249,36.374,652.076922
1 Dec 2019 19:10:34.000,180.678,36.676,648.146741
1 Dec 2019 19:10:35.000,180.095,36.978,644.271912
1 Dec 2019 19:10:36.000,179.500,37.280,640.453444
1 Dec 2019 19:10:37.000,178.894,37.582,636.692355
1 Dec 2019 19:10:38.000,178.275,37.884,632.989673
1 Dec 2019 19:10:39.000,177.644,38.186,629.346434
1 Dec 2019 19:10:40.000,177.000,38.487,625.763679
1 Dec 2019 19:10:41.000,176.343,38.787,622.242458
1 Dec 2019 19:10:42.000,175.673,39.086,618.783826
1 Dec 2019 19:10:43.000,174.990,39.384,615.388841
1 Dec 2019 19:10:44.000,174.294,39.681,612.058568
1 Dec 2019 19:10:45.000,173.583,39.976,608.794073
1 Dec 2019 19:10:46.000,172.859,40.270,605.596421
1 Dec 2019 19:10:47.000,172.121,40.561,602.466683
1 Dec 2019 19:10:48.000,171.369,40.849,599.405925
1 Dec 2019 19:10:49.000,170.603,41.136,596.415213
1 Dec 2019 19:10:50.000,169.822,41.419,593.495610
1 Dec 2019 19:10:51.000,169.026,41.699,590.648174
1 Dec 2019 19:10:52.000,168.216,41.975,587.873956
1 Dec 2019 19:10:53.000,167.391,42.248,585.174001
1 Dec 2019 19:10:54.000,166.552,42.516,582.549346
1 Dec 2019 19:10:55.000,165.698,42.780,580.001015
1 Dec 2019 19:10:56.000,164.829,43.039,577.530022
1 Dec 2019 19:10:57.000,163.945,43.294,575.137367
1 Dec 2019 19:10:58.000,163.046,43.542,572.824034
1 Dec 2019 19:10:59.000,162.133,43.785,570.590990
1 Dec 2019 19:11:00.000,161.205,44.022,568.439185
1 Dec 2019 19:11:01.000,160.263,44.252,566.369547
1 Dec 2019 19:11:02.000,159.307,44.476,564.382983
1 Dec 2019 19:11:03.000,158.337,44.692,562.480374
1 Dec 2019 19:11:04.000,157.353,44.901,560.662579
1 Dec 2019 19:11:05.000,156.356,45.102,558.930426
1 Dec 2019 19:11:06.000,155.346,45.294,557.284718
1 Dec 2019 19:11:07.000,154.324,45.479,555.726222
1 Dec 2019 19:11:08.000,153.289,45.654,554.255677
1 Dec 2019 19:11:09.000,152.242,45.820,552.873787
1 Dec 2019 19:11:10.000,151.184,45.977,551.581220
1 Dec 2019 19:11:11.000,150.115,46.124,550.378605
1 Dec 2019 19:11:12.000,149.037,46.261,549.266536
1 Dec 2019 19:11:13.000,147.949,46.388,548.245565
1 Dec 2019 19:11:14.000,146.852,46.504,547.316203
1 Dec 2019 19:11:15.000,145.747,46.609,546.478919
1 Dec 2019 19:11:16.000,144.635,46.703,545.734137
1 Dec 2019 19:11:17.000,143.516,46.786,545.082237
1 Dec 2019 19:11:18.000,142.392,46.858,544.523553
1 Dec 2019 19:11:19.000,141.262,46.918,544.058376
1 Dec 2019 19:11:20.000,140.129,46.967,543.686942
1 Dec 2019 19:11:21.000,138.992,47.003,543.409447
1 Dec 2019 19:11:22.000,137.853,47.028,543.226033
1 Dec 2019 19:11:23.000,136.713,47.041,543.136797
1 Dec 2019 19:11:24.000,135.572,47.042,543.141786
1 Dec 2019 19:11:25.000,134.432,47.032,543.240996
1 Dec 2019 19:11:26.000,133.293,47.009,543.434375
1 Dec 2019 19:11:27.000,132.156,46.974,543.721825
1 Dec 2019 19:11:28.000,131.023,46.928,544.103194
1 Dec 2019 19:11:29.000,129.893,46.870,544.578284
1 Dec 2019 19:11:30.000,128.768,46.801,545.146850
1 Dec 2019 19:11:31.000,127.649,46.720,545.808601
1 Dec 2019 19:11:32.000,126.537,46.628,546.563196
1 Dec 2019 19:11:33.000,125.431,46.525,547.410251
1 Dec 2019 19:11:34.000,124.334,46.411,548.349334
1 Dec 2019 19:11:35.000,123.245,46.286,549.379976
1 Dec 2019 19:11:36.000,122.166,46.151,550.501660
1 Dec 2019 19:11:37.000,121.097,46.007,551.713826
1 Dec 2019 19:11:38.000,120.038,45.852,553.015883
1 Dec 2019 19:11:39.000,118.991,45.688,554.407191
1 Dec 2019 19:11:40.000,117.955,45.514,555.887083
1 Dec 2019 19:11:41.000,116.932,45.332,557.454848
1 Dec 2019 19:11:42.000,115.921,45.142,559.109748
1 Dec 2019 19:11:43.000,114.923,44.943,560.851006
1 Dec 2019 19:11:44.000,113.939,44.736,562.677823
1 Dec 2019 19:11:45.000,112.968,44.521,564.589360
1 Dec 2019 19:11:46.000,112.011,44.300,566.584762
1 Dec 2019 19:11:47.000,111.068,44.072,568.663145
1 Dec 2019 19:11:48.000,110.140,43.837,570.823595
1 Dec 2019 19:11:49.000,109.226,43.596,573.065185
1 Dec 2019 19:11:50.000,108.326,43.349,575.386964
1 Dec 2019 19:11:51.000,107.442,43.097,577.787960
1 Dec 2019 19:11:52.000,106.572,42.839,580.267188
1 Dec 2019 19:11:53.000,105.717,42.577,582.823647
1 Dec 2019 19:11:54.000,104.876,42.310,585.456323
1 Dec 2019 19:11:55.000,104.051,42.039,588.164188
1 Dec 2019 19:11:56.000,103.240,41.765,590.946205
1 Dec 2019 19:11:57.000,102.443,41.486,593.801333
1 Dec 2019 19:11:58.000,101.662,41.205,596.728513
1 Dec 2019 19:11:59.000,100.895,40.920,599.726688
1 Dec 2019 19:12:00.000,100.142,40.633,602.794797
1 Dec 2019 19:12:01.000,99.403,40.344,605.931772
1 Dec 2019 19:12:02.000,98.678,40.052,609.136544
1 Dec 2019 19:12:03.000,97.967,39.758,612.408050
1 Dec 2019 19:12:04.000,97.270,39.463,615.745219
1 Dec 2019 19:12:05.000,96.586,39.166,619.146986
1 Dec 2019 19:12:06.000,95.916,38.869,622.612288
1 Dec 2019 19:12:07.000,95.258,38.570,626.140066
1 Dec 2019 19:12:08.000,94.614,38.270,629.729265
1 Dec 2019 19:12:09.000,93.982,37.970,633.378835
1 Dec 2019 19:12:10.000,93.362,37.669,637.087739
1 Dec 2019 19:12:11.000,92.755,37.369,640.854939
1 Dec 2019 19:12:12.000,92.160,37.068,644.679410
1 Dec 2019 19:12:13.000,91.576,36.767,648.560131
1 Dec 2019 19:12:14.000,91.004,36.467,652.496098
1 Dec 2019 19:12:15.000,90.444,36.166,656.486312
1 Dec 2019 19:12:16.000,89.894,35.867,660.529780
1 Dec 2019 19:12:17.000,89.356,35.568,664.625533
1 Dec 2019 19:12:18.000,88.828,35.270,668.772602
1 Dec 2019 19:12:19.000,88.310,34.973,672.970029
1 Dec 2019 19:12:20.000,87.803,34.677,677.216880
1 Dec 2019 19:12:21.000,87.305,34.382,681.512223
1 Dec 2019 19:12:22.000,86.817,34.088,685.855139
1 Dec 2019 19:12:23.000,86.339,33.796,690.244729
1 Dec 2019 19:12:24.000,85.870,33.505,694.680099
1 Dec 2019 19:12:25.000,85.411,33.215,699.160378
1 Dec 2019 19:12:26.000,84.960,32.927,703.684696
1 Dec 2019 19:12:27.000,84.518,32.641,708.252211
1 Dec 2019 19:12:28.000,84.084,32.356,712.862079
1 Dec 2019 19:12:29.000,83.659,32.073,717.513487
1 Dec 2019 19:12:30.000,83.242,31.791,722.205619
1 Dec 2019 19:12:31.000,82.833,31.512,726.937684
1 Dec 2019 19:12:32.000,82.432,31.234,731.708905
1 Dec 2019 19:12:33.000,82.038,30.958,736.518510
1 Dec 2019 19:12:34.000,81.652,30.684,741.365751
1 Dec 2019 19:12:35.000,81.272,30.412,746.249883
1 Dec 2019 19:12:36.000,80.900,30.142,751.170184
1 Dec 2019 19:12:37.000,80.535,29.874,756.125945
1 Dec 2019 19:12:38.000,80.177,29.608,761.116461
1 Dec 2019 19:12:39.000,79.825,29.344,766.141050
1 Dec 2019 19:12:40.000,79.480,29.082,771.199044
1 Dec 2019 19:12:41.000,79.141,28.822,776.289777
1 Dec 2019 19:12:42.000,78.808,28.565,781.412606
1 Dec 2019 19:12:43.000,78.481,28.309,786.566901
1 Dec 2019 19:12:44.000,78.160,28.055,791.752036
1 Dec 2019 19:12:45.000,77.844,27.804,796.967405
1 Dec 2019 19:12:46.000,77.534,27.554,802.212412
1 Dec 2019 19:12:47.000,77.230,27.307,807.486477
1 Dec 2019 19:12:48.000,76.931,27.062,812.789022
1 Dec 2019 19:12:49.000,76.637,26.818,818.119489
1 Dec 2019 19:12:50.000,76.349,26.577,823.477330
1 Dec 2019 19:12:51.000,76.065,26.338,828.862012
1 Dec 2019 19:12:52.000,75.786,26.101,834.273000
1 Dec 2019 19:12:53.000,75.512,25.866,839.709785
1 Dec 2019 19:12:54.000,75.243,25.634,845.171860
1 Dec 2019 19:12:55.000,74.978,25.403,850.658734
1 Dec 2019 19:12:56.000,74.717,25.174,856.169922
1 Dec 2019 19:12:57.000,74.461,24.947,861.704954
1 Dec 2019 19:12:58.000,74.209,24.723,867.263361
1 Dec 2019 19:12:59.000,73.962,24.500,872.844693
1 Dec 2019 19:13:00.000,73.718,24.279,878.448507
1 Dec 2019 19:13:01.000,73.478,24.060,884.074367
1 Dec 2019 19:13:02.000,73.243,23.844,889.721850
1 Dec 2019 19:13:03.000,73.011,23.629,895.390540
1 Dec 2019 19:13:04.000,72.782,23.416,901.080032
1 Dec 2019 19:13:05.000,72.558,23.205,906.789922
1 Dec 2019 19:13:06.000,72.336,22.995,912.519823
1 Dec 2019 19:13:07.000,72.119,22.788,918.269354
1 Dec 2019 19:13:08.000,71.905,22.583,924.038142
1 Dec 2019 19:13:09.000,71.694,22.379,929.825821
1 Dec 2019 19:13:10.000,71.486,22.177,935.632035
1 Dec 2019 19:13:11.000,71.282,21.977,941.456432
1 Dec 2019 19:13:12.000,71.080,21.779,947.298671
1 Dec 2019 19:13:13.000,70.882,21.583,953.158417
1 Dec 2019 19:13:14.000,70.687,21.388,959.035341
1 Dec 2019 19:13:15.000,70.495,21.195,964.929124
1 Dec 2019 19:13:16.000,70.305,21.004,970.839450
1 Dec 2019 19:13:17.000,70.119,20.815,976.766014
1 Dec 2019 19:13:18.000,69.935,20.627,982.708513
1 Dec 2019 19:13:19.000,69.753,20.440,988.666653
1 Dec 2019 19:13:20.000,69.575,20.256,994.640146
1 Dec 2019 19:13:21.000,69.399,20.073,1000.628711
1 Dec 2019 19:13:22.000,69.226,19.892,1006.632070
1 Dec 2019 19:13:23.000,69.055,19.712,1012.649954
1 Dec 2019 19:13:24.000,68.886,19.534,1018.682099
1 Dec 2019 19:13:25.000,68.720,19.357,1024.728244
1 Dec 2019 19:13:26.000,68.556,19.182,1030.788137
1 Dec 2019 19:13:27.000,68.395,19.008,1036.861530
1 Dec 2019 19:13:28.000,68.236,18.836,1042.948178
1 Dec 2019 19:13:29.000,68.079,18.665,1049.047845
1 Dec 2019 19:13:30.000,67.924,18.496,1055.160297
1 Dec 2019 19:13:31.000,67.771,18.328,1061.285307
1 Dec 2019 19:13:32.000,67.621,18.162,1067.422649
1 Dec 2019 19:13:33.000,67.472,17.997,1073.572107
1 Dec 2019 19:13:34.000,67.325,17.834,1079.733465
1 Dec 2019 19:13:35.000,67.181,17.671,1085.906514
1 Dec 2019 19:13:36.000,67.038,17.511,1092.091048
1 Dec 2019 19:13:37.000,66.897,17.351,1098.286865
1 Dec 2019 19:13:38.000,66.758,17.193,1104.493769
1 Dec 2019 19:13:39.000,66.621,17.036,1110.711565
1 Dec 2019 19:13:40.000,66.486,16.880,1116.940066
1 Dec 2019 19:13:41.000,66.352,16.726,1123.179085
1 Dec 2019 19:13:42.000,66.221,16.573,1129.428437
1 Dec 2019 19:13:43.000,66.091,16.421,1135.687951
1 Dec 2019 19:13:44.000,65.962,16.270,1141.957449
1 Dec 2019 19:13:45.000,65.835,16.121,1148.236760
1 Dec 2019 19:13:46.000,65.710,15.973,1154.525717
1 Dec 2019 19:13:47.000,65.586,15.826,1160.824155
1 Dec 2019 19:13:48.000,65.464,15.680,1167.131912
1 Dec 2019 19:13:49.000,65.344,15.535,1173.448833
1 Dec 2019 19:13:50.000,65.225,15.391,1179.774761
1 Dec 2019 19:13:51.000,65.107,15.249,1186.109545
1 Dec 2019 19:13:52.000,64.991,15.107,1192.453033
1 Dec 2019 19:13:53.000,64.876,14.967,1198.805086
1 Dec 2019 19:13:54.000,64.763,14.828,1205.165558
1 Dec 2019 19:13:55.000,64.651,14.690,1211.534308
1 Dec 2019 19:13:56.000,64.540,14.552,1217.911200
1 Dec 2019 19:13:57.000,64.430,14.416,1224.296098
1 Dec 2019 19:13:58.000,64.322,14.281,1230.688869
1 Dec 2019 19:13:59.000,64.216,14.147,1237.089386
1 Dec 2019 19:14:00.000,64.110,14.014,1243.497516
1 Dec 2019 19:14:01.000,64.006,13.882,1249.913142
1 Dec 2019 19:14:02.000,63.903,13.751,1256.336138
1 Dec 2019 19:14:03.000,63.801,13.621,1262.766384
1 Dec 2019 19:14:04.000,63.700,13.491,1269.203762
1 Dec 2019 19:14:05.000,63.601,13.363,1275.648156
1 Dec 2019 19:14:06.000,63.502,13.236,1282.099453
1 Dec 2019 19:14:07.000,63.405,13.109,1288.557539
1 Dec 2019 19:14:08.000,63.309,12.984,1295.022311
1 Dec 2019 19:14:09.000,63.214,12.859,1301.493657
1 Dec 2019 19:14:10.000,63.120,12.735,1307.971474
1 Dec 2019 19:14:11.000,63.027,12.612,1314.455656
1 Dec 2019 19:14:12.000,62.935,12.490,1320.946104
1 Dec 2019 19:14:13.000,62.844,12.369,1327.442714
1 Dec 2019 19:14:14.000,62.754,12.249,1333.945395
1 Dec 2019 19:14:15.000,62.665,12.129,1340.454047
1 Dec 2019 19:14:16.000,62.577,12.010,1346.968576
1 Dec 2019 19:14:17.000,62.490,11.892,1353.488890
1 Dec 2019 19:14:18.000,62.404,11.775,1360.014898
1 Dec 2019 19:14:19.000,62.319,11.659,1366.546507
1 Dec 2019 19:14:20.000,62.235,11.543,1373.083636
1 Dec 2019 19:14:21.000,62.151,11.428,1379.626195
1 Dec 2019 19:14:22.000,62.069,11.314,1386.174100
1 Dec 2019 19:14:23.000,61.987,11.201,1392.727267
1 Dec 2019 19:14:24.000,61.906,11.088,1399.285612
1 Dec 2019 19:14:25.000,61.826,10.976,1405.849061
1 Dec 2019 19:14:26.000,61.747,10.865,1412.417531
1 Dec 2019 19:14:27.000,61.669,10.754,1418.990945
1 Dec 2019 19:14:28.000,61.592,10.645,1425.569228
1 Dec 2019 19:14:29.000,61.515,10.536,1432.152303
1 Dec 2019 19:14:30.000,61.439,10.427,1438.740094
1 Dec 2019 19:14:31.000,61.364,10.319,1445.332536
1 Dec 2019 19:14:32.000,61.290,10.212,1451.929553
1 Dec 2019 19:14:33.000,61.216,10.106,1458.531076
1 Dec 2019 19:14:34.000,61.143,10.000,1465.137037
1 Dec 2019 19:14:35.000,61.071,9.895,1471.747363
1 Dec 2019 19:14:36.000,61.000,9.791,1478.361996
1 Dec 2019 19:14:37.000,60.929,9.687,1484.980867
1 Dec 2019 19:14:38.000,60.859,9.584,1491.603911
1 Dec 2019 19:14:39.000,60.790,9.481,1498.231063
1 Dec 2019 19:14:40.000,60.721,9.379,1504.862265
1 Dec 2019 19:14:41.000,60.653,9.278,1511.497454
1 Dec 2019 19:14:42.000,60.586,9.177,1518.136570
1 Dec 2019 19:14:43.000,60.520,9.077,1524.779554
1 Dec 2019 19:14:44.000,60.454,8.977,1531.426344
1 Dec 2019 19:14:45.000,60.388,8.878,1538.076888
1 Dec 2019 19:14:46.000,60.324,8.779,1544.731129
1 Dec 2019 19:14:47.000,60.259,8.681,1551.389010
1 Dec 2019 19:14:48.000,60.196,8.584,1558.050476
1 Dec 2019 19:14:49.000,60.133,8.487,1564.715471
1 Dec 2019 19:14:50.000,60.071,8.391,1571.383948
1 Dec 2019 19:14:51.000,60.009,8.295,1578.055852
1 Dec 2019 19:14:52.000,59.948,8.200,1584.731132
1 Dec 2019 19:14:53.000,59.887,8.105,1591.409734
1 Dec 2019 19:14:54.000,59.827,8.011,1598.091615
1 Dec 2019 19:14:55.000,59.768,7.917,1604.776723
1 Dec 2019 19:14:56.000,59.709,7.824,1611.465010
1 Dec 2019 19:14:57.000,59.650,7.731,1618.156425
1 Dec 2019 19:14:58.000,59.593,7.639,1624.850928
1 Dec 2019 19:14:59.000,59.535,7.547,1631.548469
1 Dec 2019 19:15:00.000,59.478,7.456,1638.249005
1 Dec 2019 19:15:01.000,59.422,7.365,1644.952489
1 Dec 2019 19:15:02.000,59.366,7.275,1651.658875
1 Dec 2019 19:15:03.000,59.311,7.185,1658.368127
1 Dec 2019 19:15:04.000,59.256,7.095,1665.080198
1 Dec 2019 19:15:05.000,59.202,7.006,1671.795046
1 Dec 2019 19:15:06.000,59.148,6.918,1678.512627
1 Dec 2019 19:15:07.000,59.095,6.830,1685.232907
1 Dec 2019 19:15:08.000,59.042,6.742,1691.955843
1 Dec 2019 19:15:09.000,58.990,6.655,1698.681394
1 Dec 2019 19:15:10.000,58.938,6.568,1705.409518
1 Dec 2019 19:15:11.000,58.886,6.482,1712.140185
1 Dec 2019 19:15:12.000,58.835,6.396,1718.873352
1 Dec 2019 19:15:13.000,58.784,6.311,1725.608983
1 Dec 2019 19:15:14.000,58.734,6.226,1732.347037
1 Dec 2019 19:15:15.000,58.684,6.141,1739.087484
1 Dec 2019 19:15:16.000,58.635,6.057,1745.830287
1 Dec 2019 19:15:17.000,58.586,5.973,1752.575409
1 Dec 2019 19:15:18.000,58.538,5.889,1759.322812
1 Dec 2019 19:15:19.000,58.490,5.806,1766.072470
1 Dec 2019 19:15:20.000,58.442,5.724,1772.824344
1 Dec 2019 19:15:21.000,58.395,5.641,1779.578402
1 Dec 2019 19:15:22.000,58.348,5.559,1786.334608
1 Dec 2019 19:15:23.000,58.301,5.478,1793.092936
1 Dec 2019 19:15:24.000,58.255,5.397,1799.853350
1 Dec 2019 19:15:25.000,58.209,5.316,1806.615819
1 Dec 2019 19:15:26.000,58.164,5.235,1813.380310
1 Dec 2019 19:15:27.000,58.119,5.155,1820.146797
1 Dec 2019 19:15:28.000,58.074,5.075,1826.915247
1 Dec 2019 19:15:29.000,58.030,4.996,1833.685631
1 Dec 2019 19:15:30.000,57.986,4.917,1840.457916
1 Dec 2019 19:15:31.000,57.943,4.838,1847.232080
1 Dec 2019 19:15:32.000,57.899,4.760,1854.008090
1 Dec 2019 19:15:33.000,57.857,4.682,1860.785918
1 Dec 2019 19:15:34.000,57.814,4.604,1867.565534
1 Dec 2019 19:15:35.000,57.772,4.527,1874.346916
1 Dec 2019 19:15:36.000,57.730,4.450,1881.130033
1 Dec 2019 19:15:37.000,57.689,4.373,1887.914860
1 Dec 2019 19:15:38.000,57.647,4.296,1894.701367
1 Dec 2019 19:15:39.000,57.607,4.220,1901.489533
1 Dec 2019 19:15:40.000,57.566,4.145,1908.279330
1 Dec 2019 19:15:41.000,57.526,4.069,1915.070730
1 Dec 2019 19:15:42.000,57.486,3.994,1921.863712
1 Dec 2019 19:15:43.000,57.446,3.919,1928.658251
1 Dec 2019 19:15:44.000,57.407,3.845,1935.454321
1 Dec 2019 19:15:45.000,57.368,3.770,1942.251894
1 Dec 2019 19:15:46.000,57.330,3.696,1949.050954
1 Dec 2019 19:15:47.000,57.291,3.623,1955.851474
1 Dec 2019 19:15:48.000,57.253,3.549,1962.653430
1 Dec 2019 19:15:49.000,57.215,3.476,1969.456796
1 Dec 2019 19:15:50.000,57.178,3.403,1976.261556
1 Dec 2019 19:15:51.000,57.141,3.331,1983.067684
1 Dec 2019 19:15:52.000,57.104,3.259,1989.875159
1 Dec 2019 19:15:53.000,57.067,3.187,1996.683954
1 Dec 2019 19:15:54.000,57.031,3.115,2003.494056
1 Dec 2019 19:15:55.000,56.995,3.043,2010.305439
1 Dec 2019 19:15:56.000,56.959,2.972,2017.118079
1 Dec 2019 19:15:57.000,56.923,2.901,2023.931962
1 Dec 2019 19:15:58.000,56.888,2.831,2030.747063
1 Dec 2019 19:15:59.000,56.853,2.760,2037.563364
1 Dec 2019 19:16:00.000,56.818,2.690,2044.380840
1 Dec 2019 19:16:01.000,56.784,2.620,2051.199477
1 Dec 2019 19:16:02.000,56.749,2.551,2058.019254
1 Dec 2019 19:16:03.000,56.715,2.481,2064.840150
1 Dec 2019 19:16:04.000,56.682,2.412,2071.662144
1 Dec 2019 19:16:05.000,56.648,2.343,2078.485222
1 Dec 2019 19:16:06.000,56.615,2.275,2085.309363
1 Dec 2019 19:16:07.000,56.582,2.206,2092.134546
1 Dec 2019 19:16:08.000,56.549,2.138,2098.960757
1 Dec 2019 19:16:09.000,56.516,2.070,2105.787977
1 Dec 2019 19:16:10.000,56.484,2.002,2112.616186
1 Dec 2019 19:16:11.000,56.452,1.935,2119.445365
1 Dec 2019 19:16:12.000,56.420,1.868,2126.275502
1 Dec 2019 19:16:13.000,56.388,1.801,2133.106576
1 Dec 2019 19:16:14.000,56.357,1.734,2139.938568
1 Dec 2019 19:16:15.000,56.326,1.667,2146.771467
1 Dec 2019 19:16:16.000,56.295,1.601,2153.605252
1 Dec 2019 19:16:17.000,56.264,1.535,2160.439908
1 Dec 2019 19:16:18.000,56.234,1.469,2167.275415
1 Dec 2019 19:16:19.000,56.203,1.403,2174.111763
1 Dec 2019 19:16:20.000,56.173,1.338,2180.948932
1 Dec 2019 19:16:21.000,56.143,1.272,2187.786908
1 Dec 2019 19:16:22.000,56.114,1.207,2194.625670
1 Dec 2019 19:16:23.000,56.084,1.143,2201.465211
1 Dec 2019 19:16:24.000,56.055,1.078,2208.305511
1 Dec 2019 19:16:25.000,56.026,1.013,2215.146553
1 Dec 2019 19:16:26.000,55.997,0.949,2221.988327
1 Dec 2019 19:16:27.000,55.968,0.885,2228.830816
1 Dec 2019 19:16:28.000,55.940,0.821,2235.674004
1 Dec 2019 19:16:29.000,55.911,0.758,2242.517875
1 Dec 2019 19:16:30.000,55.883,0.694,2249.362419
1 Dec 2019 19:16:31.000,55.855,0.631,2256.207621
1 Dec 2019 19:16:32.000,55.828,0.568,2263.053462
1 Dec 2019 19:16:33.000,55.800,0.505,2269.899934
1 Dec 2019 19:16:34.000,55.773,0.442,2276.747022
1 Dec 2019 19:16:35.000,55.746,0.380,2283.594710
1 Dec 2019 19:16:36.000,55.719,0.318,2290.442983
1 Dec 2019 19:16:37.000,55.692,0.255,2297.291834
1 Dec 2019 19:16:38.000,55.665,0.193,2304.141245
1 Dec 2019 19:16:39.000,55.639,0.132,2310.991202
1 Dec 2019 19:16:40.000,55.613,0.070,2317.841696
1 Dec 2019 19:16:41.000,55.587,0.009,2324.692712
1 Dec 2019 19:16:42.000,55.561,-0.053,2331.544238
1 Dec 2019 19:16:43.000,55.535,-0.114,2338.396257
1 Dec 2019 19:16:43.174,55.530,-0.124,2339.591626
1 Dec 2019 20:43:02.265,263.600,-0.124,2329.751646
1 Dec 2019 20:43:03.000,263.654,-0.082,2325.094711
1 Dec 2019 20:43:04.000,263.728,-0.025,2318.763763
1 Dec 2019 20:43:05.000,263.802,0.032,2312.436009
1 Dec 2019 20:43:06.000,263.876,0.089,2306.111480
1 Dec 2019 20:43:07.000,263.951,0.146,2299.790209
1 Dec 2019 20:43:08.000,264.026,0.204,2293.472231
1 Dec 2019 20:43:09.000,264.102,0.261,2287.157580
1 Dec 2019 20:43:10.000,264.178,0.319,2280.846290
1 Dec 2019 20:43:11.000,264.254,0.377,2274.538398
1 Dec 2019 20:43:12.000,264.331,0.435,2268.233938
1 Dec 2019 20:43:13.000,264.408,0.493,2261.932946
1 Dec 2019 20:43:14.000,264.486,0.551,2255.635455
1 Dec 2019 20:43:15.000,264.564,0.610,2249.341509
1 Dec 2019 20:43:16.000,264.642,0.668,2243.051141
1 Dec 2019 20:43:17.000,264.721,0.727,2236.764388
1 Dec 2019 20:43:18.000,264.801,0.786,2230.481287
1 Dec 2019 20:43:19.000,264.881,0.845,2224.201878
1 Dec 2019 20:43:20.000,264.961,0.904,2217.926198
1 Dec 2019 20:43:21.000,265.042,0.963,2211.654287
1 Dec 2019 20:43:22.000,265.123,1.022,2205.386183
1 Dec 2019 20:43:23.000,265.204,1.082,2199.121926
1 Dec 2019 20:43:24.000,265.286,1.142,2192.861553
1 Dec 2019 20:43:25.000,265.369,1.201,2186.605111
1 Dec 2019 20:43:26.000,265.452,1.261,2180.352637
1 Dec 2019 20:43:27.000,265.535,1.321,2174.104174
1 Dec 2019 20:43:28.000,265.619,1.382,2167.859762
1 Dec 2019 20:43:29.000,265.704,1.442,2161.619443
1 Dec 2019 20:43:30.000,265.788,1.503,2155.383262
1 Dec 2019 20:43:31.000,265.874,1.563,2149.151259
1 Dec 2019 20:43:32.000,265.960,1.624,2142.923479
1 Dec 2019 20:43:33.000,266.046,1.685,2136.699967
1 Dec 2019 20:43:34.000,266.133,1.746,2130.480765
1 Dec 2019 20:43:35.000,266.220,1.808,2124.265920
1 Dec 2019 20:43:36.000,266.308,1.869,2118.055476
1 Dec 2019 20:43:37.000,266.396,1.931,2111.849476
1 Dec 2019 20:43:38.000,266.485,1.992,2105.647973
1 Dec 2019 20:43:39.000,266.574,2.054,2099.451011
1 Dec 2019 20:43:40.000,266.664,2.116,2093.258636
1 Dec 2019 20:43:41.000,266.755,2.179,2087.070897
1 Dec 2019 20:43:42.000,266.846,2.241,2080.887842
1 Dec 2019 20:43:43.000,266.937,2.303,2074.709520
1 Dec 2019 20:43:44.000,267.029,2.366,2068.535980
1 Dec 2019 20:43:45.000,267.122,2.429,2062.367271
1 Dec 2019 20:43:46.000,267.215,2.492,2056.203446
1 Dec 2019 20:43:47.000,267.308,2.555,2050.044554
1 Dec 2019 20:43:48.000,267.403,2.619,2043.890647
1 Dec 2019 20:43:49.000,267.497,2.682,2037.741776
1 Dec 2019 20:43:50.000,267.593,2.746,2031.597996
1 Dec 2019 20:43:51.000,267.689,2.810,2025.459359
1 Dec 2019 20:43:52.000,267.785,2.874,2019.325918
1 Dec 2019 20:43:53.000,267.882,2.938,2013.197729
1 Dec 2019 20:43:54.000,267.980,3.002,2007.074842
1 Dec 2019 20:43:55.000,268.078,3.067,2000.957320
1 Dec 2019 20:43:56.000,268.177,3.132,1994.845217
1 Dec 2019 20:43:57.000,268.276,3.197,1988.738588
1 Dec 2019 20:43:58.000,268.376,3.262,1982.637492
1 Dec 2019 20:43:59.000,268.477,3.327,1976.541986
1 Dec 2019 20:44:00.000,268.578,3.392,1970.452128
1 Dec 2019 20:44:01.000,268.680,3.458,1964.367980
1 Dec 2019 20:44:02.000,268.783,3.524,1958.289600
1 Dec 2019 20:44:03.000,268.886,3.590,1952.217049
1 Dec 2019 20:44:04.000,268.990,3.656,1946.150388
1 Dec 2019 20:44:05.000,269.094,3.722,1940.089680
1 Dec 2019 20:44:06.000,269.200,3.789,1934.034988
1 Dec 2019 20:44:07.000,269.305,3.856,1927.986374
1 Dec 2019 20:44:08.000,269.412,3.922,1921.943904
1 Dec 2019 20:44:09.000,269.519,3.990,1915.907641
1 Dec 2019 20:44:10.000,269.627,4.057,1909.877652
1 Dec 2019 20:44:11.000,269.735,4.124,1903.854003
1 Dec 2019 20:44:12.000,269.844,4.192,1897.836761
1 Dec 2019 20:44:13.000,269.954,4.260,1891.825994
1 Dec 2019 20:44:14.000,270.065,4.328,1885.821770
1 Dec 2019 20:44:15.000,270.176,4.396,1879.824160
1 Dec 2019 20:44:16.000,270.288,4.464,1873.833233
1 Dec 2019 20:44:17.000,270.401,4.533,1867.849060
1 Dec 2019 20:44:18.000,270.514,4.602,1861.871712
1 Dec 2019 20:44:19.000,270.629,4.671,1855.901264
1 Dec 2019 20:44:20.000,270.744,4.740,1849.937788
1 Dec 2019 20:44:21.000,270.859,4.809,1843.981358
1 Dec 2019 20:44:22.000,270.976,4.879,1838.032050
1 Dec 2019 20:44:23.000,271.093,4.949,1832.089940
1 Dec 2019 20:44:24.000,271.211,5.019,1826.155104
1 Dec 2019 20:44:25.000,271.330,5.089,1820.227620
1 Dec 2019 20:44:26.000,271.449,5.159,1814.307568
1 Dec 2019 20:44:27.000,271.570,5.230,1808.395026
1 Dec 2019 20:44:28.000,271.691,5.301,1802.490076
1 Dec 2019 20:44:29.000,271.813,5.372,1796.592798
1 Dec 2019 20:44:30.000,271.935,5.443,1790.703275
1 Dec 2019 20:44:31.000,272.059,5.515,1784.821590
1 Dec 2019 20:44:32.000,272.183,5.586,1778.947828
1 Dec 2019 20:44:33.000,272.309,5.658,1773.082074
1 Dec 2019 20:44:34.000,272.435,5.730,1767.224414
1 Dec 2019 20:44:35.000,272.562,5.802,1761.374935
1 Dec 2019 20:44:36.000,272.689,5.875,1755.533730
1 Dec 2019 20:44:37.000,272.818,5.948,1749.700881
1 Dec 2019 20:44:38.000,272.947,6.021,1743.876481
1 Dec 2019 20:44:39.000,273.078,6.094,1738.060621
1 Dec 2019 20:44:40.000,273.209,6.167,1732.253396
1 Dec 2019 20:44:41.000,273.341,6.241,1726.454897
1 Dec 2019 20:44:42.000,273.475,6.314,1720.665220
1 Dec 2019 20:44:43.000,273.609,6.388,1714.884460
1 Dec 2019 20:44:44.000,273.744,6.463,1709.112715
1 Dec 2019 20:44:45.000,273.879,6.537,1703.350082
1 Dec 2019 20:44:46.000,274.016,6.612,1697.596661
1 Dec 2019 20:44:47.000,274.154,6.687,1691.852552
1 Dec 2019 20:44:48.000,274.293,6.762,1686.117856
1 Dec 2019 20:44:49.000,274.433,6.837,1680.392677
1 Dec 2019 20:44:50.000,274.573,6.913,1674.677121
1 Dec 2019 20:44:51.000,274.715,6.988,1668.971288
1 Dec 2019 20:44:52.000,274.858,7.064,1663.275286
1 Dec 2019 20:44:53.000,275.001,7.141,1657.589224
1 Dec 2019 20:44:54.000,275.146,7.217,1651.913210
1 Dec 2019 20:44:55.000,275.292,7.294,1646.247355
1 Dec 2019 20:44:56.000,275.439,7.371,1640.591770
1 Dec 2019 20:44:57.000,275.586,7.448,1634.946568
1 Dec 2019 20:44:58.000,275.735,7.525,1629.311863
1 Dec 2019 20:44:59.000,275.885,7.603,1623.687775
1 Dec 2019 20:45:00.000,276.036,7.680,1618.074413
1 Dec 2019 20:45:01.000,276.188,7.758,1612.471898
1 Dec 2019 20:45:02.000,276.342,7.837,1606.880352
1 Dec 2019 20:45:03.000,276.496,7.915,1601.299893
1 Dec 2019 20:45:04.000,276.651,7.994,1595.730646
1 Dec 2019 20:45:05.000,276.808,8.073,1590.172735
1 Dec 2019 20:45:06.000,276.966,8.152,1584.626283
1 Dec 2019 20:45:07.000,277.125,8.231,1579.091423
1 Dec 2019 20:45:08.000,277.285,8.311,1573.568274
1 Dec 2019 20:45:09.000,277.446,8.391,1568.056972
1 Dec 2019 20:45:10.000,277.608,8.471,1562.557646
1 Dec 2019 20:45:11.000,277.772,8.551,1557.070431
1 Dec 2019 20:45:12.000,277.936,8.632,1551.595460
1 Dec 2019 20:45:13.000,278.102,8.713,1546.132873
1 Dec 2019 20:45:14.000,278.270,8.794,1540.682801
1 Dec 2019 20:45:15.000,278.438,8.875,1535.245387
1 Dec 2019 20:45:16.000,278.608,8.956,1529.820771
1 Dec 2019 20:45:17.000,278.779,9.038,1524.409097
1 Dec 2019 20:45:18.000,278.951,9.120,1519.010511
1 Dec 2019 20:45:19.000,279.125,9.202,1513.625154
1 Dec 2019 20:45:20.000,279.299,9.285,1508.253175
1 Dec 2019 20:45:21.000,279.476,9.367,1502.894725
1 Dec 2019 20:45:22.000,279.653,9.450,1497.549955
1 Dec 2019 20:45:23.000,279.832,9.533,1492.219020
1 Dec 2019 20:45:24.000,280.012,9.616,1486.902069
1 Dec 2019 20:45:25.000,280.193,9.700,1481.599262
1 Dec 2019 20:45:26.000,280.376,9.784,1476.310756
1 Dec 2019 20:45:27.000,280.561,9.867,1471.036715
1 Dec 2019 20:45:28.000,280.746,9.952,1465.777294
1 Dec 2019 20:45:29.000,280.933,10.036,1460.532661
1 Dec 2019 20:45:30.000,281.122,10.121,1455.302980
1 Dec 2019 20:45:31.000,281.312,10.205,1450.088423
1 Dec 2019 20:45:32.000,281.503,10.290,1444.889153
1 Dec 2019 20:45:33.000,281.696,10.376,1439.705344
1 Dec 2019 20:45:34.000,281.890,10.461,1434.537169
1 Dec 2019 20:45:35.000,282.086,10.547,1429.384807
1 Dec 2019 20:45:36.000,282.283,10.632,1424.248428
1 Dec 2019 20:45:37.000,282.482,10.719,1419.128216
1 Dec 2019 20:45:38.000,282.683,10.805,1414.024350
1 Dec 2019 20:45:39.000,282.884,10.891,1408.937019
1 Dec 2019 20:45:40.000,283.088,10.978,1403.866399
1 Dec 2019 20:45:41.000,283.293,11.065,1398.812683
1 Dec 2019 20:45:42.000,283.500,11.152,1393.776062
1 Dec 2019 20:45:43.000,283.708,11.239,1388.756721
1 Dec 2019 20:45:44.000,283.918,11.326,1383.754858
1 Dec 2019 20:45:45.000,284.129,11.414,1378.770670
1 Dec 2019 20:45:46.000,284.342,11.502,1373.804350
1 Dec 2019 20:45:47.000,284.557,11.590,1368.856101
1 Dec 2019 20:45:48.000,284.773,11.678,1363.926127
1 Dec 2019 20:45:49.000,284.991,11.766,1359.014627
1 Dec 2019 20:45:50.000,285.211,11.855,1354.121810
1 Dec 2019 20:45:51.000,285.433,11.943,1349.247888
1 Dec 2019 20:45:52.000,285.656,12.032,1344.393065
1 Dec 2019 20:45:53.000,285.881,12.121,1339.557560
1 Dec 2019 20:45:54.000,286.108,12.210,1334.741582
1 Dec 2019 20:45:55.000,286.336,12.299,1329.945353
1 Dec 2019 20:45:56.000,286.567,12.389,1325.169094
1 Dec 2019 20:45:57.000,286.799,12.478,1320.413020
1 Dec 2019 20:45:58.000,287.033,12.568,1315.677364
1 Dec 2019 20:45:59.000,287.268,12.658,1310.962343
1 Dec 2019 20:46:00.000,287.506,12.748,1306.268191
1 Dec 2019 20:46:01.000,287.745,12.838,1301.595141
1 Dec 2019 20:46:02.000,287.987,12.928,1296.943419
1 Dec 2019 20:46:03.000,288.230,13.018,1292.313268
1 Dec 2019 20:46:04.000,288.475,13.109,1287.704919
1 Dec 2019 20:46:05.000,288.722,13.199,1283.118618
1 Dec 2019 20:46:06.000,288.971,13.290,1278.554601
1 Dec 2019 20:46:07.000,289.222,13.380,1274.013118
1 Dec 2019 20:46:08.000,289.475,13.471,1269.494410
1 Dec 2019 20:46:09.000,289.730,13.562,1264.998732
1 Dec 2019 20:46:10.000,289.986,13.653,1260.526328
1 Dec 2019 20:46:11.000,290.245,13.744,1256.077460
1 Dec 2019 20:46:12.000,290.506,13.835,1251.652375
1 Dec 2019 20:46:13.000,290.769,13.926,1247.251339
1 Dec 2019 20:46:14.000,291.034,14.017,1242.874604
1 Dec 2019 20:46:15.000,291.301,14.108,1238.522441
1 Dec 2019 20:46:16.000,291.570,14.199,1234.195105
1 Dec 2019 20:46:17.000,291.841,14.290,1229.892872
1 Dec 2019 20:46:18.000,292.114,14.381,1225.616006
1 Dec 2019 20:46:19.000,292.389,14.472,1221.364776
1 Dec 2019 20:46:20.000,292.667,14.563,1217.139460
1 Dec 2019 20:46:21.000,292.946,14.654,1212.940328
1 Dec 2019 20:46:22.000,293.228,14.745,1208.767663
1 Dec 2019 20:46:23.000,293.512,14.836,1204.621738
1 Dec 2019 20:46:24.000,293.798,14.926,1200.502842
1 Dec 2019 20:46:25.000,294.086,15.017,1196.411254
1 Dec 2019 20:46:26.000,294.377,15.108,1192.347257
1 Dec 2019 20:46:27.000,294.669,15.199,1188.311144
1 Dec 2019 20:46:28.000,294.964,15.289,1184.303202
1 Dec 2019 20:46:29.000,295.261,15.379,1180.323718
1 Dec 2019 20:46:30.000,295.561,15.470,1176.372992
1 Dec 2019 20:46:31.000,295.862,15.560,1172.451315
1 Dec 2019 20:46:32.000,296.166,15.650,1168.558981
1 Dec 2019 20:46:33.000,296.472,15.739,1164.696295
1 Dec 2019 20:46:34.000,296.781,15.829,1160.863553
1 Dec 2019 20:46:35.000,297.091,15.918,1157.061056
1 Dec 2019 20:46:36.000,297.404,16.008,1153.289105
1 Dec 2019 20:46:37.000,297.720,16.096,1149.548010
1 Dec 2019 20:46:38.000,298.037,16.185,1145.838075
1 Dec 2019 20:46:39.000,298.357,16.274,1142.159607
1 Dec 2019 20:46:40.000,298.679,16.362,1138.512911
1 Dec 2019 20:46:41.000,299.004,16.450,1134.898304
1 Dec 2019 20:46:42.000,299.331,16.537,1131.316094
1 Dec 2019 20:46:43.000,299.660,16.625,1127.766594
1 Dec 2019 20:46:44.000,299.992,16.712,1124.250116
1 Dec 2019 20:46:45.000,300.326,16.798,1120.766972
1 Dec 2019 20:46:46.000,300.662,16.885,1117.317484
1 Dec 2019 20:46:47.000,301.001,16.971,1113.901964
1 Dec 2019 20:46:48.000,301.342,17.056,1110.520730
1 Dec 2019 20:46:49.000,301.685,17.141,1107.174099
1 Dec 2019 20:46:50.000,302.031,17.226,1103.862389
1 Dec 2019 20:46:51.000,302.379,17.310,1100.585918
1 Dec 2019 20:46:52.000,302.730,17.394,1097.345007
1 Dec 2019 20:46:53.000,303.083,17.477,1094.139970
1 Dec 2019 20:46:54.000,303.438,17.560,1090.971133
1 Dec 2019 20:46:55.000,303.796,17.642,1087.838814
1 Dec 2019 20:46:56.000,304.156,17.724,1084.743330
1 Dec 2019 20:46:57.000,304.518,17.805,1081.685002
1 Dec 2019 20:46:58.000,304.883,17.885,1078.664148
1 Dec 2019 20:46:59.000,305.250,17.965,1075.681088
1 Dec 2019 20:47:00.000,305.619,18.045,1072.736139
1 Dec 2019 20:47:01.000,305.991,18.123,1069.829619
1 Dec 2019 20:47:02.000,306.365,18.201,1066.961845
1 Dec 2019 20:47:03.000,306.741,18.279,1064.133134
