vcc_sched/input/uvags_wj2xmr_vcc-a_44428_access.csv

"Access","Start Time (UTCG)","Stop Time (UTCG)","Duration (sec)"
1,1 Dec 2019 17:33:00.533,1 Dec 2019 17:38:17.569,317.035
2,1 Dec 2019 19:06:06.597,1 Dec 2019 19:16:43.174,636.578
3,1 Dec 2019 20:43:02.265,1 Dec 2019 20:53:06.078,603.813
4,1 Dec 2019 22:21:25.671,1 Dec 2019 22:29:44.173,498.502
5,1 Dec 2019 23:59:01.760,2 Dec 2019 00:07:45.850,524.090
6,2 Dec 2019 01:35:25.916,2 Dec 2019 01:45:56.966,631.051
7,2 Dec 2019 03:12:02.037,2 Dec 2019 03:22:06.926,604.888
8,2 Dec 2019 18:14:34.754,2 Dec 2019 18:24:37.073,602.320
9,2 Dec 2019 19:50:43.672,2 Dec 2019 20:01:13.611,629.938
10,2 Dec 2019 21:28:54.124,2 Dec 2019 21:37:37.828,523.704
11,2 Dec 2019 23:06:55.520,2 Dec 2019 23:15:13.985,498.465
12,3 Dec 2019 00:43:33.417,3 Dec 2019 00:53:37.828,604.410
13,3 Dec 2019 02:19:55.905,3 Dec 2019 02:30:34.281,638.375
14,3 Dec 2019 03:58:19.099,3 Dec 2019 04:03:43.034,323.935
15,3 Dec 2019 17:23:24.109,3 Dec 2019 17:32:16.807,532.698
16,3 Dec 2019 18:58:34.925,3 Dec 2019 19:09:19.300,644.375
17,3 Dec 2019 20:36:20.685,3 Dec 2019 20:45:37.437,556.751
18,3 Dec 2019 22:14:39.734,3 Dec 2019 22:22:46.352,486.618
19,3 Dec 2019 23:51:38.698,4 Dec 2019 00:01:09.582,570.884
20,4 Dec 2019 01:27:56.348,4 Dec 2019 01:38:43.753,647.406
21,4 Dec 2019 03:05:13.100,4 Dec 2019 03:13:28.680,495.580
22,4 Dec 2019 16:32:47.517,4 Dec 2019 16:39:29.009,401.492
23,4 Dec 2019 18:06:38.372,4 Dec 2019 18:17:20.817,642.445
24,4 Dec 2019 19:43:49.618,4 Dec 2019 19:53:40.638,591.020
25,4 Dec 2019 21:22:14.298,4 Dec 2019 21:30:25.911,491.613
26,4 Dec 2019 22:59:39.460,4 Dec 2019 23:08:35.554,536.094
27,5 Dec 2019 00:36:00.070,5 Dec 2019 00:46:38.251,638.181
28,5 Dec 2019 02:12:44.196,5 Dec 2019 02:22:27.188,582.993
29,5 Dec 2019 17:14:56.628,5 Dec 2019 17:25:15.258,618.630
30,5 Dec 2019 18:51:24.574,5 Dec 2019 19:01:45.066,620.493
31,5 Dec 2019 20:29:41.358,5 Dec 2019 20:38:13.462,512.104
32,5 Dec 2019 22:07:33.272,5 Dec 2019 22:15:59.817,506.545
33,5 Dec 2019 23:44:04.626,5 Dec 2019 23:54:20.071,615.444
34,6 Dec 2019 01:20:30.967,6 Dec 2019 01:30:59.412,628.444
35,6 Dec 2019 02:59:50.472,6 Dec 2019 03:03:00.360,189.889
36,6 Dec 2019 16:23:33.722,6 Dec 2019 16:32:58.132,564.409
37,6 Dec 2019 17:59:08.445,6 Dec 2019 18:09:48.498,640.052
38,6 Dec 2019 19:37:04.795,6 Dec 2019 19:46:07.781,542.985
39,6 Dec 2019 21:15:18.047,6 Dec 2019 21:23:26.766,488.719
40,6 Dec 2019 22:52:07.809,6 Dec 2019 23:01:51.673,583.863
41,7 Dec 2019 00:28:26.089,7 Dec 2019 00:39:12.144,646.055
42,7 Dec 2019 02:06:01.966,7 Dec 2019 02:13:25.823,443.857
43,7 Dec 2019 15:32:38.263,7 Dec 2019 15:40:20.297,462.034
44,7 Dec 2019 17:07:03.655,7 Dec 2019 17:17:48.687,645.033
45,7 Dec 2019 18:44:29.015,7 Dec 2019 18:54:06.656,577.641
46,7 Dec 2019 20:22:52.907,7 Dec 2019 20:31:00.036,487.130
47,7 Dec 2019 22:00:07.366,7 Dec 2019 22:09:16.083,548.717
48,7 Dec 2019 23:36:25.640,7 Dec 2019 23:47:08.840,643.200
49,8 Dec 2019 01:13:19.778,8 Dec 2019 01:22:35.085,555.307
50,8 Dec 2019 14:42:43.331,8 Dec 2019 14:46:48.165,244.834
51,8 Dec 2019 16:15:12.633,8 Dec 2019 16:25:42.999,630.366
52,8 Dec 2019 17:51:57.965,8 Dec 2019 18:02:07.656,609.691
53,8 Dec 2019 19:30:19.142,8 Dec 2019 19:38:41.307,502.166
54,8 Dec 2019 21:08:00.883,8 Dec 2019 21:16:37.142,516.259
55,8 Dec 2019 22:44:26.914,8 Dec 2019 22:54:51.945,625.031
56,9 Dec 2019 00:20:58.464,9 Dec 2019 00:31:13.051,614.587
57,9 Dec 2019 15:23:38.697,9 Dec 2019 15:33:27.717,589.020
58,9 Dec 2019 16:59:34.828,9 Dec 2019 17:10:08.503,633.674
59,9 Dec 2019 18:37:40.107,9 Dec 2019 18:46:30.029,529.921
60,9 Dec 2019 20:15:46.045,9 Dec 2019 20:23:59.239,493.194
61,9 Dec 2019 21:52:27.649,9 Dec 2019 22:02:23.801,596.152
62,9 Dec 2019 23:28:47.728,9 Dec 2019 23:39:29.464,641.736
63,10 Dec 2019 01:06:49.207,10 Dec 2019 01:13:05.826,376.619
64,10 Dec 2019 14:32:28.059,10 Dec 2019 14:40:56.109,508.050
65,10 Dec 2019 16:07:22.185,10 Dec 2019 16:18:06.966,644.782
66,10 Dec 2019 17:45:00.195,10 Dec 2019 17:54:24.230,564.035
67,10 Dec 2019 19:23:21.359,10 Dec 2019 19:31:26.489,485.129
68,10 Dec 2019 21:00:25.631,10 Dec 2019 21:09:47.195,561.564
69,10 Dec 2019 22:36:42.713,10 Dec 2019 22:47:28.660,645.947
70,11 Dec 2019 00:13:49.335,11 Dec 2019 00:22:30.123,520.788
71,11 Dec 2019 13:41:58.370,11 Dec 2019 13:47:49.995,351.624
72,11 Dec 2019 15:15:22.393,11 Dec 2019 15:26:00.610,638.217
73,11 Dec 2019 16:52:23.616,11 Dec 2019 17:02:21.486,597.870
74,11 Dec 2019 18:30:47.238,11 Dec 2019 18:39:01.414,494.176
75,11 Dec 2019 20:08:18.482,11 Dec 2019 20:17:05.685,527.203
76,11 Dec 2019 21:44:40.383,11 Dec 2019 21:55:13.340,632.956
77,11 Dec 2019 23:21:18.626,11 Dec 2019 23:31:15.019,596.392
78,12 Dec 2019 14:23:38.316,12 Dec 2019 14:33:46.230,607.914
79,12 Dec 2019 15:59:53.863,12 Dec 2019 16:10:19.425,625.562
80,12 Dec 2019 17:38:06.363,12 Dec 2019 17:46:44.266,517.903
81,12 Dec 2019 19:16:03.773,12 Dec 2019 19:24:23.539,499.766
82,12 Dec 2019 20:52:38.352,12 Dec 2019 21:02:45.812,607.460
83,12 Dec 2019 22:29:01.383,12 Dec 2019 22:39:35.645,634.262
84,13 Dec 2019 00:07:40.393,13 Dec 2019 00:12:23.149,282.756
85,13 Dec 2019 13:32:14.702,13 Dec 2019 13:41:18.584,543.882
86,13 Dec 2019 15:07:33.730,13 Dec 2019 15:18:15.812,642.081
87,13 Dec 2019 16:45:22.912,13 Dec 2019 16:54:33.469,550.557
88,13 Dec 2019 18:23:39.558,13 Dec 2019 18:31:45.146,485.588
89,13 Dec 2019 20:00:34.404,13 Dec 2019 20:10:08.678,574.273
90,13 Dec 2019 21:36:51.404,13 Dec 2019 21:47:37.657,646.252
91,13 Dec 2019 23:14:13.714,13 Dec 2019 23:22:11.509,477.795
92,14 Dec 2019 12:41:22.783,14 Dec 2019 12:48:25.916,423.133
93,14 Dec 2019 14:15:25.600,14 Dec 2019 14:26:08.332,642.732
94,14 Dec 2019 15:52:41.307,14 Dec 2019 16:02:26.647,585.340
95,14 Dec 2019 17:31:05.440,14 Dec 2019 17:39:13.785,488.345
96,14 Dec 2019 19:08:26.214,14 Dec 2019 19:17:25.189,538.974
97,14 Dec 2019 20:44:45.140,14 Dec 2019 20:55:24.175,639.034
98,14 Dec 2019 22:21:31.746,14 Dec 2019 22:31:05.075,573.329
99,15 Dec 2019 11:52:11.803,15 Dec 2019 11:53:58.458,106.655
100,15 Dec 2019 13:23:32.058,15 Dec 2019 13:33:54.130,622.073
101,15 Dec 2019 15:00:05.348,15 Dec 2019 15:10:21.373,616.024
102,15 Dec 2019 16:38:23.297,15 Dec 2019 16:46:50.562,507.265
103,15 Dec 2019 18:16:11.315,15 Dec 2019 18:24:39.427,508.112
104,15 Dec 2019 19:52:40.023,15 Dec 2019 20:02:57.586,617.564
105,15 Dec 2019 21:29:07.211,15 Dec 2019 21:39:30.572,623.361
106,15 Dec 2019 23:09:03.840,15 Dec 2019 23:10:49.531,105.690
107,16 Dec 2019 12:31:56.930,16 Dec 2019 12:41:28.941,572.010
108,16 Dec 2019 14:07:38.078,16 Dec 2019 14:18:15.366,637.288
109,16 Dec 2019 15:45:36.922,16 Dec 2019 15:54:34.449,537.527
110,16 Dec 2019 17:23:47.479,16 Dec 2019 17:31:55.868,488.390
111,16 Dec 2019 19:00:33.808,16 Dec 2019 19:10:20.335,586.527
112,16 Dec 2019 20:36:51.799,16 Dec 2019 20:47:35.759,643.960
113,16 Dec 2019 22:14:34.280,16 Dec 2019 22:21:37.906,423.626
114,17 Dec 2019 11:40:48.049,17 Dec 2019 11:48:44.390,476.341
115,17 Dec 2019 13:15:21.993,17 Dec 2019 13:26:06.363,644.370
116,17 Dec 2019 14:52:50.813,17 Dec 2019 15:02:23.234,572.421

