vcc_sched/input/vtgs_wj2xms_vcc-b_44431_aer.csv

"Time (UTCG)","Azimuth (deg)","Elevation (deg)","Range (km)"
1 Dec 2019 17:35:32.145,148.915,-0.056,2309.984404
1 Dec 2019 17:35:33.000,148.774,-0.032,2307.424238
1 Dec 2019 17:35:34.000,148.609,-0.005,2304.446568
1 Dec 2019 17:35:35.000,148.443,0.022,2301.486239
1 Dec 2019 17:35:36.000,148.277,0.048,2298.543322
1 Dec 2019 17:35:37.000,148.110,0.075,2295.617889
1 Dec 2019 17:35:38.000,147.943,0.102,2292.710010
1 Dec 2019 17:35:39.000,147.776,0.128,2289.819757
1 Dec 2019 17:35:40.000,147.608,0.155,2286.947200
1 Dec 2019 17:35:41.000,147.439,0.181,2284.092412
1 Dec 2019 17:35:42.000,147.270,0.207,2281.255461
1 Dec 2019 17:35:43.000,147.101,0.233,2278.436419
1 Dec 2019 17:35:44.000,146.932,0.259,2275.635357
1 Dec 2019 17:35:45.000,146.761,0.284,2272.852345
1 Dec 2019 17:35:46.000,146.591,0.310,2270.087454
1 Dec 2019 17:35:47.000,146.420,0.335,2267.340754
1 Dec 2019 17:35:48.000,146.249,0.361,2264.612314
1 Dec 2019 17:35:49.000,146.077,0.386,2261.902205
1 Dec 2019 17:35:50.000,145.905,0.411,2259.210496
1 Dec 2019 17:35:51.000,145.732,0.436,2256.537259
1 Dec 2019 17:35:52.000,145.559,0.460,2253.882562
1 Dec 2019 17:35:53.000,145.386,0.485,2251.246475
1 Dec 2019 17:35:54.000,145.212,0.509,2248.629067
1 Dec 2019 17:35:55.000,145.038,0.534,2246.030407
1 Dec 2019 17:35:56.000,144.863,0.558,2243.450564
1 Dec 2019 17:35:57.000,144.688,0.582,2240.889607
1 Dec 2019 17:35:58.000,144.513,0.606,2238.347602
1 Dec 2019 17:35:59.000,144.337,0.629,2235.824622
1 Dec 2019 17:36:00.000,144.161,0.653,2233.320733
1 Dec 2019 17:36:01.000,143.984,0.676,2230.836003
1 Dec 2019 17:36:02.000,143.807,0.700,2228.370500
1 Dec 2019 17:36:03.000,143.629,0.723,2225.924291
1 Dec 2019 17:36:04.000,143.452,0.746,2223.497441
1 Dec 2019 17:36:05.000,143.273,0.769,2221.090022
1 Dec 2019 17:36:06.000,143.095,0.791,2218.702098
1 Dec 2019 17:36:07.000,142.916,0.814,2216.333736
1 Dec 2019 17:36:08.000,142.736,0.836,2213.985003
1 Dec 2019 17:36:09.000,142.557,0.858,2211.655961
1 Dec 2019 17:36:10.000,142.376,0.880,2209.346682
1 Dec 2019 17:36:11.000,142.196,0.902,2207.057228
1 Dec 2019 17:36:12.000,142.015,0.924,2204.787664
1 Dec 2019 17:36:13.000,141.834,0.945,2202.538055
1 Dec 2019 17:36:14.000,141.652,0.967,2200.308467
1 Dec 2019 17:36:15.000,141.470,0.988,2198.098964
1 Dec 2019 17:36:16.000,141.288,1.009,2195.909609
1 Dec 2019 17:36:17.000,141.105,1.030,2193.740464
1 Dec 2019 17:36:18.000,140.922,1.050,2191.591597
1 Dec 2019 17:36:19.000,140.738,1.071,2189.463068
1 Dec 2019 17:36:20.000,140.554,1.091,2187.354940
1 Dec 2019 17:36:21.000,140.370,1.111,2185.267273
1 Dec 2019 17:36:22.000,140.185,1.131,2183.200133
1 Dec 2019 17:36:23.000,140.001,1.151,2181.153580
1 Dec 2019 17:36:24.000,139.815,1.171,2179.127672
1 Dec 2019 17:36:25.000,139.630,1.190,2177.122474
1 Dec 2019 17:36:26.000,139.444,1.210,2175.138046
1 Dec 2019 17:36:27.000,139.257,1.229,2173.174444
1 Dec 2019 17:36:28.000,139.071,1.248,2171.231733
1 Dec 2019 17:36:29.000,138.884,1.266,2169.309969
1 Dec 2019 17:36:30.000,138.696,1.285,2167.409209
1 Dec 2019 17:36:31.000,138.509,1.303,2165.529516
1 Dec 2019 17:36:32.000,138.321,1.322,2163.670943
1 Dec 2019 17:36:33.000,138.132,1.340,2161.833551
1 Dec 2019 17:36:34.000,137.944,1.357,2160.017397
1 Dec 2019 17:36:35.000,137.755,1.375,2158.222533
1 Dec 2019 17:36:36.000,137.565,1.393,2156.449021
1 Dec 2019 17:36:37.000,137.376,1.410,2154.696911
1 Dec 2019 17:36:38.000,137.186,1.427,2152.966263
1 Dec 2019 17:36:39.000,136.996,1.444,2151.257129
1 Dec 2019 17:36:40.000,136.805,1.460,2149.569561
1 Dec 2019 17:36:41.000,136.614,1.477,2147.903617
1 Dec 2019 17:36:42.000,136.423,1.493,2146.259346
1 Dec 2019 17:36:43.000,136.232,1.509,2144.636805
1 Dec 2019 17:36:44.000,136.040,1.525,2143.036040
1 Dec 2019 17:36:45.000,135.848,1.541,2141.457109
1 Dec 2019 17:36:46.000,135.655,1.556,2139.900057
1 Dec 2019 17:36:47.000,135.463,1.572,2138.364939
1 Dec 2019 17:36:48.000,135.270,1.587,2136.851801
1 Dec 2019 17:36:49.000,135.077,1.602,2135.360696
1 Dec 2019 17:36:50.000,134.883,1.616,2133.891669
1 Dec 2019 17:36:51.000,134.690,1.631,2132.444772
1 Dec 2019 17:36:52.000,134.496,1.645,2131.020048
1 Dec 2019 17:36:53.000,134.302,1.659,2129.617549
1 Dec 2019 17:36:54.000,134.107,1.673,2128.237315
1 Dec 2019 17:36:55.000,133.912,1.687,2126.879398
1 Dec 2019 17:36:56.000,133.717,1.700,2125.543838
1 Dec 2019 17:36:57.000,133.522,1.713,2124.230685
1 Dec 2019 17:36:58.000,133.327,1.726,2122.939976
1 Dec 2019 17:36:59.000,133.131,1.739,2121.671761
1 Dec 2019 17:37:00.000,132.935,1.752,2120.426076
1 Dec 2019 17:37:01.000,132.739,1.764,2119.202967
1 Dec 2019 17:37:02.000,132.542,1.776,2118.002477
1 Dec 2019 17:37:03.000,132.346,1.788,2116.824641
1 Dec 2019 17:37:04.000,132.149,1.800,2115.669505
1 Dec 2019 17:37:05.000,131.952,1.811,2114.537102
1 Dec 2019 17:37:06.000,131.754,1.823,2113.427475
1 Dec 2019 17:37:07.000,131.557,1.834,2112.340663
1 Dec 2019 17:37:08.000,131.359,1.845,2111.276698
1 Dec 2019 17:37:09.000,131.161,1.855,2110.235620
1 Dec 2019 17:37:10.000,130.963,1.866,2109.217467
1 Dec 2019 17:37:11.000,130.765,1.876,2108.222269
1 Dec 2019 17:37:12.000,130.566,1.886,2107.250063
1 Dec 2019 17:37:13.000,130.368,1.896,2106.300885
1 Dec 2019 17:37:14.000,130.169,1.905,2105.374763
1 Dec 2019 17:37:15.000,129.970,1.915,2104.471731
1 Dec 2019 17:37:16.000,129.770,1.924,2103.591825
1 Dec 2019 17:37:17.000,129.571,1.933,2102.735069
1 Dec 2019 17:37:18.000,129.372,1.941,2101.901496
1 Dec 2019 17:37:19.000,129.172,1.950,2101.091135
1 Dec 2019 17:37:20.000,128.972,1.958,2100.304018
1 Dec 2019 17:37:21.000,128.772,1.966,2099.540166
1 Dec 2019 17:37:22.000,128.572,1.973,2098.799611
1 Dec 2019 17:37:23.000,128.371,1.981,2098.082380
1 Dec 2019 17:37:24.000,128.171,1.988,2097.388493
1 Dec 2019 17:37:25.000,127.970,1.995,2096.717979
1 Dec 2019 17:37:26.000,127.770,2.002,2096.070860
1 Dec 2019 17:37:27.000,127.569,2.009,2095.447161
1 Dec 2019 17:37:28.000,127.368,2.015,2094.846905
1 Dec 2019 17:37:29.000,127.167,2.021,2094.270110
1 Dec 2019 17:37:30.000,126.966,2.027,2093.716799
1 Dec 2019 17:37:31.000,126.764,2.033,2093.186991
1 Dec 2019 17:37:32.000,126.563,2.038,2092.680706
1 Dec 2019 17:37:33.000,126.362,2.043,2092.197965
1 Dec 2019 17:37:34.000,126.160,2.048,2091.738780
1 Dec 2019 17:37:35.000,125.958,2.053,2091.303170
1 Dec 2019 17:37:36.000,125.757,2.057,2090.891152
1 Dec 2019 17:37:37.000,125.555,2.062,2090.502740
1 Dec 2019 17:37:38.000,125.353,2.066,2090.137949
1 Dec 2019 17:37:39.000,125.151,2.070,2089.796793
1 Dec 2019 17:37:40.000,124.949,2.073,2089.479283
1 Dec 2019 17:37:41.000,124.747,2.076,2089.185436
1 Dec 2019 17:37:42.000,124.545,2.079,2088.915255
1 Dec 2019 17:37:43.000,124.342,2.082,2088.668754
1 Dec 2019 17:37:44.000,124.140,2.085,2088.445943
1 Dec 2019 17:37:45.000,123.938,2.087,2088.246829
1 Dec 2019 17:37:46.000,123.736,2.089,2088.071421
1 Dec 2019 17:37:47.000,123.533,2.091,2087.919725
1 Dec 2019 17:37:48.000,123.331,2.093,2087.791748
1 Dec 2019 17:37:49.000,123.128,2.094,2087.687494
1 Dec 2019 17:37:50.000,122.926,2.096,2087.606969
1 Dec 2019 17:37:51.000,122.723,2.097,2087.550175
1 Dec 2019 17:37:52.000,122.521,2.097,2087.517115
1 Dec 2019 17:37:53.000,122.319,2.098,2087.507791
1 Dec 2019 17:37:54.000,122.116,2.098,2087.522204
1 Dec 2019 17:37:55.000,121.914,2.098,2087.560354
1 Dec 2019 17:37:56.000,121.711,2.098,2087.622241
1 Dec 2019 17:37:57.000,121.509,2.097,2087.707862
1 Dec 2019 17:37:58.000,121.306,2.096,2087.817216
1 Dec 2019 17:37:59.000,121.104,2.096,2087.950300
1 Dec 2019 17:38:00.000,120.902,2.094,2088.107109
1 Dec 2019 17:38:01.000,120.699,2.093,2088.287638
1 Dec 2019 17:38:02.000,120.497,2.091,2088.491882
1 Dec 2019 17:38:03.000,120.295,2.089,2088.719835
1 Dec 2019 17:38:04.000,120.093,2.087,2088.971488
1 Dec 2019 17:38:05.000,119.890,2.085,2089.246834
1 Dec 2019 17:38:06.000,119.688,2.082,2089.545863
1 Dec 2019 17:38:07.000,119.486,2.079,2089.868564
1 Dec 2019 17:38:08.000,119.284,2.076,2090.214930
1 Dec 2019 17:38:09.000,119.082,2.073,2090.584948
1 Dec 2019 17:38:10.000,118.881,2.069,2090.978605
1 Dec 2019 17:38:11.000,118.679,2.066,2091.395888
1 Dec 2019 17:38:12.000,118.477,2.062,2091.836783
1 Dec 2019 17:38:13.000,118.276,2.057,2092.301276
1 Dec 2019 17:38:14.000,118.074,2.053,2092.789347
1 Dec 2019 17:38:15.000,117.873,2.048,2093.300986
1 Dec 2019 17:38:16.000,117.672,2.043,2093.836173
1 Dec 2019 17:38:17.000,117.470,2.038,2094.394891
1 Dec 2019 17:38:18.000,117.269,2.033,2094.977119
1 Dec 2019 17:38:19.000,117.068,2.027,2095.582839
1 Dec 2019 17:38:20.000,116.868,2.021,2096.212026
1 Dec 2019 17:38:21.000,116.667,2.015,2096.864667
1 Dec 2019 17:38:22.000,116.466,2.009,2097.540735
1 Dec 2019 17:38:23.000,116.266,2.002,2098.240208
1 Dec 2019 17:38:24.000,116.066,1.995,2098.963060
1 Dec 2019 17:38:25.000,115.865,1.988,2099.709271
1 Dec 2019 17:38:26.000,115.666,1.981,2100.478815
1 Dec 2019 17:38:27.000,115.466,1.973,2101.271664
1 Dec 2019 17:38:28.000,115.266,1.966,2102.087790
1 Dec 2019 17:38:29.000,115.066,1.958,2102.927170
1 Dec 2019 17:38:30.000,114.867,1.950,2103.789774
1 Dec 2019 17:38:31.000,114.668,1.941,2104.675573
1 Dec 2019 17:38:32.000,114.469,1.933,2105.584533
1 Dec 2019 17:38:33.000,114.270,1.924,2106.516632
1 Dec 2019 17:38:34.000,114.071,1.915,2107.471833
1 Dec 2019 17:38:35.000,113.873,1.905,2108.450103
1 Dec 2019 17:38:36.000,113.675,1.896,2109.451415
1 Dec 2019 17:38:37.000,113.477,1.886,2110.475733
1 Dec 2019 17:38:38.000,113.279,1.876,2111.523018
1 Dec 2019 17:38:39.000,113.081,1.866,2112.593244
1 Dec 2019 17:38:40.000,112.884,1.855,2113.686370
1 Dec 2019 17:38:41.000,112.686,1.845,2114.802358
1 Dec 2019 17:38:42.000,112.489,1.834,2115.941178
1 Dec 2019 17:38:43.000,112.292,1.823,2117.102785
1 Dec 2019 17:38:44.000,112.096,1.812,2118.287147
1 Dec 2019 17:38:45.000,111.899,1.800,2119.494223
1 Dec 2019 17:38:46.000,111.703,1.788,2120.723969
1 Dec 2019 17:38:47.000,111.507,1.776,2121.976351
1 Dec 2019 17:38:48.000,111.312,1.764,2123.251323
1 Dec 2019 17:38:49.000,111.116,1.752,2124.548850
1 Dec 2019 17:38:50.000,110.921,1.739,2125.868884
1 Dec 2019 17:38:51.000,110.726,1.726,2127.211382
1 Dec 2019 17:38:52.000,110.531,1.713,2128.576305
1 Dec 2019 17:38:53.000,110.337,1.700,2129.963603
1 Dec 2019 17:38:54.000,110.143,1.687,2131.373238
1 Dec 2019 17:38:55.000,109.949,1.673,2132.805157
1 Dec 2019 17:38:56.000,109.755,1.659,2134.259323
1 Dec 2019 17:38:57.000,109.562,1.645,2135.735680
1 Dec 2019 17:38:58.000,109.369,1.631,2137.234190
1 Dec 2019 17:38:59.000,109.176,1.617,2138.754796
1 Dec 2019 17:39:00.000,108.983,1.602,2140.297459
1 Dec 2019 17:39:01.000,108.791,1.587,2141.862121
1 Dec 2019 17:39:02.000,108.599,1.572,2143.448742
1 Dec 2019 17:39:03.000,108.408,1.557,2145.057263
1 Dec 2019 17:39:04.000,108.216,1.541,2146.687641
1 Dec 2019 17:39:05.000,108.025,1.526,2148.339818
1 Dec 2019 17:39:06.000,107.834,1.510,2150.013749
1 Dec 2019 17:39:07.000,107.644,1.494,2151.709375
1 Dec 2019 17:39:08.000,107.454,1.477,2153.426648
1 Dec 2019 17:39:09.000,107.264,1.461,2155.165516
1 Dec 2019 17:39:10.000,107.074,1.444,2156.925920
1 Dec 2019 17:39:11.000,106.885,1.428,2158.707813
1 Dec 2019 17:39:12.000,106.696,1.411,2160.511132
1 Dec 2019 17:39:13.000,106.508,1.393,2162.335830
1 Dec 2019 17:39:14.000,106.319,1.376,2164.181844
1 Dec 2019 17:39:15.000,106.131,1.358,2166.049121
1 Dec 2019 17:39:16.000,105.944,1.341,2167.937608
1 Dec 2019 17:39:17.000,105.757,1.323,2169.847242
1 Dec 2019 17:39:18.000,105.570,1.304,2171.777967
1 Dec 2019 17:39:19.000,105.383,1.286,2173.729731
1 Dec 2019 17:39:20.000,105.197,1.268,2175.702466
1 Dec 2019 17:39:21.000,105.011,1.249,2177.696119
1 Dec 2019 17:39:22.000,104.825,1.230,2179.710633
1 Dec 2019 17:39:23.000,104.640,1.211,2181.745942
1 Dec 2019 17:39:24.000,104.455,1.192,2183.801990
1 Dec 2019 17:39:25.000,104.271,1.172,2185.878718
1 Dec 2019 17:39:26.000,104.087,1.153,2187.976061
1 Dec 2019 17:39:27.000,103.903,1.133,2190.093959
1 Dec 2019 17:39:28.000,103.720,1.113,2192.232356
1 Dec 2019 17:39:29.000,103.537,1.093,2194.391181
1 Dec 2019 17:39:30.000,103.354,1.072,2196.570377
1 Dec 2019 17:39:31.000,103.172,1.052,2198.769881
1 Dec 2019 17:39:32.000,102.990,1.031,2200.989633
1 Dec 2019 17:39:33.000,102.808,1.010,2203.229563
1 Dec 2019 17:39:34.000,102.627,0.990,2205.489611
1 Dec 2019 17:39:35.000,102.446,0.968,2207.769713
1 Dec 2019 17:39:36.000,102.266,0.947,2210.069808
1 Dec 2019 17:39:37.000,102.086,0.926,2212.389825
1 Dec 2019 17:39:38.000,101.906,0.904,2214.729703
1 Dec 2019 17:39:39.000,101.727,0.882,2217.089376
1 Dec 2019 17:39:40.000,101.548,0.860,2219.468782
1 Dec 2019 17:39:41.000,101.370,0.838,2221.867849
1 Dec 2019 17:39:42.000,101.192,0.816,2224.286515
1 Dec 2019 17:39:43.000,101.014,0.793,2226.724713
1 Dec 2019 17:39:44.000,100.837,0.771,2229.182376
1 Dec 2019 17:39:45.000,100.660,0.748,2231.659439
1 Dec 2019 17:39:46.000,100.483,0.725,2234.155837
1 Dec 2019 17:39:47.000,100.307,0.702,2236.671497
1 Dec 2019 17:39:48.000,100.132,0.679,2239.206354
1 Dec 2019 17:39:49.000,99.956,0.655,2241.760341
1 Dec 2019 17:39:50.000,99.782,0.632,2244.333391
1 Dec 2019 17:39:51.000,99.607,0.608,2246.925435
1 Dec 2019 17:39:52.000,99.433,0.585,2249.536408
1 Dec 2019 17:39:53.000,99.259,0.561,2252.166235
1 Dec 2019 17:39:54.000,99.086,0.536,2254.814852
1 Dec 2019 17:39:55.000,98.913,0.512,2257.482188
1 Dec 2019 17:39:56.000,98.741,0.488,2260.168176
1 Dec 2019 17:39:57.000,98.569,0.463,2262.872746
1 Dec 2019 17:39:58.000,98.398,0.439,2265.595830
1 Dec 2019 17:39:59.000,98.226,0.414,2268.337357
1 Dec 2019 17:40:00.000,98.056,0.389,2271.097258
1 Dec 2019 17:40:01.000,97.886,0.364,2273.875463
1 Dec 2019 17:40:02.000,97.716,0.339,2276.671907
1 Dec 2019 17:40:03.000,97.546,0.313,2279.486512
1 Dec 2019 17:40:04.000,97.377,0.288,2282.319212
1 Dec 2019 17:40:05.000,97.209,0.262,2285.169937
1 Dec 2019 17:40:06.000,97.040,0.236,2288.038615
1 Dec 2019 17:40:07.000,96.873,0.211,2290.925178
1 Dec 2019 17:40:08.000,96.705,0.185,2293.829555
1 Dec 2019 17:40:09.000,96.539,0.158,2296.751674
1 Dec 2019 17:40:10.000,96.372,0.132,2299.691466
1 Dec 2019 17:40:11.000,96.206,0.106,2302.648860
1 Dec 2019 17:40:12.000,96.041,0.079,2305.623785
1 Dec 2019 17:40:13.000,95.876,0.053,2308.616170
1 Dec 2019 17:40:14.000,95.711,0.026,2311.625945
1 Dec 2019 17:40:15.000,95.547,-0.001,2314.653038
1 Dec 2019 17:40:16.000,95.383,-0.028,2317.697379
1 Dec 2019 17:40:17.000,95.219,-0.055,2320.758896
1 Dec 2019 17:40:17.013,95.217,-0.055,2320.798694
1 Dec 2019 19:08:23.467,215.554,-0.055,2310.539419
1 Dec 2019 19:08:24.000,215.539,-0.022,2306.894324
1 Dec 2019 19:08:25.000,215.510,0.039,2300.051597
1 Dec 2019 19:08:26.000,215.481,0.101,2293.209476
1 Dec 2019 19:08:27.000,215.452,0.163,2286.367972
1 Dec 2019 19:08:28.000,215.422,0.226,2279.527097
1 Dec 2019 19:08:29.000,215.392,0.288,2272.686870
1 Dec 2019 19:08:30.000,215.362,0.351,2265.847301
1 Dec 2019 19:08:31.000,215.332,0.414,2259.008406
1 Dec 2019 19:08:32.000,215.302,0.477,2252.170197
1 Dec 2019 19:08:33.000,215.271,0.540,2245.332692
1 Dec 2019 19:08:34.000,215.241,0.604,2238.495904
1 Dec 2019 19:08:35.000,215.210,0.667,2231.659845
1 Dec 2019 19:08:36.000,215.179,0.731,2224.824535
1 Dec 2019 19:08:37.000,215.147,0.795,2217.989988
1 Dec 2019 19:08:38.000,215.116,0.860,2211.156217
1 Dec 2019 19:08:39.000,215.084,0.924,2204.323236
1 Dec 2019 19:08:40.000,215.052,0.989,2197.491066
1 Dec 2019 19:08:41.000,215.020,1.054,2190.659720
1 Dec 2019 19:08:42.000,214.988,1.119,2183.829212
1 Dec 2019 19:08:43.000,214.955,1.184,2176.999562
1 Dec 2019 19:08:44.000,214.922,1.249,2170.170784
1 Dec 2019 19:08:45.000,214.889,1.315,2163.342895
1 Dec 2019 19:08:46.000,214.856,1.381,2156.515910
1 Dec 2019 19:08:47.000,214.822,1.447,2149.689848
1 Dec 2019 19:08:48.000,214.789,1.514,2142.864727
1 Dec 2019 19:08:49.000,214.755,1.580,2136.040561
1 Dec 2019 19:08:50.000,214.721,1.647,2129.217368
1 Dec 2019 19:08:51.000,214.686,1.714,2122.395168
1 Dec 2019 19:08:52.000,214.652,1.781,2115.573978
1 Dec 2019 19:08:53.000,214.617,1.849,2108.753812
1 Dec 2019 19:08:54.000,214.582,1.916,2101.934695
1 Dec 2019 19:08:55.000,214.547,1.984,2095.116641
1 Dec 2019 19:08:56.000,214.511,2.053,2088.299670
1 Dec 2019 19:08:57.000,214.475,2.121,2081.483799
1 Dec 2019 19:08:58.000,214.439,2.190,2074.669050
1 Dec 2019 19:08:59.000,214.403,2.259,2067.855441
1 Dec 2019 19:09:00.000,214.366,2.328,2061.042991
1 Dec 2019 19:09:01.000,214.329,2.397,2054.231718
1 Dec 2019 19:09:02.000,214.292,2.467,2047.421646
1 Dec 2019 19:09:03.000,214.255,2.537,2040.612793
1 Dec 2019 19:09:04.000,214.217,2.607,2033.805178
1 Dec 2019 19:09:05.000,214.179,2.677,2026.998825
1 Dec 2019 19:09:06.000,214.141,2.748,2020.193754
1 Dec 2019 19:09:07.000,214.103,2.819,2013.389984
1 Dec 2019 19:09:08.000,214.064,2.890,2006.587537
1 Dec 2019 19:09:09.000,214.025,2.961,1999.786437
1 Dec 2019 19:09:10.000,213.986,3.033,1992.986705
1 Dec 2019 19:09:11.000,213.946,3.105,1986.188362
1 Dec 2019 19:09:12.000,213.907,3.177,1979.391430
1 Dec 2019 19:09:13.000,213.866,3.250,1972.595934
1 Dec 2019 19:09:14.000,213.826,3.323,1965.801897
1 Dec 2019 19:09:15.000,213.785,3.396,1959.009339
1 Dec 2019 19:09:16.000,213.744,3.469,1952.218288
1 Dec 2019 19:09:17.000,213.703,3.543,1945.428765
1 Dec 2019 19:09:18.000,213.661,3.617,1938.640797
1 Dec 2019 19:09:19.000,213.619,3.691,1931.854403
1 Dec 2019 19:09:20.000,213.577,3.766,1925.069615
1 Dec 2019 19:09:21.000,213.535,3.841,1918.286454
1 Dec 2019 19:09:22.000,213.492,3.916,1911.504946
1 Dec 2019 19:09:23.000,213.448,3.991,1904.725116
1 Dec 2019 19:09:24.000,213.405,4.067,1897.946992
1 Dec 2019 19:09:25.000,213.361,4.143,1891.170601
1 Dec 2019 19:09:26.000,213.317,4.220,1884.395968
1 Dec 2019 19:09:27.000,213.272,4.296,1877.623118
1 Dec 2019 19:09:28.000,213.227,4.373,1870.852084
1 Dec 2019 19:09:29.000,213.182,4.451,1864.082891
1 Dec 2019 19:09:30.000,213.136,4.529,1857.315567
1 Dec 2019 19:09:31.000,213.090,4.607,1850.550140
1 Dec 2019 19:09:32.000,213.044,4.685,1843.786641
1 Dec 2019 19:09:33.000,212.997,4.764,1837.025100
1 Dec 2019 19:09:34.000,212.950,4.843,1830.265544
1 Dec 2019 19:09:35.000,212.903,4.922,1823.508003
1 Dec 2019 19:09:36.000,212.855,5.002,1816.752512
1 Dec 2019 19:09:37.000,212.807,5.082,1809.999098
1 Dec 2019 19:09:38.000,212.758,5.162,1803.247795
1 Dec 2019 19:09:39.000,212.709,5.243,1796.498631
1 Dec 2019 19:09:40.000,212.660,5.324,1789.751643
1 Dec 2019 19:09:41.000,212.610,5.406,1783.006862
1 Dec 2019 19:09:42.000,212.560,5.488,1776.264320
1 Dec 2019 19:09:43.000,212.509,5.570,1769.524051
1 Dec 2019 19:09:44.000,212.458,5.653,1762.786092
1 Dec 2019 19:09:45.000,212.407,5.736,1756.050475
1 Dec 2019 19:09:46.000,212.355,5.819,1749.317236
1 Dec 2019 19:09:47.000,212.303,5.903,1742.586409
1 Dec 2019 19:09:48.000,212.250,5.988,1735.858033
1 Dec 2019 19:09:49.000,212.197,6.072,1729.132144
1 Dec 2019 19:09:50.000,212.143,6.157,1722.408778
1 Dec 2019 19:09:51.000,212.089,6.243,1715.687971
1 Dec 2019 19:09:52.000,212.035,6.329,1708.969766
1 Dec 2019 19:09:53.000,211.980,6.415,1702.254200
1 Dec 2019 19:09:54.000,211.924,6.502,1695.541311
1 Dec 2019 19:09:55.000,211.868,6.589,1688.831138
1 Dec 2019 19:09:56.000,211.812,6.676,1682.123726
1 Dec 2019 19:09:57.000,211.755,6.764,1675.419114
1 Dec 2019 19:09:58.000,211.698,6.853,1668.717343
1 Dec 2019 19:09:59.000,211.640,6.942,1662.018454
1 Dec 2019 19:10:00.000,211.582,7.031,1655.322494
1 Dec 2019 19:10:01.000,211.523,7.121,1648.629505
1 Dec 2019 19:10:02.000,211.463,7.211,1641.939531
1 Dec 2019 19:10:03.000,211.403,7.302,1635.252616
1 Dec 2019 19:10:04.000,211.343,7.393,1628.568808
1 Dec 2019 19:10:05.000,211.282,7.485,1621.888152
1 Dec 2019 19:10:06.000,211.220,7.577,1615.210697
1 Dec 2019 19:10:07.000,211.158,7.670,1608.536488
1 Dec 2019 19:10:08.000,211.096,7.763,1601.865574
1 Dec 2019 19:10:09.000,211.032,7.856,1595.198007
1 Dec 2019 19:10:10.000,210.968,7.951,1588.533835
1 Dec 2019 19:10:11.000,210.904,8.045,1581.873110
1 Dec 2019 19:10:12.000,210.839,8.141,1575.215882
1 Dec 2019 19:10:13.000,210.774,8.236,1568.562206
1 Dec 2019 19:10:14.000,210.707,8.332,1561.912134
1 Dec 2019 19:10:15.000,210.641,8.429,1555.265721
1 Dec 2019 19:10:16.000,210.573,8.527,1548.623021
1 Dec 2019 19:10:17.000,210.505,8.624,1541.984089
1 Dec 2019 19:10:18.000,210.436,8.723,1535.348985
1 Dec 2019 19:10:19.000,210.367,8.822,1528.717765
1 Dec 2019 19:10:20.000,210.297,8.921,1522.090489
1 Dec 2019 19:10:21.000,210.226,9.022,1515.467213
1 Dec 2019 19:10:22.000,210.155,9.122,1508.848002
1 Dec 2019 19:10:23.000,210.083,9.224,1502.232916
1 Dec 2019 19:10:24.000,210.010,9.326,1495.622018
1 Dec 2019 19:10:25.000,209.937,9.428,1489.015371
1 Dec 2019 19:10:26.000,209.862,9.531,1482.413038
1 Dec 2019 19:10:27.000,209.788,9.635,1475.815090
1 Dec 2019 19:10:28.000,209.712,9.739,1469.221591
1 Dec 2019 19:10:29.000,209.636,9.844,1462.632608
1 Dec 2019 19:10:30.000,209.558,9.950,1456.048212
1 Dec 2019 19:10:31.000,209.481,10.056,1449.468472
1 Dec 2019 19:10:32.000,209.402,10.163,1442.893461
1 Dec 2019 19:10:33.000,209.322,10.271,1436.323252
1 Dec 2019 19:10:34.000,209.242,10.379,1429.757918
1 Dec 2019 19:10:35.000,209.161,10.488,1423.197535
1 Dec 2019 19:10:36.000,209.079,10.597,1416.642179
1 Dec 2019 19:10:37.000,208.996,10.708,1410.091927
1 Dec 2019 19:10:38.000,208.913,10.819,1403.546862
1 Dec 2019 19:10:39.000,208.828,10.930,1397.007062
1 Dec 2019 19:10:40.000,208.743,11.043,1390.472610
1 Dec 2019 19:10:41.000,208.657,11.156,1383.943589
1 Dec 2019 19:10:42.000,208.569,11.270,1377.420083
1 Dec 2019 19:10:43.000,208.481,11.385,1370.902182
1 Dec 2019 19:10:44.000,208.392,11.500,1364.389972
1 Dec 2019 19:10:45.000,208.302,11.616,1357.883542
1 Dec 2019 19:10:46.000,208.211,11.733,1351.382985
1 Dec 2019 19:10:47.000,208.120,11.851,1344.888393
1 Dec 2019 19:10:48.000,208.027,11.969,1338.399860
1 Dec 2019 19:10:49.000,207.933,12.089,1331.917484
1 Dec 2019 19:10:50.000,207.838,12.209,1325.441363
1 Dec 2019 19:10:51.000,207.742,12.330,1318.971595
1 Dec 2019 19:10:52.000,207.645,12.452,1312.508284
1 Dec 2019 19:10:53.000,207.547,12.574,1306.051533
1 Dec 2019 19:10:54.000,207.448,12.698,1299.601445
1 Dec 2019 19:10:55.000,207.347,12.822,1293.158131
1 Dec 2019 19:10:56.000,207.246,12.947,1286.721700
1 Dec 2019 19:10:57.000,207.143,13.073,1280.292262
1 Dec 2019 19:10:58.000,207.040,13.201,1273.869931
1 Dec 2019 19:10:59.000,206.935,13.328,1267.454824
1 Dec 2019 19:11:00.000,206.829,13.457,1261.047058
1 Dec 2019 19:11:01.000,206.721,13.587,1254.646751
1 Dec 2019 19:11:02.000,206.613,13.718,1248.254030
1 Dec 2019 19:11:03.000,206.503,13.850,1241.869017
1 Dec 2019 19:11:04.000,206.392,13.982,1235.491840
1 Dec 2019 19:11:05.000,206.279,14.116,1229.122628
1 Dec 2019 19:11:06.000,206.166,14.251,1222.761514
1 Dec 2019 19:11:07.000,206.050,14.386,1216.408632
1 Dec 2019 19:11:08.000,205.934,14.523,1210.064120
1 Dec 2019 19:11:09.000,205.816,14.661,1203.728115
1 Dec 2019 19:11:10.000,205.697,14.799,1197.400764
1 Dec 2019 19:11:11.000,205.576,14.939,1191.082211
1 Dec 2019 19:11:12.000,205.454,15.080,1184.772604
1 Dec 2019 19:11:13.000,205.330,15.222,1178.472094
1 Dec 2019 19:11:14.000,205.205,15.365,1172.180836
1 Dec 2019 19:11:15.000,205.078,15.509,1165.898987
1 Dec 2019 19:11:16.000,204.950,15.654,1159.626707
1 Dec 2019 19:11:17.000,204.820,15.801,1153.364160
1 Dec 2019 19:11:18.000,204.688,15.948,1147.111513
1 Dec 2019 19:11:19.000,204.555,16.097,1140.868935
1 Dec 2019 19:11:20.000,204.420,16.247,1134.636603
1 Dec 2019 19:11:21.000,204.283,16.398,1128.414692
1 Dec 2019 19:11:22.000,204.145,16.550,1122.203383
1 Dec 2019 19:11:23.000,204.005,16.704,1116.002860
1 Dec 2019 19:11:24.000,203.863,16.859,1109.813313
1 Dec 2019 19:11:25.000,203.719,17.015,1103.634932
1 Dec 2019 19:11:26.000,203.573,17.172,1097.467914
1 Dec 2019 19:11:27.000,203.425,17.331,1091.312460
1 Dec 2019 19:11:28.000,203.276,17.491,1085.168772
1 Dec 2019 19:11:29.000,203.124,17.652,1079.037061
1 Dec 2019 19:11:30.000,202.970,17.815,1072.917537
1 Dec 2019 19:11:31.000,202.815,17.978,1066.810419
1 Dec 2019 19:11:32.000,202.657,18.144,1060.715928
1 Dec 2019 19:11:33.000,202.497,18.310,1054.634290
1 Dec 2019 19:11:34.000,202.335,18.479,1048.565737
1 Dec 2019 19:11:35.000,202.170,18.648,1042.510504
1 Dec 2019 19:11:36.000,202.003,18.819,1036.468831
1 Dec 2019 19:11:37.000,201.834,18.991,1030.440965
1 Dec 2019 19:11:38.000,201.663,19.165,1024.427156
1 Dec 2019 19:11:39.000,201.489,19.340,1018.427662
1 Dec 2019 19:11:40.000,201.313,19.517,1012.442743
1 Dec 2019 19:11:41.000,201.134,19.696,1006.472666
1 Dec 2019 19:11:42.000,200.952,19.876,1000.517705
1 Dec 2019 19:11:43.000,200.768,20.057,994.578139
1 Dec 2019 19:11:44.000,200.582,20.240,988.654251
1 Dec 2019 19:11:45.000,200.392,20.424,982.746333
1 Dec 2019 19:11:46.000,200.200,20.611,976.854681
1 Dec 2019 19:11:47.000,200.005,20.798,970.979599
1 Dec 2019 19:11:48.000,199.807,20.988,965.121396
1 Dec 2019 19:11:49.000,199.606,21.179,959.280388
1 Dec 2019 19:11:50.000,199.402,21.372,953.456900
1 Dec 2019 19:11:51.000,199.195,21.566,947.651259
1 Dec 2019 19:11:52.000,198.985,21.762,941.863805
1 Dec 2019 19:11:53.000,198.772,21.960,936.094880
1 Dec 2019 19:11:54.000,198.555,22.160,930.344836
1 Dec 2019 19:11:55.000,198.335,22.361,924.614034
1 Dec 2019 19:11:56.000,198.112,22.564,918.902839
1 Dec 2019 19:11:57.000,197.885,22.769,913.211626
1 Dec 2019 19:11:58.000,197.654,22.976,907.540779
1 Dec 2019 19:11:59.000,197.420,23.184,901.890687
1 Dec 2019 19:12:00.000,197.182,23.394,896.261751
1 Dec 2019 19:12:01.000,196.941,23.606,890.654378
1 Dec 2019 19:12:02.000,196.695,23.820,885.068985
1 Dec 2019 19:12:03.000,196.446,24.036,879.505997
1 Dec 2019 19:12:04.000,196.192,24.254,873.965850
1 Dec 2019 19:12:05.000,195.934,24.473,868.448985
1 Dec 2019 19:12:06.000,195.673,24.695,862.955859
1 Dec 2019 19:12:07.000,195.406,24.918,857.486931
1 Dec 2019 19:12:08.000,195.136,25.143,852.042676
1 Dec 2019 19:12:09.000,194.860,25.370,846.623575
1 Dec 2019 19:12:10.000,194.580,25.600,841.230121
1 Dec 2019 19:12:11.000,194.296,25.831,835.862819
1 Dec 2019 19:12:12.000,194.006,26.063,830.522180
1 Dec 2019 19:12:13.000,193.712,26.298,825.208728
1 Dec 2019 19:12:14.000,193.413,26.535,819.922999
1 Dec 2019 19:12:15.000,193.108,26.774,814.665540
1 Dec 2019 19:12:16.000,192.798,27.015,809.436907
1 Dec 2019 19:12:17.000,192.483,27.257,804.237667
1 Dec 2019 19:12:18.000,192.162,27.502,799.068402
1 Dec 2019 19:12:19.000,191.836,27.748,793.929705
1 Dec 2019 19:12:20.000,191.503,27.997,788.822176
1 Dec 2019 19:12:21.000,191.165,28.247,783.746432
1 Dec 2019 19:12:22.000,190.821,28.499,778.703102
1 Dec 2019 19:12:23.000,190.471,28.753,773.692825
1 Dec 2019 19:12:24.000,190.114,29.009,768.716252
1 Dec 2019 19:12:25.000,189.751,29.267,763.774050
1 Dec 2019 19:12:26.000,189.381,29.527,758.866895
1 Dec 2019 19:12:27.000,189.004,29.788,753.995478
1 Dec 2019 19:12:28.000,188.620,30.052,749.160502
1 Dec 2019 19:12:29.000,188.230,30.317,744.362682
1 Dec 2019 19:12:30.000,187.832,30.583,739.602747
1 Dec 2019 19:12:31.000,187.427,30.852,734.881440
1 Dec 2019 19:12:32.000,187.014,31.122,730.199516
1 Dec 2019 19:12:33.000,186.593,31.393,725.557741
1 Dec 2019 19:12:34.000,186.165,31.667,720.956898
1 Dec 2019 19:12:35.000,185.728,31.941,716.397781
1 Dec 2019 19:12:36.000,185.283,32.217,711.881196
1 Dec 2019 19:12:37.000,184.830,32.495,707.407964
1 Dec 2019 19:12:38.000,184.368,32.774,702.978918
1 Dec 2019 19:12:39.000,183.897,33.054,698.594903
1 Dec 2019 19:12:40.000,183.418,33.335,694.256778
1 Dec 2019 19:12:41.000,182.929,33.617,689.965414
1 Dec 2019 19:12:42.000,182.430,33.900,685.721693
1 Dec 2019 19:12:43.000,181.922,34.185,681.526512
1 Dec 2019 19:12:44.000,181.405,34.470,677.380776
1 Dec 2019 19:12:45.000,180.877,34.755,673.285404
1 Dec 2019 19:12:46.000,180.339,35.042,669.241326
1 Dec 2019 19:12:47.000,179.791,35.328,665.249482
1 Dec 2019 19:12:48.000,179.232,35.615,661.310822
1 Dec 2019 19:12:49.000,178.662,35.903,657.426308
1 Dec 2019 19:12:50.000,178.082,36.190,653.596908
1 Dec 2019 19:12:51.000,177.490,36.477,649.823604
1 Dec 2019 19:12:52.000,176.887,36.765,646.107381
1 Dec 2019 19:12:53.000,176.273,37.051,642.449234
1 Dec 2019 19:12:54.000,175.646,37.337,638.850166
1 Dec 2019 19:12:55.000,175.008,37.623,635.311186
1 Dec 2019 19:12:56.000,174.358,37.907,631.833306
1 Dec 2019 19:12:57.000,173.695,38.191,628.417546
1 Dec 2019 19:12:58.000,173.020,38.473,625.064928
1 Dec 2019 19:12:59.000,172.332,38.753,621.776478
1 Dec 2019 19:13:00.000,171.632,39.032,618.553222
1 Dec 2019 19:13:01.000,170.919,39.309,615.396190
1 Dec 2019 19:13:02.000,170.192,39.583,612.306409
1 Dec 2019 19:13:03.000,169.453,39.856,609.284907
1 Dec 2019 19:13:04.000,168.700,40.125,606.332707
1 Dec 2019 19:13:05.000,167.934,40.392,603.450831
1 Dec 2019 19:13:06.000,167.155,40.655,600.640293
1 Dec 2019 19:13:07.000,166.362,40.915,597.902104
1 Dec 2019 19:13:08.000,165.555,41.171,595.237265
1 Dec 2019 19:13:09.000,164.735,41.423,592.646769
1 Dec 2019 19:13:10.000,163.902,41.670,590.131598
1 Dec 2019 19:13:11.000,163.055,41.913,587.692722
1 Dec 2019 19:13:12.000,162.195,42.151,585.331097
1 Dec 2019 19:13:13.000,161.321,42.384,583.047666
1 Dec 2019 19:13:14.000,160.434,42.611,580.843354
1 Dec 2019 19:13:15.000,159.534,42.833,578.719067
1 Dec 2019 19:13:16.000,158.621,43.048,576.675690
1 Dec 2019 19:13:17.000,157.695,43.257,574.714092
1 Dec 2019 19:13:18.000,156.756,43.459,572.835114
1 Dec 2019 19:13:19.000,155.806,43.653,571.039573
1 Dec 2019 19:13:20.000,154.843,43.841,569.328262
1 Dec 2019 19:13:21.000,153.869,44.021,567.701943
1 Dec 2019 19:13:22.000,152.883,44.193,566.161353
1 Dec 2019 19:13:23.000,151.886,44.356,564.707195
1 Dec 2019 19:13:24.000,150.879,44.511,563.340137
1 Dec 2019 19:13:25.000,149.862,44.657,562.060818
1 Dec 2019 19:13:26.000,148.836,44.794,560.869843
1 Dec 2019 19:13:27.000,147.800,44.922,559.767772
1 Dec 2019 19:13:28.000,146.756,45.040,558.755137
1 Dec 2019 19:13:29.000,145.704,45.149,557.832423
1 Dec 2019 19:13:30.000,144.645,45.247,557.000080
1 Dec 2019 19:13:31.000,143.580,45.335,556.258514
1 Dec 2019 19:13:32.000,142.509,45.413,555.608090
1 Dec 2019 19:13:33.000,141.432,45.481,555.049128
1 Dec 2019 19:13:34.000,140.352,45.537,554.581906
1 Dec 2019 19:13:35.000,139.267,45.583,554.206656
1 Dec 2019 19:13:36.000,138.180,45.619,553.923567
1 Dec 2019 19:13:37.000,137.091,45.643,553.732779
1 Dec 2019 19:13:38.000,136.000,45.656,553.634389
1 Dec 2019 19:13:39.000,134.909,45.659,553.628445
1 Dec 2019 19:13:40.000,133.818,45.650,553.714951
1 Dec 2019 19:13:41.000,132.728,45.631,553.893864
1 Dec 2019 19:13:42.000,131.640,45.600,554.165093
1 Dec 2019 19:13:43.000,130.555,45.559,554.528504
1 Dec 2019 19:13:44.000,129.473,45.507,554.983913
1 Dec 2019 19:13:45.000,128.396,45.444,555.531096
1 Dec 2019 19:13:46.000,127.323,45.371,556.169780
1 Dec 2019 19:13:47.000,126.256,45.287,556.899648
1 Dec 2019 19:13:48.000,125.195,45.193,557.720344
1 Dec 2019 19:13:49.000,124.141,45.089,558.631467
1 Dec 2019 19:13:50.000,123.094,44.975,559.632572
1 Dec 2019 19:13:51.000,122.056,44.852,560.723174
1 Dec 2019 19:13:52.000,121.027,44.719,561.902757
1 Dec 2019 19:13:53.000,120.007,44.577,563.170754
1 Dec 2019 19:13:54.000,118.997,44.426,564.526572
1 Dec 2019 19:13:55.000,117.997,44.267,565.969578
1 Dec 2019 19:13:56.000,117.008,44.099,567.499102
1 Dec 2019 19:13:57.000,116.031,43.923,569.114448
1 Dec 2019 19:13:58.000,115.065,43.739,570.814883
1 Dec 2019 19:13:59.000,114.110,43.548,572.599647
1 Dec 2019 19:14:00.000,113.168,43.350,574.467956
1 Dec 2019 19:14:01.000,112.239,43.145,576.418991
1 Dec 2019 19:14:02.000,111.322,42.933,578.451915
1 Dec 2019 19:14:03.000,110.418,42.715,580.565863
1 Dec 2019 19:14:04.000,109.527,42.491,582.759952
1 Dec 2019 19:14:05.000,108.649,42.261,585.033278
1 Dec 2019 19:14:06.000,107.785,42.026,587.384921
1 Dec 2019 19:14:07.000,106.934,41.786,589.813936
1 Dec 2019 19:14:08.000,106.097,41.541,592.319371
1 Dec 2019 19:14:09.000,105.273,41.292,594.900258
1 Dec 2019 19:14:10.000,104.463,41.039,597.555615
1 Dec 2019 19:14:11.000,103.666,40.781,600.284452
1 Dec 2019 19:14:12.000,102.882,40.521,603.085767
1 Dec 2019 19:14:13.000,102.113,40.257,605.958553
1 Dec 2019 19:14:14.000,101.356,39.989,608.901796
1 Dec 2019 19:14:15.000,100.613,39.719,611.914472
1 Dec 2019 19:14:16.000,99.883,39.447,614.995556
1 Dec 2019 19:14:17.000,99.166,39.172,618.144027
1 Dec 2019 19:14:18.000,98.461,38.895,621.358854
1 Dec 2019 19:14:19.000,97.770,38.617,624.639010
1 Dec 2019 19:14:20.000,97.091,38.337,627.983466
1 Dec 2019 19:14:21.000,96.425,38.055,631.391197
1 Dec 2019 19:14:22.000,95.771,37.772,634.861179
1 Dec 2019 19:14:23.000,95.130,37.488,638.392394
1 Dec 2019 19:14:24.000,94.500,37.204,641.983826
1 Dec 2019 19:14:25.000,93.882,36.919,645.634464
1 Dec 2019 19:14:26.000,93.276,36.633,649.343311
1 Dec 2019 19:14:27.000,92.681,36.347,653.109368
1 Dec 2019 19:14:28.000,92.097,36.061,656.931646
1 Dec 2019 19:14:29.000,91.525,35.775,660.809162
1 Dec 2019 19:14:30.000,90.963,35.489,664.740951
1 Dec 2019 19:14:31.000,90.412,35.203,668.726048
1 Dec 2019 19:14:32.000,89.871,34.918,672.763497
1 Dec 2019 19:14:33.000,89.340,34.634,676.852364
1 Dec 2019 19:14:34.000,88.820,34.350,680.991714
1 Dec 2019 19:14:35.000,88.309,34.066,685.180625
1 Dec 2019 19:14:36.000,87.808,33.784,689.418193
1 Dec 2019 19:14:37.000,87.317,33.503,693.703517
1 Dec 2019 19:14:38.000,86.834,33.222,698.035717
1 Dec 2019 19:14:39.000,86.361,32.943,702.413918
1 Dec 2019 19:14:40.000,85.897,32.665,706.837258
1 Dec 2019 19:14:41.000,85.441,32.388,711.304894
1 Dec 2019 19:14:42.000,84.994,32.113,715.815986
1 Dec 2019 19:14:43.000,84.555,31.839,720.369718
1 Dec 2019 19:14:44.000,84.125,31.566,724.965276
1 Dec 2019 19:14:45.000,83.702,31.295,729.601869
1 Dec 2019 19:14:46.000,83.287,31.026,734.278709
1 Dec 2019 19:14:47.000,82.880,30.758,738.995029
1 Dec 2019 19:14:48.000,82.480,30.492,743.750075
1 Dec 2019 19:14:49.000,82.087,30.227,748.543098
1 Dec 2019 19:14:50.000,81.702,29.965,753.373373
1 Dec 2019 19:14:51.000,81.324,29.704,758.240176
1 Dec 2019 19:14:52.000,80.952,29.444,763.142806
1 Dec 2019 19:14:53.000,80.587,29.187,768.080574
1 Dec 2019 19:14:54.000,80.229,28.931,773.052795
1 Dec 2019 19:14:55.000,79.877,28.678,778.058805
1 Dec 2019 19:14:56.000,79.531,28.426,783.097953
1 Dec 2019 19:14:57.000,79.191,28.176,788.169592
1 Dec 2019 19:14:58.000,78.857,27.928,793.273096
1 Dec 2019 19:14:59.000,78.529,27.682,798.407850
1 Dec 2019 19:15:00.000,78.207,27.437,803.573243
1 Dec 2019 19:15:01.000,77.891,27.195,808.768686
1 Dec 2019 19:15:02.000,77.579,26.954,813.993596
1 Dec 2019 19:15:03.000,77.273,26.716,819.247406
1 Dec 2019 19:15:04.000,76.973,26.479,824.529552
1 Dec 2019 19:15:05.000,76.677,26.245,829.839490
1 Dec 2019 19:15:06.000,76.387,26.012,835.176682
1 Dec 2019 19:15:07.000,76.101,25.781,840.540608
1 Dec 2019 19:15:08.000,75.820,25.552,845.930744
1 Dec 2019 19:15:09.000,75.544,25.325,851.346591
1 Dec 2019 19:15:10.000,75.272,25.100,856.787655
1 Dec 2019 19:15:11.000,75.005,24.877,862.253451
1 Dec 2019 19:15:12.000,74.742,24.656,867.743508
1 Dec 2019 19:15:13.000,74.483,24.436,873.257357
1 Dec 2019 19:15:14.000,74.229,24.219,878.794547
1 Dec 2019 19:15:15.000,73.978,24.003,884.354631
1 Dec 2019 19:15:16.000,73.732,23.789,889.937175
1 Dec 2019 19:15:17.000,73.490,23.578,895.541751
1 Dec 2019 19:15:18.000,73.251,23.367,901.167942
1 Dec 2019 19:15:19.000,73.016,23.159,906.815343
1 Dec 2019 19:15:20.000,72.785,22.952,912.483546
1 Dec 2019 19:15:21.000,72.557,22.748,918.172163
1 Dec 2019 19:15:22.000,72.333,22.545,923.880809
1 Dec 2019 19:15:23.000,72.113,22.344,929.609109
1 Dec 2019 19:15:24.000,71.895,22.144,935.356695
1 Dec 2019 19:15:25.000,71.682,21.946,941.123207
1 Dec 2019 19:15:26.000,71.471,21.750,946.908292
1 Dec 2019 19:15:27.000,71.263,21.556,952.711605
1 Dec 2019 19:15:28.000,71.059,21.363,958.532808
1 Dec 2019 19:15:29.000,70.857,21.172,964.371570
1 Dec 2019 19:15:30.000,70.659,20.983,970.227567
1 Dec 2019 19:15:31.000,70.463,20.795,976.100486
1 Dec 2019 19:15:32.000,70.271,20.609,981.990008
1 Dec 2019 19:15:33.000,70.081,20.424,987.895835
1 Dec 2019 19:15:34.000,69.894,20.242,993.817666
1 Dec 2019 19:15:35.000,69.709,20.060,999.755213
1 Dec 2019 19:15:36.000,69.528,19.880,1005.708188
1 Dec 2019 19:15:37.000,69.348,19.702,1011.676313
1 Dec 2019 19:15:38.000,69.172,19.525,1017.659313
1 Dec 2019 19:15:39.000,68.998,19.350,1023.656922
1 Dec 2019 19:15:40.000,68.826,19.176,1029.668876
1 Dec 2019 19:15:41.000,68.657,19.004,1035.694918
1 Dec 2019 19:15:42.000,68.490,18.833,1041.734798
1 Dec 2019 19:15:43.000,68.325,18.663,1047.788268
1 Dec 2019 19:15:44.000,68.162,18.495,1053.855087
1 Dec 2019 19:15:45.000,68.002,18.329,1059.935019
1 Dec 2019 19:15:46.000,67.844,18.163,1066.027832
1 Dec 2019 19:15:47.000,67.688,17.999,1072.133299
1 Dec 2019 19:15:48.000,67.534,17.837,1078.251195
1 Dec 2019 19:15:49.000,67.382,17.676,1084.381308
1 Dec 2019 19:15:50.000,67.233,17.516,1090.523422
1 Dec 2019 19:15:51.000,67.085,17.357,1096.677329
1 Dec 2019 19:15:52.000,66.939,17.200,1102.842823
1 Dec 2019 19:15:53.000,66.795,17.044,1109.019704
1 Dec 2019 19:15:54.000,66.653,16.889,1115.207775
1 Dec 2019 19:15:55.000,66.513,16.735,1121.406843
1 Dec 2019 19:15:56.000,66.374,16.583,1127.616721
1 Dec 2019 19:15:57.000,66.237,16.432,1133.837223
1 Dec 2019 19:15:58.000,66.103,16.282,1140.068167
1 Dec 2019 19:15:59.000,65.969,16.133,1146.309376
1 Dec 2019 19:16:00.000,65.838,15.986,1152.560676
1 Dec 2019 19:16:01.000,65.708,15.839,1158.821896
1 Dec 2019 19:16:02.000,65.579,15.694,1165.092869
1 Dec 2019 19:16:03.000,65.453,15.550,1171.373427
1 Dec 2019 19:16:04.000,65.328,15.407,1177.663416
1 Dec 2019 19:16:05.000,65.204,15.265,1183.962675
1 Dec 2019 19:16:06.000,65.082,15.124,1190.271050
1 Dec 2019 19:16:07.000,64.961,14.984,1196.588388
1 Dec 2019 19:16:08.000,64.842,14.846,1202.914541
1 Dec 2019 19:16:09.000,64.724,14.708,1209.249363
1 Dec 2019 19:16:10.000,64.608,14.571,1215.592711
1 Dec 2019 19:16:11.000,64.493,14.436,1221.944445
1 Dec 2019 19:16:12.000,64.379,14.301,1228.304424
1 Dec 2019 19:16:13.000,64.267,14.167,1234.672519
1 Dec 2019 19:16:14.000,64.156,14.035,1241.048594
1 Dec 2019 19:16:15.000,64.046,13.903,1247.432521
1 Dec 2019 19:16:16.000,63.938,13.772,1253.824170
1 Dec 2019 19:16:17.000,63.831,13.642,1260.223417
1 Dec 2019 19:16:18.000,63.725,13.513,1266.630140
1 Dec 2019 19:16:19.000,63.620,13.385,1273.044218
1 Dec 2019 19:16:20.000,63.517,13.258,1279.465528
1 Dec 2019 19:16:21.000,63.414,13.132,1285.893963
1 Dec 2019 19:16:22.000,63.313,13.007,1292.329404
1 Dec 2019 19:16:23.000,63.213,12.883,1298.771741
1 Dec 2019 19:16:24.000,63.114,12.759,1305.220862
1 Dec 2019 19:16:25.000,63.016,12.636,1311.676660
1 Dec 2019 19:16:26.000,62.920,12.515,1318.139030
1 Dec 2019 19:16:27.000,62.824,12.394,1324.607865
1 Dec 2019 19:16:28.000,62.729,12.274,1331.083069
1 Dec 2019 19:16:29.000,62.636,12.154,1337.564538
1 Dec 2019 19:16:30.000,62.543,12.036,1344.052174
1 Dec 2019 19:16:31.000,62.452,11.918,1350.545881
1 Dec 2019 19:16:32.000,62.361,11.801,1357.045564
1 Dec 2019 19:16:33.000,62.271,11.685,1363.551126
1 Dec 2019 19:16:34.000,62.183,11.569,1370.062483
1 Dec 2019 19:16:35.000,62.095,11.455,1376.579540
1 Dec 2019 19:16:36.000,62.008,11.341,1383.102211
1 Dec 2019 19:16:37.000,61.922,11.228,1389.630407
1 Dec 2019 19:16:38.000,61.837,11.115,1396.164045
1 Dec 2019 19:16:39.000,61.753,11.003,1402.703036
1 Dec 2019 19:16:40.000,61.670,10.892,1409.247305
1 Dec 2019 19:16:41.000,61.587,10.782,1415.796768
1 Dec 2019 19:16:42.000,61.506,10.672,1422.351345
1 Dec 2019 19:16:43.000,61.425,10.564,1428.910958
1 Dec 2019 19:16:44.000,61.345,10.455,1435.475527
1 Dec 2019 19:16:45.000,61.266,10.348,1442.044982
1 Dec 2019 19:16:46.000,61.188,10.241,1448.619248
1 Dec 2019 19:16:47.000,61.111,10.135,1455.198249
1 Dec 2019 19:16:48.000,61.034,10.029,1461.781916
1 Dec 2019 19:16:49.000,60.958,9.924,1468.370173
1 Dec 2019 19:16:50.000,60.883,9.820,1474.962958
1 Dec 2019 19:16:51.000,60.808,9.716,1481.560200
1 Dec 2019 19:16:52.000,60.735,9.613,1488.161831
1 Dec 2019 19:16:53.000,60.662,9.510,1494.767786
1 Dec 2019 19:16:54.000,60.589,9.408,1501.377995
1 Dec 2019 19:16:55.000,60.518,9.307,1507.992403
1 Dec 2019 19:16:56.000,60.447,9.206,1514.610942
1 Dec 2019 19:16:57.000,60.377,9.106,1521.233552
1 Dec 2019 19:16:58.000,60.307,9.007,1527.860170
1 Dec 2019 19:16:59.000,60.238,8.908,1534.490735
1 Dec 2019 19:17:00.000,60.170,8.809,1541.125193
1 Dec 2019 19:17:01.000,60.103,8.711,1547.763485
1 Dec 2019 19:17:02.000,60.036,8.614,1554.405551
1 Dec 2019 19:17:03.000,59.969,8.517,1561.051338
1 Dec 2019 19:17:04.000,59.904,8.421,1567.700785
1 Dec 2019 19:17:05.000,59.839,8.325,1574.353846
1 Dec 2019 19:17:06.000,59.774,8.230,1581.010463
1 Dec 2019 19:17:07.000,59.711,8.135,1587.670584
1 Dec 2019 19:17:08.000,59.647,8.041,1594.334154
1 Dec 2019 19:17:09.000,59.585,7.947,1601.001128
1 Dec 2019 19:17:10.000,59.522,7.854,1607.671453
1 Dec 2019 19:17:11.000,59.461,7.762,1614.345080
1 Dec 2019 19:17:12.000,59.400,7.669,1621.021959
1 Dec 2019 19:17:13.000,59.340,7.578,1627.702040
1 Dec 2019 19:17:14.000,59.280,7.486,1634.385281
1 Dec 2019 19:17:15.000,59.220,7.396,1641.071633
1 Dec 2019 19:17:16.000,59.162,7.305,1647.761051
1 Dec 2019 19:17:17.000,59.103,7.216,1654.453485
1 Dec 2019 19:17:18.000,59.046,7.126,1661.148898
1 Dec 2019 19:17:19.000,58.988,7.037,1667.847243
1 Dec 2019 19:17:20.000,58.932,6.949,1674.548476
1 Dec 2019 19:17:21.000,58.875,6.861,1681.252553
1 Dec 2019 19:17:22.000,58.820,6.773,1687.959436
1 Dec 2019 19:17:23.000,58.764,6.686,1694.669083
1 Dec 2019 19:17:24.000,58.710,6.599,1701.381452
1 Dec 2019 19:17:25.000,58.655,6.513,1708.096501
1 Dec 2019 19:17:26.000,58.601,6.427,1714.814195
1 Dec 2019 19:17:27.000,58.548,6.342,1721.534493
1 Dec 2019 19:17:28.000,58.495,6.257,1728.257356
1 Dec 2019 19:17:29.000,58.443,6.172,1734.982748
1 Dec 2019 19:17:30.000,58.391,6.088,1741.710626
1 Dec 2019 19:17:31.000,58.339,6.004,1748.440962
1 Dec 2019 19:17:32.000,58.288,5.920,1755.173714
1 Dec 2019 19:17:33.000,58.237,5.837,1761.908849
1 Dec 2019 19:17:34.000,58.187,5.755,1768.646327
1 Dec 2019 19:17:35.000,58.137,5.672,1775.386120
1 Dec 2019 19:17:36.000,58.087,5.590,1782.128190
1 Dec 2019 19:17:37.000,58.038,5.509,1788.872505
1 Dec 2019 19:17:38.000,57.990,5.428,1795.619026
1 Dec 2019 19:17:39.000,57.942,5.347,1802.367729
1 Dec 2019 19:17:40.000,57.894,5.266,1809.118577
1 Dec 2019 19:17:41.000,57.846,5.186,1815.871538
1 Dec 2019 19:17:42.000,57.799,5.107,1822.626578
1 Dec 2019 19:17:43.000,57.752,5.027,1829.383672
1 Dec 2019 19:17:44.000,57.706,4.948,1836.142786
1 Dec 2019 19:17:45.000,57.660,4.869,1842.903889
1 Dec 2019 19:17:46.000,57.615,4.791,1849.666950
1 Dec 2019 19:17:47.000,57.569,4.713,1856.431944
1 Dec 2019 19:17:48.000,57.525,4.635,1863.198840
1 Dec 2019 19:17:49.000,57.480,4.558,1869.967605
1 Dec 2019 19:17:50.000,57.436,4.481,1876.738218
1 Dec 2019 19:17:51.000,57.392,4.404,1883.510648
1 Dec 2019 19:17:52.000,57.349,4.328,1890.284866
1 Dec 2019 19:17:53.000,57.306,4.252,1897.060843
1 Dec 2019 19:17:54.000,57.263,4.176,1903.838558
1 Dec 2019 19:17:55.000,57.221,4.100,1910.617982
1 Dec 2019 19:17:56.000,57.178,4.025,1917.399088
1 Dec 2019 19:17:57.000,57.137,3.950,1924.181847
1 Dec 2019 19:17:58.000,57.095,3.876,1930.966240
1 Dec 2019 19:17:59.000,57.054,3.801,1937.752238
1 Dec 2019 19:18:00.000,57.013,3.727,1944.539818
1 Dec 2019 19:18:01.000,56.973,3.654,1951.328951
1 Dec 2019 19:18:02.000,56.933,3.580,1958.119618
1 Dec 2019 19:18:03.000,56.893,3.507,1964.911794
1 Dec 2019 19:18:04.000,56.853,3.434,1971.705454
1 Dec 2019 19:18:05.000,56.814,3.362,1978.500572
1 Dec 2019 19:18:06.000,56.775,3.290,1985.297131
1 Dec 2019 19:18:07.000,56.736,3.218,1992.095106
1 Dec 2019 19:18:08.000,56.698,3.146,1998.894473
1 Dec 2019 19:18:09.000,56.660,3.074,2005.695207
1 Dec 2019 19:18:10.000,56.622,3.003,2012.497293
1 Dec 2019 19:18:11.000,56.584,2.932,2019.300705
1 Dec 2019 19:18:12.000,56.547,2.862,2026.105420
1 Dec 2019 19:18:13.000,56.510,2.791,2032.911422
1 Dec 2019 19:18:14.000,56.473,2.721,2039.718687
1 Dec 2019 19:18:15.000,56.437,2.651,2046.527195
1 Dec 2019 19:18:16.000,56.401,2.582,2053.336921
1 Dec 2019 19:18:17.000,56.365,2.512,2060.147853
1 Dec 2019 19:18:18.000,56.329,2.443,2066.959966
1 Dec 2019 19:18:19.000,56.294,2.374,2073.773241
1 Dec 2019 19:18:20.000,56.259,2.305,2080.587656
1 Dec 2019 19:18:21.000,56.224,2.237,2087.403197
1 Dec 2019 19:18:22.000,56.189,2.169,2094.219843
1 Dec 2019 19:18:23.000,56.155,2.101,2101.037571
1 Dec 2019 19:18:24.000,56.121,2.033,2107.856369
1 Dec 2019 19:18:25.000,56.087,1.966,2114.676215
1 Dec 2019 19:18:26.000,56.053,1.898,2121.497091
1 Dec 2019 19:18:27.000,56.020,1.831,2128.318976
1 Dec 2019 19:18:28.000,55.987,1.765,2135.141859
1 Dec 2019 19:18:29.000,55.954,1.698,2141.965718
1 Dec 2019 19:18:30.000,55.921,1.632,2148.790537
1 Dec 2019 19:18:31.000,55.888,1.566,2155.616295
1 Dec 2019 19:18:32.000,55.856,1.500,2162.442981
1 Dec 2019 19:18:33.000,55.824,1.434,2169.270575
1 Dec 2019 19:18:34.000,55.792,1.368,2176.099058
1 Dec 2019 19:18:35.000,55.761,1.303,2182.928419
1 Dec 2019 19:18:36.000,55.729,1.238,2189.758639
1 Dec 2019 19:18:37.000,55.698,1.173,2196.589701
1 Dec 2019 19:18:38.000,55.667,1.109,2203.421587
1 Dec 2019 19:18:39.000,55.637,1.044,2210.254287
1 Dec 2019 19:18:40.000,55.606,0.980,2217.087782
1 Dec 2019 19:18:41.000,55.576,0.916,2223.922055
1 Dec 2019 19:18:42.000,55.546,0.852,2230.757095
1 Dec 2019 19:18:43.000,55.516,0.788,2237.592884
1 Dec 2019 19:18:44.000,55.486,0.725,2244.429408
1 Dec 2019 19:18:45.000,55.457,0.662,2251.266648
1 Dec 2019 19:18:46.000,55.427,0.598,2258.104597
1 Dec 2019 19:18:47.000,55.398,0.536,2264.943236
1 Dec 2019 19:18:48.000,55.369,0.473,2271.782549
1 Dec 2019 19:18:49.000,55.341,0.410,2278.622526
1 Dec 2019 19:18:50.000,55.312,0.348,2285.463151
1 Dec 2019 19:18:51.000,55.284,0.286,2292.304410
1 Dec 2019 19:18:52.000,55.256,0.224,2299.146287
1 Dec 2019 19:18:53.000,55.228,0.162,2305.988773
1 Dec 2019 19:18:54.000,55.200,0.101,2312.831852
1 Dec 2019 19:18:55.000,55.172,0.039,2319.675510
1 Dec 2019 19:18:56.000,55.145,-0.022,2326.519733
1 Dec 2019 19:18:56.542,55.130,-0.055,2330.229027
1 Dec 2019 20:45:20.059,263.328,-0.056,2320.397850
1 Dec 2019 20:45:21.000,263.399,-0.002,2314.477141
1 Dec 2019 20:45:22.000,263.476,0.055,2308.186059
1 Dec 2019 20:45:23.000,263.552,0.112,2301.898416
1 Dec 2019 20:45:24.000,263.630,0.169,2295.614247
1 Dec 2019 20:45:25.000,263.707,0.226,2289.333587
1 Dec 2019 20:45:26.000,263.785,0.283,2283.056472
1 Dec 2019 20:45:27.000,263.864,0.341,2276.782936
1 Dec 2019 20:45:28.000,263.942,0.398,2270.513023
1 Dec 2019 20:45:29.000,264.022,0.456,2264.246765
1 Dec 2019 20:45:30.000,264.101,0.514,2257.984201
1 Dec 2019 20:45:31.000,264.181,0.572,2251.725369
1 Dec 2019 20:45:32.000,264.262,0.630,2245.470306
1 Dec 2019 20:45:33.000,264.343,0.688,2239.219051
1 Dec 2019 20:45:34.000,264.424,0.746,2232.971643
1 Dec 2019 20:45:35.000,264.506,0.805,2226.728122
1 Dec 2019 20:45:36.000,264.588,0.863,2220.488528
1 Dec 2019 20:45:37.000,264.671,0.922,2214.252901
1 Dec 2019 20:45:38.000,264.754,0.981,2208.021281
1 Dec 2019 20:45:39.000,264.838,1.040,2201.793706
1 Dec 2019 20:45:40.000,264.922,1.099,2195.570224
1 Dec 2019 20:45:41.000,265.007,1.159,2189.350874
1 Dec 2019 20:45:42.000,265.092,1.218,2183.135699
1 Dec 2019 20:45:43.000,265.177,1.278,2176.924741
1 Dec 2019 20:45:44.000,265.263,1.337,2170.718042
1 Dec 2019 20:45:45.000,265.350,1.397,2164.515648
1 Dec 2019 20:45:46.000,265.437,1.457,2158.317601
1 Dec 2019 20:45:47.000,265.524,1.518,2152.123947
1 Dec 2019 20:45:48.000,265.612,1.578,2145.934730
1 Dec 2019 20:45:49.000,265.701,1.638,2139.749996
1 Dec 2019 20:45:50.000,265.790,1.699,2133.569791
1 Dec 2019 20:45:51.000,265.879,1.760,2127.394161
1 Dec 2019 20:45:52.000,265.969,1.821,2121.223154
1 Dec 2019 20:45:53.000,266.060,1.882,2115.056816
1 Dec 2019 20:45:54.000,266.151,1.943,2108.895191
1 Dec 2019 20:45:55.000,266.243,2.004,2102.738337
1 Dec 2019 20:45:56.000,266.335,2.066,2096.586297
1 Dec 2019 20:45:57.000,266.427,2.127,2090.439121
1 Dec 2019 20:45:58.000,266.520,2.189,2084.296860
1 Dec 2019 20:45:59.000,266.614,2.251,2078.159563
1 Dec 2019 20:46:00.000,266.708,2.313,2072.027282
1 Dec 2019 20:46:01.000,266.803,2.376,2065.900068
1 Dec 2019 20:46:02.000,266.899,2.438,2059.777974
1 Dec 2019 20:46:03.000,266.995,2.501,2053.661051
1 Dec 2019 20:46:04.000,267.091,2.563,2047.549354
1 Dec 2019 20:46:05.000,267.188,2.626,2041.442936
1 Dec 2019 20:46:06.000,267.286,2.689,2035.341851
1 Dec 2019 20:46:07.000,267.384,2.753,2029.246154
1 Dec 2019 20:46:08.000,267.483,2.816,2023.155901
1 Dec 2019 20:46:09.000,267.582,2.880,2017.071148
1 Dec 2019 20:46:10.000,267.682,2.943,2010.991952
1 Dec 2019 20:46:11.000,267.783,3.007,2004.918371
1 Dec 2019 20:46:12.000,267.884,3.071,1998.850461
1 Dec 2019 20:46:13.000,267.986,3.135,1992.788282
1 Dec 2019 20:46:14.000,268.088,3.200,1986.731893
1 Dec 2019 20:46:15.000,268.192,3.264,1980.681353
1 Dec 2019 20:46:16.000,268.295,3.329,1974.636725
1 Dec 2019 20:46:17.000,268.400,3.394,1968.598067
1 Dec 2019 20:46:18.000,268.505,3.459,1962.565444
1 Dec 2019 20:46:19.000,268.610,3.524,1956.538916
1 Dec 2019 20:46:20.000,268.716,3.590,1950.518548
1 Dec 2019 20:46:21.000,268.823,3.655,1944.504403
1 Dec 2019 20:46:22.000,268.931,3.721,1938.496546
1 Dec 2019 20:46:23.000,269.039,3.787,1932.495043
1 Dec 2019 20:46:24.000,269.148,3.853,1926.499958
1 Dec 2019 20:46:25.000,269.258,3.920,1920.511360
1 Dec 2019 20:46:26.000,269.368,3.986,1914.529316
1 Dec 2019 20:46:27.000,269.479,4.053,1908.553894
1 Dec 2019 20:46:28.000,269.591,4.120,1902.585163
1 Dec 2019 20:46:29.000,269.703,4.187,1896.623193
1 Dec 2019 20:46:30.000,269.816,4.254,1890.668054
1 Dec 2019 20:46:31.000,269.930,4.321,1884.719819
1 Dec 2019 20:46:32.000,270.045,4.389,1878.778559
1 Dec 2019 20:46:33.000,270.160,4.457,1872.844347
1 Dec 2019 20:46:34.000,270.276,4.524,1866.917257
1 Dec 2019 20:46:35.000,270.393,4.593,1860.997364
1 Dec 2019 20:46:36.000,270.510,4.661,1855.084743
1 Dec 2019 20:46:37.000,270.629,4.729,1849.179471
1 Dec 2019 20:46:38.000,270.748,4.798,1843.281625
1 Dec 2019 20:46:39.000,270.868,4.867,1837.391282
1 Dec 2019 20:46:40.000,270.988,4.936,1831.508522
1 Dec 2019 20:46:41.000,271.110,5.005,1825.633425
1 Dec 2019 20:46:42.000,271.232,5.075,1819.766072
1 Dec 2019 20:46:43.000,271.355,5.144,1813.906543
1 Dec 2019 20:46:44.000,271.479,5.214,1808.054922
1 Dec 2019 20:46:45.000,271.603,5.284,1802.211293
1 Dec 2019 20:46:46.000,271.729,5.355,1796.375739
1 Dec 2019 20:46:47.000,271.855,5.425,1790.548347
1 Dec 2019 20:46:48.000,271.982,5.496,1784.729202
1 Dec 2019 20:46:49.000,272.110,5.566,1778.918392
1 Dec 2019 20:46:50.000,272.239,5.637,1773.116006
1 Dec 2019 20:46:51.000,272.368,5.709,1767.322132
1 Dec 2019 20:46:52.000,272.499,5.780,1761.536865
1 Dec 2019 20:46:53.000,272.630,5.852,1755.760290
1 Dec 2019 20:46:54.000,272.762,5.924,1749.992502
1 Dec 2019 20:46:55.000,272.895,5.996,1744.233594
1 Dec 2019 20:46:56.000,273.029,6.068,1738.483662
1 Dec 2019 20:46:57.000,273.164,6.140,1732.742801
1 Dec 2019 20:46:58.000,273.300,6.213,1727.011109
1 Dec 2019 20:46:59.000,273.437,6.286,1721.288682
1 Dec 2019 20:47:00.000,273.575,6.359,1715.575620
1 Dec 2019 20:47:01.000,273.714,6.432,1709.872024
1 Dec 2019 20:47:02.000,273.853,6.505,1704.177994
1 Dec 2019 20:47:03.000,273.994,6.579,1698.493633
1 Dec 2019 20:47:04.000,274.135,6.653,1692.819049
1 Dec 2019 20:47:05.000,274.278,6.727,1687.154338
1 Dec 2019 20:47:06.000,274.421,6.801,1681.499612
1 Dec 2019 20:47:07.000,274.566,6.876,1675.854976
1 Dec 2019 20:47:08.000,274.711,6.950,1670.220541
1 Dec 2019 20:47:09.000,274.858,7.025,1664.596414
1 Dec 2019 20:47:10.000,275.005,7.100,1658.982708
1 Dec 2019 20:47:11.000,275.154,7.176,1653.379535
1 Dec 2019 20:47:12.000,275.304,7.251,1647.787013
1 Dec 2019 20:47:13.000,275.454,7.327,1642.205247
1 Dec 2019 20:47:14.000,275.606,7.403,1636.634360
1 Dec 2019 20:47:15.000,275.759,7.479,1631.074468
1 Dec 2019 20:47:16.000,275.913,7.555,1625.525690
1 Dec 2019 20:47:17.000,276.067,7.632,1619.988146
1 Dec 2019 20:47:18.000,276.224,7.709,1614.461959
1 Dec 2019 20:47:19.000,276.381,7.786,1608.947255
1 Dec 2019 20:47:20.000,276.539,7.863,1603.444151
1 Dec 2019 20:47:21.000,276.698,7.940,1597.952777
1 Dec 2019 20:47:22.000,276.859,8.018,1592.473260
1 Dec 2019 20:47:23.000,277.021,8.096,1587.005728
1 Dec 2019 20:47:24.000,277.183,8.174,1581.550314
1 Dec 2019 20:47:25.000,277.348,8.252,1576.107151
1 Dec 2019 20:47:26.000,277.513,8.330,1570.676366
1 Dec 2019 20:47:27.000,277.679,8.409,1565.258097
1 Dec 2019 20:47:28.000,277.847,8.488,1559.852481
1 Dec 2019 20:47:29.000,278.016,8.567,1554.459655
1 Dec 2019 20:47:30.000,278.186,8.646,1549.079763
1 Dec 2019 20:47:31.000,278.357,8.726,1543.712939
1 Dec 2019 20:47:32.000,278.529,8.805,1538.359328
1 Dec 2019 20:47:33.000,278.703,8.885,1533.019076
1 Dec 2019 20:47:34.000,278.878,8.965,1527.692327
1 Dec 2019 20:47:35.000,279.055,9.046,1522.379234
1 Dec 2019 20:47:36.000,279.232,9.126,1517.079938
1 Dec 2019 20:47:37.000,279.411,9.207,1511.794594
1 Dec 2019 20:47:38.000,279.591,9.288,1506.523354
1 Dec 2019 20:47:39.000,279.773,9.369,1501.266377
1 Dec 2019 20:47:40.000,279.956,9.450,1496.023811
1 Dec 2019 20:47:41.000,280.140,9.531,1490.795817
1 Dec 2019 20:47:42.000,280.326,9.613,1485.582556
1 Dec 2019 20:47:43.000,280.513,9.695,1480.384191
1 Dec 2019 20:47:44.000,280.701,9.777,1475.200880
1 Dec 2019 20:47:45.000,280.891,9.859,1470.032790
1 Dec 2019 20:47:46.000,281.082,9.942,1464.880088
1 Dec 2019 20:47:47.000,281.275,10.024,1459.742946
1 Dec 2019 20:47:48.000,281.469,10.107,1454.621528
1 Dec 2019 20:47:49.000,281.665,10.190,1449.516010
1 Dec 2019 20:47:50.000,281.862,10.273,1444.426568
1 Dec 2019 20:47:51.000,282.060,10.357,1439.353373
1 Dec 2019 20:47:52.000,282.260,10.440,1434.296605
1 Dec 2019 20:47:53.000,282.461,10.524,1429.256447
1 Dec 2019 20:47:54.000,282.664,10.608,1424.233076
1 Dec 2019 20:47:55.000,282.869,10.692,1419.226677
1 Dec 2019 20:47:56.000,283.075,10.776,1414.237440
1 Dec 2019 20:47:57.000,283.283,10.860,1409.265546
1 Dec 2019 20:47:58.000,283.492,10.945,1404.311187
1 Dec 2019 20:47:59.000,283.702,11.030,1399.374560
1 Dec 2019 20:48:00.000,283.915,11.115,1394.455850
1 Dec 2019 20:48:01.000,284.129,11.200,1389.555256
1 Dec 2019 20:48:02.000,284.344,11.285,1384.672980
1 Dec 2019 20:48:03.000,284.561,11.370,1379.809214
1 Dec 2019 20:48:04.000,284.780,11.456,1374.964164
1 Dec 2019 20:48:05.000,285.001,11.541,1370.138036
1 Dec 2019 20:48:06.000,285.223,11.627,1365.331031
1 Dec 2019 20:48:07.000,285.447,11.713,1360.543361
1 Dec 2019 20:48:08.000,285.672,11.799,1355.775232
1 Dec 2019 20:48:09.000,285.899,11.885,1351.026857
1 Dec 2019 20:48:10.000,286.128,11.971,1346.298454
1 Dec 2019 20:48:11.000,286.359,12.057,1341.590234
1 Dec 2019 20:48:12.000,286.591,12.144,1336.902420
1 Dec 2019 20:48:13.000,286.826,12.230,1332.235227
1 Dec 2019 20:48:14.000,287.062,12.317,1327.588884
1 Dec 2019 20:48:15.000,287.299,12.404,1322.963609
1 Dec 2019 20:48:16.000,287.539,12.490,1318.359635
1 Dec 2019 20:48:17.000,287.780,12.577,1313.777184
1 Dec 2019 20:48:18.000,288.024,12.664,1309.216490
1 Dec 2019 20:48:19.000,288.269,12.751,1304.677791
1 Dec 2019 20:48:20.000,288.516,12.838,1300.161313
1 Dec 2019 20:48:21.000,288.764,12.926,1295.667303
1 Dec 2019 20:48:22.000,289.015,13.013,1291.195990
1 Dec 2019 20:48:23.000,289.268,13.100,1286.747625
1 Dec 2019 20:48:24.000,289.522,13.187,1282.322444
1 Dec 2019 20:48:25.000,289.778,13.275,1277.920698
1 Dec 2019 20:48:26.000,290.037,13.362,1273.542633
1 Dec 2019 20:48:27.000,290.297,13.449,1269.188495
1 Dec 2019 20:48:28.000,290.559,13.537,1264.858541
1 Dec 2019 20:48:29.000,290.823,13.624,1260.553020
1 Dec 2019 20:48:30.000,291.090,13.712,1256.272193
1 Dec 2019 20:48:31.000,291.358,13.799,1252.016312
1 Dec 2019 20:48:32.000,291.628,13.886,1247.785642
1 Dec 2019 20:48:33.000,291.900,13.974,1243.580440
1 Dec 2019 20:48:34.000,292.174,14.061,1239.400976
1 Dec 2019 20:48:35.000,292.451,14.148,1235.247511
1 Dec 2019 20:48:36.000,292.729,14.235,1231.120310
1 Dec 2019 20:48:37.000,293.009,14.322,1227.019649
1 Dec 2019 20:48:38.000,293.292,14.409,1222.945795
1 Dec 2019 20:48:39.000,293.576,14.496,1218.899019
1 Dec 2019 20:48:40.000,293.863,14.583,1214.879603
1 Dec 2019 20:48:41.000,294.152,14.670,1210.887818
1 Dec 2019 20:48:42.000,294.442,14.756,1206.923941
1 Dec 2019 20:48:43.000,294.735,14.843,1202.988257
1 Dec 2019 20:48:44.000,295.030,14.929,1199.081046
1 Dec 2019 20:48:45.000,295.328,15.015,1195.202587
1 Dec 2019 20:48:46.000,295.627,15.101,1191.353171
1 Dec 2019 20:48:47.000,295.929,15.187,1187.533083
1 Dec 2019 20:48:48.000,296.232,15.272,1183.742605
1 Dec 2019 20:48:49.000,296.538,15.358,1179.982035
1 Dec 2019 20:48:50.000,296.846,15.443,1176.251659
1 Dec 2019 20:48:51.000,297.156,15.528,1172.551770
1 Dec 2019 20:48:52.000,297.469,15.612,1168.882658
1 Dec 2019 20:48:53.000,297.783,15.697,1165.244623
1 Dec 2019 20:48:54.000,298.100,15.781,1161.637958
1 Dec 2019 20:48:55.000,298.419,15.865,1158.062960
1 Dec 2019 20:48:56.000,298.741,15.948,1154.519926
1 Dec 2019 20:48:57.000,299.064,16.032,1151.009153
1 Dec 2019 20:48:58.000,299.390,16.115,1147.530945
1 Dec 2019 20:48:59.000,299.718,16.197,1144.085601
1 Dec 2019 20:49:00.000,300.048,16.279,1140.673422
1 Dec 2019 20:49:01.000,300.380,16.361,1137.294710
1 Dec 2019 20:49:02.000,300.715,16.443,1133.949767
1 Dec 2019 20:49:03.000,301.052,16.524,1130.638897
1 Dec 2019 20:49:04.000,301.391,16.604,1127.362402
1 Dec 2019 20:49:05.000,301.732,16.684,1124.120583
1 Dec 2019 20:49:06.000,302.075,16.764,1120.913752
1 Dec 2019 20:49:07.000,302.421,16.843,1117.742209
1 Dec 2019 20:49:08.000,302.769,16.922,1114.606258
1 Dec 2019 20:49:09.000,303.119,17.000,1111.506204
1 Dec 2019 20:49:10.000,303.472,17.078,1108.442351
1 Dec 2019 20:49:11.000,303.827,17.155,1105.415003
1 Dec 2019 20:49:12.000,304.183,17.232,1102.424464
1 Dec 2019 20:49:13.000,304.543,17.308,1099.471037
1 Dec 2019 20:49:14.000,304.904,17.383,1096.555024
1 Dec 2019 20:49:15.000,305.267,17.458,1093.676729
1 Dec 2019 20:49:16.000,305.633,17.532,1090.836452
1 Dec 2019 20:49:17.000,306.001,17.606,1088.034493
1 Dec 2019 20:49:18.000,306.371,17.678,1085.271153
1 Dec 2019 20:49:19.000,306.743,17.751,1082.546732
1 Dec 2019 20:49:20.000,307.117,17.822,1079.861522
1 Dec 2019 20:49:21.000,307.494,17.893,1077.215821
1 Dec 2019 20:49:22.000,307.872,17.963,1074.609925
1 Dec 2019 20:49:23.000,308.253,18.032,1072.044124
1 Dec 2019 20:49:24.000,308.636,18.100,1069.518712
1 Dec 2019 20:49:25.000,309.021,18.168,1067.033976
1 Dec 2019 20:49:26.000,309.408,18.235,1064.590204
1 Dec 2019 20:49:27.000,309.797,18.301,1062.187683
1 Dec 2019 20:49:28.000,310.188,18.366,1059.826691
1 Dec 2019 20:49:29.000,310.581,18.430,1057.507511
1 Dec 2019 20:49:30.000,310.976,18.493,1055.230420
1 Dec 2019 20:49:31.000,311.373,18.555,1052.995697
1 Dec 2019 20:49:32.000,311.771,18.617,1050.803608
1 Dec 2019 20:49:33.000,312.172,18.677,1048.654426
1 Dec 2019 20:49:34.000,312.575,18.737,1046.548416
1 Dec 2019 20:49:35.000,312.980,18.795,1044.485844
1 Dec 2019 20:49:36.000,313.386,18.853,1042.466965
1 Dec 2019 20:49:37.000,313.794,18.909,1040.492038
1 Dec 2019 20:49:38.000,314.205,18.964,1038.561316
1 Dec 2019 20:49:39.000,314.616,19.019,1036.675045
1 Dec 2019 20:49:40.000,315.030,19.072,1034.833470
1 Dec 2019 20:49:41.000,315.445,19.124,1033.036836
1 Dec 2019 20:49:42.000,315.862,19.175,1031.285373
1 Dec 2019 20:49:43.000,316.281,19.224,1029.579318
1 Dec 2019 20:49:44.000,316.701,19.273,1027.918895
1 Dec 2019 20:49:45.000,317.123,19.320,1026.304330
1 Dec 2019 20:49:46.000,317.546,19.366,1024.735837
1 Dec 2019 20:49:47.000,317.971,19.411,1023.213633
1 Dec 2019 20:49:48.000,318.398,19.455,1021.737923
1 Dec 2019 20:49:49.000,318.825,19.498,1020.308913
1 Dec 2019 20:49:50.000,319.254,19.539,1018.926797
1 Dec 2019 20:49:51.000,319.685,19.579,1017.591770
1 Dec 2019 20:49:52.000,320.117,19.617,1016.304016
1 Dec 2019 20:49:53.000,320.550,19.655,1015.063719
1 Dec 2019 20:49:54.000,320.984,19.691,1013.871050
1 Dec 2019 20:49:55.000,321.420,19.725,1012.726183
1 Dec 2019 20:49:56.000,321.856,19.758,1011.629277
