vcc_sched/simple/output/odugs_wj2xoh_vcc-c_44430_passes.csv

Pass #,GS Name,SC Name,SC NORAD ID,Start Time (UTCG),Stop Time (UTCG),Duration (sec),Max El (deg)
0,ODUGS,VCC-C,44430,2019-12-01 18:38:23.230,2019-12-01 18:48:46.708,623.478,33.787
1,ODUGS,VCC-C,44430,2019-12-01 20:15:00.242,2019-12-01 20:25:10.302,610.06,23.333
2,ODUGS,VCC-C,44430,2019-12-02 01:07:54.886,2019-12-02 01:17:56.538,601.652,20.51
3,ODUGS,VCC-C,44430,2019-12-02 02:44:14.262,2019-12-02 02:54:47.813,633.551,42.426
4,ODUGS,VCC-C,44430,2019-12-02 17:46:30.580,2019-12-02 17:56:03.061,572.481,16.667
5,ODUGS,VCC-C,44430,2019-12-02 19:22:12.710,2019-12-02 19:32:47.717,635.007,40.36
6,ODUGS,VCC-C,44430,2019-12-03 00:15:32.135,2019-12-03 00:24:55.179,563.044,13.762
7,ODUGS,VCC-C,44430,2019-12-03 01:51:43.383,2019-12-03 02:02:29.164,645.781,86.161
8,ODUGS,VCC-C,44430,2019-12-03 18:29:37.235,2019-12-03 18:40:21.435,644.2,83.726
9,ODUGS,VCC-C,44430,2019-12-03 20:07:12.409,2019-12-03 20:16:32.645,560.236,13.518
10,ODUGS,VCC-C,44430,2019-12-04 00:59:16.789,2019-12-04 01:09:53.743,636.954,41.498
11,ODUGS,VCC-C,44430,2019-12-04 02:36:02.211,2019-12-04 02:45:33.680,571.469,16.301
12,ODUGS,VCC-C,44430,2019-12-04 17:37:16.227,2019-12-04 17:47:48.762,632.535,43.604
13,ODUGS,VCC-C,44430,2019-12-04 19:14:08.839,2019-12-04 19:24:07.594,598.755,20.086
14,ODUGS,VCC-C,44430,2019-12-05 00:06:51.787,2019-12-05 00:17:03.890,612.103,23.807
15,ODUGS,VCC-C,44430,2019-12-05 01:43:15.498,2019-12-05 01:53:39.049,623.551,32.939
16,ODUGS,VCC-C,44430,2019-12-05 16:45:12.959,2019-12-05 16:55:05.886,592.927,20.867
17,ODUGS,VCC-C,44430,2019-12-05 18:21:14.022,2019-12-05 18:31:41.963,627.941,33.054
18,ODUGS,VCC-C,44430,2019-12-05 23:14:26.054,2019-12-05 23:24:01.997,575.943,15.533
19,ODUGS,VCC-C,44430,2019-12-06 00:50:38.703,2019-12-06 01:01:22.753,644.05,73.801
20,ODUGS,VCC-C,44430,2019-12-06 15:53:33.742,2019-12-06 16:02:05.871,512.129,10.142
21,ODUGS,VCC-C,44430,2019-12-06 17:28:30.562,2019-12-06 17:39:13.399,642.837,65.426
22,ODUGS,VCC-C,44430,2019-12-06 19:06:17.425,2019-12-06 19:15:23.615,546.19,12.04
23,ODUGS,VCC-C,44430,2019-12-06 22:21:57.157,2019-12-06 22:30:51.071,533.914,10.882
24,ODUGS,VCC-C,44430,2019-12-06 23:58:07.286,2019-12-07 00:08:48.713,641.427,51.852
25,ODUGS,VCC-C,44430,2019-12-07 01:35:02.631,2019-12-07 01:44:07.701,545.07,12.943
26,ODUGS,VCC-C,44430,2019-12-07 16:36:00.805,2019-12-07 16:46:39.367,638.562,56.891
27,ODUGS,VCC-C,44430,2019-12-07 18:13:07.838,2019-12-07 18:22:54.490,586.652,17.511
28,ODUGS,VCC-C,44430,2019-12-07 23:05:38.286,2019-12-07 23:15:59.454,621.168,27.923
29,ODUGS,VCC-C,44430,2019-12-08 00:42:07.336,2019-12-08 00:52:17.787,610.451,26.062
30,ODUGS,VCC-C,44430,2019-12-08 15:43:47.626,2019-12-08 15:53:56.523,608.897,26.092
31,ODUGS,VCC-C,44430,2019-12-08 17:20:06.046,2019-12-08 17:30:25.560,619.514,27.713
32,ODUGS,VCC-C,44430,2019-12-08 22:13:09.297,2019-12-08 22:22:57.281,587.984,17.619
33,ODUGS,VCC-C,44430,2019-12-08 23:49:24.191,2019-12-09 00:00:04.151,639.96,56.619
34,ODUGS,VCC-C,44430,2019-12-09 14:51:55.992,2019-12-09 15:00:59.278,543.286,12.912
35,ODUGS,VCC-C,44430,2019-12-09 16:27:14.880,2019-12-09 16:37:54.436,639.556,51.458
36,ODUGS,VCC-C,44430,2019-12-09 18:05:12.261,2019-12-09 18:14:04.507,532.246,10.809
37,ODUGS,VCC-C,44430,2019-12-09 21:20:37.944,2019-12-09 21:29:44.973,547.029,12.089
38,ODUGS,VCC-C,44430,2019-12-09 22:56:47.665,2019-12-09 23:07:31.676,644.011,65.812
39,ODUGS,VCC-C,44430,2019-12-10 00:33:54.868,2019-12-10 00:42:28.160,513.292,10.155
40,ODUGS,VCC-C,44430,2019-12-10 15:34:36.720,2019-12-10 15:45:18.690,641.97,73.991
41,ODUGS,VCC-C,44430,2019-12-10 17:11:57.058,2019-12-10 17:21:31.037,573.979,15.427
42,ODUGS,VCC-C,44430,2019-12-10 22:04:14.420,2019-12-10 22:14:43.181,628.761,33.176
43,ODUGS,VCC-C,44430,2019-12-10 23:40:49.909,2019-12-10 23:50:43.937,594.028,20.889
44,ODUGS,VCC-C,44430,2019-12-11 14:42:14.173,2019-12-11 14:52:35.295,621.122,32.792
45,ODUGS,VCC-C,44430,2019-12-11 16:18:48.608,2019-12-11 16:28:58.570,609.962,23.674
46,ODUGS,VCC-C,44430,2019-12-11 21:11:41.930,2019-12-11 21:21:40.962,599.032,20.099
47,ODUGS,VCC-C,44430,2019-12-11 22:47:59.916,2019-12-11 22:58:33.341,633.425,43.69
48,ODUGS,VCC-C,44430,2019-12-12 13:50:11.308,2019-12-12 13:59:39.600,568.292,16.123
49,ODUGS,VCC-C,44430,2019-12-12 15:25:50.017,2019-12-12 15:36:24.640,634.623,41.43
50,ODUGS,VCC-C,44430,2019-12-12 20:19:07.837,2019-12-12 20:28:27.606,559.769,13.482
51,ODUGS,VCC-C,44430,2019-12-12 21:55:17.965,2019-12-12 22:06:02.627,644.662,83.372
52,ODUGS,VCC-C,44430,2019-12-13 14:33:03.752,2019-12-13 14:43:46.854,643.102,86.78
53,ODUGS,VCC-C,44430,2019-12-13 16:10:36.321,2019-12-13 16:19:57.287,560.966,13.712
54,ODUGS,VCC-C,44430,2019-12-13 21:02:40.233,2019-12-13 21:13:15.040,634.807,40.041
55,ODUGS,VCC-C,44430,2019-12-13 22:39:23.356,2019-12-13 22:48:57.368,574.012,16.847
56,ODUGS,VCC-C,44430,2019-12-14 13:40:32.286,2019-12-14 13:51:02.431,630.145,41.611
57,ODUGS,VCC-C,44430,2019-12-14 15:17:21.537,2019-12-14 15:27:21.046,599.509,20.526
58,ODUGS,VCC-C,44430,2019-12-14 20:10:04.008,2019-12-14 20:20:12.967,608.959,23.086
59,ODUGS,VCC-C,44430,2019-12-14 21:46:25.927,2019-12-14 21:56:50.275,624.348,34.334
60,ODUGS,VCC-C,44430,2019-12-15 12:48:19.052,2019-12-15 12:58:07.387,588.335,19.934
61,ODUGS,VCC-C,44430,2019-12-15 14:24:15.795,2019-12-15 14:34:44.069,628.274,34.212
62,ODUGS,VCC-C,44430,2019-12-15 19:17:26.911,2019-12-15 19:26:58.852,571.941,15.092
63,ODUGS,VCC-C,44430,2019-12-15 20:53:38.225,2019-12-15 21:04:21.543,643.318,77.657
64,ODUGS,VCC-C,44430,2019-12-16 13:31:21.715,2019-12-16 13:42:03.971,642.256,68.969
65,ODUGS,VCC-C,44430,2019-12-16 15:09:05.446,2019-12-16 15:18:13.281,547.835,12.284
66,ODUGS,VCC-C,44430,2019-12-16 18:24:46.453,2019-12-16 18:33:35.828,529.375,10.582
67,ODUGS,VCC-C,44430,2019-12-16 20:00:55.761,2019-12-16 20:11:35.026,639.265,49.174
68,ODUGS,VCC-C,44430,2019-12-16 21:37:47.894,2019-12-16 21:46:57.915,550.021,13.578
69,ODUGS,VCC-C,44430,2019-12-17 12:38:41.700,2019-12-17 12:49:18.130,636.43,53.328
70,ODUGS,VCC-C,44430,2019-12-17 14:15:44.682,2019-12-17 14:25:33.037,588.355,18.013
