vcc_sched/simple/output/vtgs_wj2xms_vcc-b_44431_passes.csv

Pass #,GS Name,SC Name,SC NORAD ID,Start Time (UTCG),Stop Time (UTCG),Duration (sec),Max El (deg)
0,VTGS,VCC-B,44431,2019-12-01 19:08:23.467,2019-12-01 19:18:56.542,633.075,45.659
1,VTGS,VCC-B,44431,2019-12-01 20:45:20.059,2019-12-01 20:55:17.962,597.903,20.124
2,VTGS,VCC-B,44431,2019-12-02 01:38:01.200,2019-12-02 01:48:19.222,618.022,26.598
3,VTGS,VCC-B,44431,2019-12-02 03:14:30.825,2019-12-02 03:24:47.011,616.186,29.009
4,VTGS,VCC-B,44431,2019-12-02 18:16:53.335,2019-12-02 18:26:49.921,596.586,22.165
5,VTGS,VCC-B,44431,2019-12-02 19:53:00.745,2019-12-02 20:03:26.987,626.242,32.314
6,VTGS,VCC-B,44431,2019-12-03 00:46:10.175,2019-12-03 00:55:55.684,585.509,17.303
7,VTGS,VCC-B,44431,2019-12-03 02:22:27.769,2019-12-03 02:33:09.073,641.304,62.377
8,VTGS,VCC-B,44431,2019-12-03 17:25:45.579,2019-12-03 17:34:27.993,522.414,11.096
9,VTGS,VCC-B,44431,2019-12-03 19:00:52.093,2019-12-03 19:11:33.706,641.613,61.629
10,VTGS,VCC-B,44431,2019-12-03 20:38:42.498,2019-12-03 20:47:47.929,545.431,12.109
11,VTGS,VCC-B,44431,2019-12-03 23:54:16.607,2019-12-04 00:03:23.315,546.708,12.171
12,VTGS,VCC-B,44431,2019-12-04 01:30:30.597,2019-12-04 01:41:13.844,643.247,61.986
13,VTGS,VCC-B,44431,2019-12-04 03:07:36.159,2019-12-04 03:16:20.376,524.217,11.136
14,VTGS,VCC-B,44431,2019-12-04 18:08:56.355,2019-12-04 18:19:35.761,639.406,62.527
15,VTGS,VCC-B,44431,2019-12-04 19:46:09.560,2019-12-04 19:55:53.388,583.828,17.197
16,VTGS,VCC-B,44431,2019-12-05 00:38:36.324,2019-12-05 00:49:03.893,627.569,32.486
17,VTGS,VCC-B,44431,2019-12-05 02:15:13.094,2019-12-05 02:25:11.231,598.137,22.196
18,VTGS,VCC-B,44431,2019-12-05 17:17:16.151,2019-12-05 17:27:30.148,613.997,28.934
19,VTGS,VCC-B,44431,2019-12-05 18:53:43.599,2019-12-05 19:03:59.649,616.05,26.433
20,VTGS,VCC-B,44431,2019-12-05 23:46:42.616,2019-12-05 23:56:41.409,598.793,20.193
21,VTGS,VCC-B,44431,2019-12-06 01:23:03.537,2019-12-06 01:33:37.926,634.389,45.65
22,VTGS,VCC-B,44431,2019-12-06 16:25:55.731,2019-12-06 16:35:12.070,556.339,14.624
23,VTGS,VCC-B,44431,2019-12-06 18:01:27.417,2019-12-06 18:12:04.461,637.044,46.824
24,VTGS,VCC-B,44431,2019-12-06 19:39:29.560,2019-12-06 19:48:19.231,529.671,10.729
25,VTGS,VCC-B,44431,2019-12-06 22:54:47.261,2019-12-06 23:04:08.917,561.656,13.824
26,VTGS,VCC-B,44431,2019-12-07 00:31:01.425,2019-12-07 00:41:45.956,644.531,82.306
27,VTGS,VCC-B,44431,2019-12-07 17:09:23.311,2019-12-07 17:20:05.554,642.243,84.343
28,VTGS,VCC-B,44431,2019-12-07 18:46:51.692,2019-12-07 18:56:20.655,568.963,14.889
29,VTGS,VCC-B,44431,2019-12-07 22:02:47.869,2019-12-07 22:11:29.674,521.805,10.084
30,VTGS,VCC-B,44431,2019-12-07 23:39:03.266,2019-12-07 23:49:38.299,635.033,40.64
31,VTGS,VCC-B,44431,2019-12-08 01:15:48.962,2019-12-08 01:25:23.762,574.8,17.131
32,VTGS,VCC-B,44431,2019-12-08 16:17:33.689,2019-12-08 16:28:00.232,626.543,38.257
33,VTGS,VCC-B,44431,2019-12-08 17:54:19.517,2019-12-08 18:04:23.825,604.308,22.12
34,VTGS,VCC-B,44431,2019-12-08 22:47:06.539,2019-12-08 22:57:17.215,610.676,23.847
35,VTGS,VCC-B,44431,2019-12-09 00:23:32.079,2019-12-09 00:33:55.801,623.722,34.11
36,VTGS,VCC-B,44431,2019-12-09 15:26:01.959,2019-12-09 15:35:44.587,582.628,18.939
37,VTGS,VCC-B,44431,2019-12-09 17:01:56.165,2019-12-09 17:12:26.390,630.225,36.768
38,VTGS,VCC-B,44431,2019-12-09 21:55:09.027,2019-12-09 22:04:45.043,576.016,15.82
39,VTGS,VCC-B,44431,2019-12-09 23:31:24.535,2019-12-09 23:42:07.449,642.914,74.95
40,VTGS,VCC-B,44431,2019-12-10 16:09:44.079,2019-12-10 16:20:26.117,642.038,73.308
41,VTGS,VCC-B,44431,2019-12-10 17:47:26.198,2019-12-10 17:56:39.878,553.68,13.034
42,VTGS,VCC-B,44431,2019-12-10 21:03:08.417,2019-12-10 21:12:04.746,536.329,11.268
43,VTGS,VCC-B,44431,2019-12-10 22:39:22.130,2019-12-10 22:50:02.365,640.235,52.263
44,VTGS,VCC-B,44431,2019-12-11 00:16:18.876,2019-12-11 00:25:24.217,545.341,13.181
45,VTGS,VCC-B,44431,2019-12-11 15:17:45.558,2019-12-11 15:28:20.518,634.96,51.48
46,VTGS,VCC-B,44431,2019-12-11 16:54:48.286,2019-12-11 17:04:39.624,591.338,18.839
47,VTGS,VCC-B,44431,2019-12-11 21:47:22.069,2019-12-11 21:57:42.978,620.909,28.59
48,VTGS,VCC-B,44431,2019-12-11 23:23:53.586,2019-12-11 23:34:02.540,608.954,26.071
49,VTGS,VCC-B,44431,2019-12-12 14:26:03.491,2019-12-12 14:36:06.266,602.775,24.426
50,VTGS,VCC-B,44431,2019-12-12 16:02:18.134,2019-12-12 16:12:39.625,621.491,29.793
51,VTGS,VCC-B,44431,2019-12-12 20:55:22.057,2019-12-12 21:05:11.525,589.468,18.252
52,VTGS,VCC-B,44431,2019-12-12 22:31:40.051,2019-12-12 22:42:18.265,638.214,55.386
53,VTGS,VCC-B,44431,2019-12-13 13:34:42.938,2019-12-13 13:43:37.732,534.794,12.271
54,VTGS,VCC-B,44431,2019-12-13 15:09:58.422,2019-12-13 15:20:37.617,639.195,55.499
55,VTGS,VCC-B,44431,2019-12-13 16:47:52.831,2019-12-13 16:56:51.163,538.332,11.525
56,VTGS,VCC-B,44431,2019-12-13 20:03:19.838,2019-12-13 20:12:30.709,550.871,12.684
57,VTGS,VCC-B,44431,2019-12-13 21:39:33.014,2019-12-13 21:50:16.040,643.026,68.693
58,VTGS,VCC-B,44431,2019-12-14 14:17:51.443,2019-12-14 14:28:31.266,639.823,69.74
59,VTGS,VCC-B,44431,2019-12-14 15:55:09.675,2019-12-14 16:04:47.146,577.471,16.27
60,VTGS,VCC-B,44431,2019-12-14 20:47:29.293,2019-12-14 20:57:58.611,629.318,34.943
61,VTGS,VCC-B,44431,2019-12-14 22:24:08.314,2019-12-14 22:33:57.964,589.65,20.22
62,VTGS,VCC-B,44431,2019-12-15 13:25:59.759,2019-12-15 13:36:17.632,617.873,31.7
63,VTGS,VCC-B,44431,2019-12-15 15:02:33.130,2019-12-15 15:12:44.267,611.137,24.76
64,VTGS,VCC-B,44431,2019-12-15 19:55:26.453,2019-12-15 20:05:28.222,601.769,21.26
65,VTGS,VCC-B,44431,2019-12-15 21:31:48.101,2019-12-15 21:42:18.312,630.211,41.202
66,VTGS,VCC-B,44431,2019-12-16 12:34:27.347,2019-12-16 12:43:52.195,564.848,15.899
67,VTGS,VCC-B,44431,2019-12-16 14:10:06.134,2019-12-16 14:20:40.206,634.072,43.024
68,VTGS,VCC-B,44431,2019-12-16 15:48:11.329,2019-12-16 15:56:54.627,523.298,10.291
69,VTGS,VCC-B,44431,2019-12-16 19:03:22.261,2019-12-16 19:12:47.346,565.085,14.375
70,VTGS,VCC-B,44431,2019-12-16 20:39:36.018,2019-12-16 20:50:19.263,643.245,89.424
71,VTGS,VCC-B,44431,2019-12-17 13:17:51.080,2019-12-17 13:28:32.687,641.607,88.328
72,VTGS,VCC-B,44431,2019-12-17 14:55:23.478,2019-12-17 15:04:46.496,563.018,14.214
